Timestamp,stateEstimate.x,stateEstimate.y,stateEstimate.z,stateEstimate.roll,stateEstimate.pitch,stateEstimate.yaw
78658,-0.34475991129875183,-0.1255590319633484,-0.018956754356622696,-1.0002821683883667,-0.12891042232513428,0.7336744666099548
78698,-0.34478941559791565,-0.12550973892211914,-0.018847530707716942,-1.007314682006836,-0.1252809762954712,0.7370561361312866
78740,-0.34479469060897827,-0.12554463744163513,-0.018676679581403732,-1.0117179155349731,-0.12392134219408035,0.7366355657577515
78778,-0.3448466360569,-0.12529820203781128,-0.018948577344417572,-1.016479730606079,-0.12420228868722916,0.7355716228485107
78818,-0.3448565900325775,-0.12544240057468414,-0.018888574093580246,-1.0033397674560547,-0.12221238017082214,0.7382640838623047
78858,-0.3448313772678375,-0.12555542588233948,-0.01867390051484108,-1.0068426132202148,-0.12654991447925568,0.7363498210906982
78898,-0.3447343707084656,-0.12564489245414734,-0.01860479824244976,-1.0092471837997437,-0.13380959630012512,0.740245521068573
78938,-0.34461095929145813,-0.12613727152347565,-0.018322613090276718,-0.999384343624115,-0.1375921219587326,0.7369255423545837
78978,-0.3446420133113861,-0.1257995218038559,-0.018514301627874374,-1.0150120258331299,-0.13668805360794067,0.7340660095214844
79018,-0.34463462233543396,-0.12590807676315308,-0.01839481107890606,-1.0074524879455566,-0.13149474561214447,0.7404060363769531
79058,-0.34464511275291443,-0.1260811686515808,-0.018071657046675682,-1.0084843635559082,-0.12319326400756836,0.7470858097076416
79098,-0.34460029006004333,-0.12621238827705383,-0.01793503947556019,-1.008428692817688,-0.12752799689769745,0.7584249377250671
79140,-0.34462228417396545,-0.12609140574932098,-0.017965521663427353,-1.019800066947937,-0.126357764005661,0.7567929625511169
79178,-0.34459930658340454,-0.12612536549568176,-0.017879869788885117,-1.0173099040985107,-0.12777824699878693,0.7553558349609375
79218,-0.34455880522727966,-0.126238152384758,-0.01763772778213024,-1.0114755630493164,-0.1278923600912094,0.7541206479072571
79258,-0.3445415198802948,-0.1262332797050476,-0.01766798086464405,-1.0063626766204834,-0.12820982933044434,0.7497546672821045
79298,-0.3444155752658844,-0.126091867685318,-0.017930680885910988,-1.0025198459625244,-0.14191216230392456,0.75399249792099
79338,-0.3444980978965759,-0.12636412680149078,-0.017841435968875885,-0.9863638877868652,-0.12433461099863052,0.7557603716850281
79378,-0.34458401799201965,-0.1261502504348755,-0.018225260078907013,-0.9842193126678467,-0.12573690712451935,0.7544207572937012
79418,-0.34460243582725525,-0.12627898156642914,-0.018133599311113358,-0.9823592901229858,-0.1256808191537857,0.752708911895752
79458,-0.34466350078582764,-0.1257666051387787,-0.018501410260796547,-0.9964621067047119,-0.12981954216957092,0.7490366697311401
79498,-0.34471309185028076,-0.12585413455963135,-0.01829162985086441,-0.9909222722053528,-0.12480339407920837,0.7525776624679565
79538,-0.3445890247821808,-0.12602899968624115,-0.018080011010169983,-0.9897036552429199,-0.1301582306623459,0.7562498450279236
79578,-0.34456998109817505,-0.12625861167907715,-0.017757859081029892,-0.9872480034828186,-0.12353897094726562,0.7600200176239014
79618,-0.3445383906364441,-0.12641283869743347,-0.017497044056653976,-0.983581006526947,-0.11996126174926758,0.7569425106048584
79658,-0.34431254863739014,-0.12665550410747528,-0.01733268052339554,-0.9825904369354248,-0.1365755796432495,0.7532822489738464
79698,-0.3445259928703308,-0.1261235624551773,-0.01794377714395523,-0.978529155254364,-0.13609184324741364,0.74787837266922
79738,-0.34443292021751404,-0.12660819292068481,-0.017503317445516586,-0.9685434103012085,-0.12803098559379578,0.7491967082023621
79778,-0.3445185720920563,-0.12622429430484772,-0.018011506646871567,-0.9823628067970276,-0.13120882213115692,0.7493500709533691
79818,-0.3445492386817932,-0.12623316049575806,-0.017984909936785698,-0.991414487361908,-0.12798483669757843,0.7476547360420227
79858,-0.34455981850624084,-0.12639255821704865,-0.017683634534478188,-1.002327799797058,-0.12661048769950867,0.749034583568573
79898,-0.34448254108428955,-0.12658992409706116,-0.017413044348359108,-1.0006294250488281,-0.13220079243183136,0.7519405484199524
79938,-0.344444215297699,-0.12655767798423767,-0.0173056498169899,-1.006932020187378,-0.14174316823482513,0.7500567436218262
79978,-0.34454432129859924,-0.1261448860168457,-0.017774643376469612,-1.0143811702728271,-0.14146773517131805,0.7482993006706238
80018,-0.34454235434532166,-0.12635692954063416,-0.017498891800642014,-1.0172553062438965,-0.14287805557250977,0.7455862164497375
80059,-0.34460777044296265,-0.12641547620296478,-0.017520518973469734,-1.0191643238067627,-0.13530541956424713,0.7618350982666016
80098,-0.344600111246109,-0.12645749747753143,-0.017530567944049835,-1.0172128677368164,-0.13158026337623596,0.7607377767562866
80138,-0.3445441424846649,-0.12642161548137665,-0.0174973513931036,-1.0319879055023193,-0.1400403082370758,0.7610427737236023
80178,-0.3445037007331848,-0.12653754651546478,-0.01733448915183544,-1.0460320711135864,-0.14296981692314148,0.7606983780860901
80218,-0.3444301187992096,-0.126952663064003,-0.017029955983161926,-1.0470563173294067,-0.14525765180587769,0.7605541944503784
80259,-0.34450486302375793,-0.12668195366859436,-0.017205381765961647,-1.0606733560562134,-0.15016785264015198,0.7580894827842712
80298,-0.3443658649921417,-0.1270493119955063,-0.0167168490588665,-1.0593940019607544,-0.15207786858081818,0.7615466713905334
80338,-0.34444719552993774,-0.12705618143081665,-0.01664833351969719,-1.057424545288086,-0.1461831033229828,0.763058066368103
80378,-0.3445093631744385,-0.12691844999790192,-0.016839079558849335,-1.0606060028076172,-0.1424713134765625,0.7594430446624756
80418,-0.3441702127456665,-0.1275242120027542,-0.016677621752023697,-1.2584418058395386,-0.31847578287124634,0.0895940437912941
80459,-0.34332436323165894,-0.12927106022834778,-0.016354843974113464,-1.3410179615020752,-0.48585593700408936,-0.6964675188064575
80498,-0.34239161014556885,-0.128635972738266,-0.016736216843128204,-1.7455147504806519,-1.0582256317138672,-1.2820210456848145
80538,-0.3422584533691406,-0.1266307830810547,-0.01687173917889595,-2.369584321975708,-0.8493098020553589,-0.07206141203641891
80578,-0.34170451760292053,-0.12719926238059998,-0.0163115207105875,-1.5871506929397583,-0.33454763889312744,0.22207802534103394
80618,-0.34227994084358215,-0.12854430079460144,-0.012246408499777317,-0.29957476258277893,2.2285032272338867,1.3112515211105347
80659,-0.34415072202682495,-0.12728111445903778,0.002318394836038351,-0.7223230600357056,0.4452345371246338,2.8494389057159424
80698,-0.3469545245170593,-0.12497111409902573,0.02838004194200039,-1.7574936151504517,1.346009612083435,-0.8638292551040649
80738,-0.34863778948783875,-0.12150547653436661,0.05891384184360504,-2.751075267791748,2.703040599822998,-4.944784641265869
80778,-0.34840866923332214,-0.11736536771059036,0.09237875044345856,-2.585294485092163,2.975006103515625,-4.026984214782715
80818,-0.346178263425827,-0.10873977839946747,0.1283300220966339,-3.010934352874756,2.9856348037719727,-2.941739320755005
80859,-0.3398430347442627,-0.10137096792459488,0.18040603399276733,-3.757859230041504,1.9278995990753174,-1.9426863193511963
80898,-0.3338044285774231,-0.08651912212371826,0.22651758790016174,-4.012800216674805,2.2574620246887207,-2.010451078414917
80938,-0.32700061798095703,-0.06986531615257263,0.2735971510410309,-4.08128023147583,1.7299511432647705,-2.776028633117676
80978,-0.317902147769928,-0.051097821444272995,0.3144996762275696,-5.016808032989502,1.854912519454956,-2.3214540481567383
81018,-0.3077053427696228,-0.02820860780775547,0.3507040739059448,-4.328322887420654,-0.18720120191574097,-0.7182023525238037
81060,-0.2946205735206604,-0.018498698249459267,0.3919753432273865,-4.429720878601074,-1.4552239179611206,-0.8892509937286377
81098,-0.2806412875652313,0.001964846160262823,0.43116140365600586,-4.735786437988281,-0.511967658996582,-2.7045538425445557
81138,-0.2648591995239258,0.021913815289735794,0.4705260396003723,-5.684607982635498,-1.8513250350952148,-4.174823760986328
81178,-0.23955567181110382,0.0443834513425827,0.5119202733039856,-5.309403896331787,-2.305100917816162,-1.2956660985946655
81218,-0.2199746072292328,0.05360874533653259,0.5467135906219482,-4.1765899658203125,-4.601016998291016,0.6833978295326233
81260,-0.20363353192806244,0.08221346139907837,0.5647760033607483,-3.479525566101074,-5.08656120300293,-0.32346946001052856
81298,-0.1879904717206955,0.11031927913427353,0.5791796445846558,-1.631081461906433,-4.712052822113037,0.6685406565666199
81338,-0.1720147728919983,0.1397150307893753,0.5990947484970093,-1.297752857208252,-5.002516269683838,-0.7664619088172913
81378,-0.15829771757125854,0.1699967086315155,0.6188573241233826,-3.0214104652404785,-5.406714916229248,-4.306840419769287
81418,-0.14237859845161438,0.1995806097984314,0.6351350545883179,-3.4572997093200684,-6.0604376792907715,-5.537653923034668
81460,-0.12506358325481415,0.22766970098018646,0.6471664905548096,-3.4209482669830322,-6.181120872497559,-5.095856189727783
81498,-0.10694976896047592,0.2588574290275574,0.6585698127746582,-4.139235973358154,-5.993366241455078,-7.022098541259766
81538,-0.08805572241544724,0.2878898084163666,0.6692073345184326,-4.817888259887695,-5.62630033493042,-9.179764747619629
81578,-0.06986058503389359,0.3153983950614929,0.6762320399284363,-4.742876052856445,-5.436933994293213,-9.249613761901855
81618,-0.05250808596611023,0.34215500950813293,0.6830970048904419,-4.317841529846191,-5.696014881134033,-9.048126220703125
81660,-0.03770492598414421,0.3664003014564514,0.6890823245048523,-4.450428485870361,-4.986942291259766,-9.723053932189941
81698,-0.022917388007044792,0.39273902773857117,0.6947927474975586,-3.208944797515869,-4.503408908843994,-9.08477783203125
81738,-0.007758074905723333,0.4198705852031708,0.7027179598808289,-3.097224712371826,-4.5201520919799805,-9.3011474609375
81778,0.007431408390402794,0.44625213742256165,0.7118872404098511,-3.087127923965454,-4.357949733734131,-10.4120454788208
81818,0.02301875688135624,0.47338902950286865,0.7207103371620178,-4.31505012512207,-4.48126745223999,-12.032832145690918
81858,0.03823932260274887,0.4988512694835663,0.7277206778526306,-4.554882526397705,-4.023609638214111,-12.996320724487305
81898,0.05435251072049141,0.5239415764808655,0.7363511919975281,-5.425286769866943,-4.114927291870117,-14.421181678771973
81938,0.07058154791593552,0.5479154586791992,0.7453277707099915,-5.885682582855225,-4.190821647644043,-15.598604202270508
81978,0.08652403205633163,0.57038414478302,0.7534100413322449,-6.511406421661377,-4.525583267211914,-16.461700439453125
82018,0.10329210758209229,0.5905055403709412,0.7594877481460571,-6.125045299530029,-4.397747039794922,-16.54065704345703
82060,0.11763692647218704,0.6069930791854858,0.7664321064949036,-5.714746475219727,-4.568591594696045,-16.61310577392578
82098,0.13351979851722717,0.627923846244812,0.7722429633140564,-5.768625259399414,-4.732809066772461,-18.25331687927246
82138,0.15006379783153534,0.6470781564712524,0.7774661779403687,-5.47489595413208,-4.939107894897461,-19.102983474731445
82178,0.1658548265695572,0.6639673709869385,0.7816001772880554,-5.110992431640625,-4.990447521209717,-19.654356002807617
82218,0.18058282136917114,0.6806201934814453,0.7854775786399841,-4.73520040512085,-5.271730899810791,-20.356456756591797
82258,0.19258026778697968,0.6949880719184875,0.7897708415985107,-4.047077178955078,-5.1114301681518555,-20.923662185668945
82298,0.2069624960422516,0.7126995325088501,0.7944972515106201,-3.657714605331421,-5.825066089630127,-21.66189193725586
82338,0.22148635983467102,0.7311387658119202,0.7983399629592896,-3.1951005458831787,-5.709799766540527,-22.942256927490234
82378,0.23608621954917908,0.7468295097351074,0.803175151348114,-2.485854387283325,-5.7037034034729,-22.577287673950195
82418,0.24994294345378876,0.7634586095809937,0.8098270893096924,-2.281130313873291,-6.388862609863281,-22.65583610534668
82458,0.261231005191803,0.7793098092079163,0.8163929581642151,-2.349801778793335,-6.264934539794922,-23.98361587524414
82498,0.27502959966659546,0.7953457236289978,0.8220919370651245,-2.7964773178100586,-6.385577201843262,-23.90857696533203
82538,0.2890750467777252,0.812312662601471,0.8275750279426575,-2.24847149848938,-6.04646110534668,-23.539710998535156
82579,0.30177605152130127,0.8280989527702332,0.8355814218521118,-3.3185513019561768,-6.865720272064209,-25.43726348876953
82618,0.3146477937698364,0.8421894907951355,0.8410226702690125,-2.4626595973968506,-6.309321403503418,-25.509233474731445
82658,0.32621365785598755,0.8580189943313599,0.8456209897994995,-2.0901122093200684,-6.542506694793701,-25.4031925201416
82698,0.33894965052604675,0.8693727850914001,0.8529514670372009,-1.8072395324707031,-6.257992744445801,-26.638639450073242
82738,0.35274454951286316,0.8818725347518921,0.8597344160079956,-1.4595565795898438,-6.30686616897583,-27.382823944091797
82779,0.36736810207366943,0.8952160477638245,0.8649934530258179,-1.2640668153762817,-6.291968822479248,-28.128189086914062
82818,0.383137047290802,0.9063190817832947,0.8687688708305359,-0.9685544967651367,-6.072196960449219,-28.743141174316406
82858,0.3979329466819763,0.9201884269714355,0.8697242736816406,0.21707233786582947,-4.8528923988342285,-29.04399871826172
82898,0.41199925541877747,0.9352836012840271,0.8728275895118713,0.5772219300270081,-4.956382751464844,-28.947477340698242
82938,0.4249677062034607,0.9502373337745667,0.8778471350669861,0.6648751497268677,-4.973800182342529,-30.306615829467773
82979,0.43754836916923523,0.9647468328475952,0.8829594254493713,0.14439909160137177,-5.687561988830566,-32.025230407714844
83018,0.4500798285007477,0.9773629307746887,0.8850361704826355,0.9823718667030334,-5.3463897705078125,-31.82126808166504
83058,0.46151503920555115,0.9893626570701599,0.8879783153533936,1.7298623323440552,-5.169123649597168,-31.484045028686523
83098,0.4725797176361084,1.0040814876556396,0.8917962908744812,1.9864673614501953,-5.531447410583496,-31.962831497192383
83138,0.4825557768344879,1.018126368522644,0.8960918188095093,1.6097986698150635,-6.08510160446167,-33.288726806640625
83179,0.4919072985649109,1.030388593673706,0.8978652358055115,1.5973464250564575,-5.910792827606201,-33.89569854736328
83218,0.5015488266944885,1.041250228881836,0.8986796736717224,2.1552813053131104,-5.899746417999268,-33.341060638427734
83258,0.5108820796012878,1.0512988567352295,0.8998978734016418,2.497830629348755,-5.952301979064941,-33.22236633300781
83298,0.5208999514579773,1.0634483098983765,0.900891900062561,2.3286097049713135,-6.011394500732422,-33.52915573120117
83338,0.5309011936187744,1.0737611055374146,0.9021896123886108,2.455188512802124,-6.04274320602417,-33.89705276489258
83380,0.5399907231330872,1.0827568769454956,0.90308678150177,3.012742757797241,-5.64087438583374,-34.0808219909668
83418,0.5484813451766968,1.0922423601150513,0.904688835144043,3.307220220565796,-5.766513347625732,-34.329402923583984
83458,0.5556455254554749,1.0991930961608887,0.907203197479248,3.574481248855591,-5.977517604827881,-34.6268196105957
83498,0.5626220107078552,1.1066893339157104,0.9091958999633789,3.6034717559814453,-6.343846797943115,-34.94833755493164
83538,0.5691385865211487,1.1123955249786377,0.9108628034591675,3.8602631092071533,-6.3498711585998535,-34.86968994140625
83579,0.5753511786460876,1.1181330680847168,0.9122288823127747,4.217678070068359,-6.551919460296631,-34.635223388671875
83618,0.5806792378425598,1.1238422393798828,0.9123638272285461,4.453200817108154,-6.2939772605896,-34.967159271240234
83658,0.5848941802978516,1.128008484840393,0.9131211042404175,4.421846389770508,-6.305522918701172,-35.26412582397461
83698,0.5885012149810791,1.1330184936523438,0.9130136370658875,4.419656753540039,-6.274977684020996,-35.64703369140625
83738,0.5908021926879883,1.1364558935165405,0.9131506085395813,4.226839542388916,-6.454415798187256,-36.10048294067383
83780,0.5928119421005249,1.1375372409820557,0.9122190475463867,4.558431148529053,-6.1995038986206055,-35.76253128051758
83818,0.5946405529975891,1.1395559310913086,0.9108721017837524,4.809666156768799,-6.114529132843018,-35.16847229003906
83858,0.596064567565918,1.1412243843078613,0.9104438424110413,4.574737548828125,-6.407235622406006,-35.33213806152344
83898,0.5970733761787415,1.1423088312149048,0.9098184704780579,4.170233249664307,-6.40798282623291,-35.89236068725586
83938,0.5975474715232849,1.142227292060852,0.9087896347045898,4.224114894866943,-6.3589887619018555,-35.60190963745117
83978,0.597655177116394,1.142347812652588,0.9078227877616882,4.2399468421936035,-6.334137916564941,-35.26280212402344
84018,0.5973859429359436,1.1423507928848267,0.9068456292152405,4.189023494720459,-6.257729530334473,-35.46510314941406
84058,0.5967930555343628,1.1424286365509033,0.9059901237487793,4.233881950378418,-6.131082057952881,-35.447994232177734
84098,0.5958608984947205,1.142768144607544,0.9057717323303223,4.253681182861328,-6.361329555511475,-35.568729400634766
84138,0.59456467628479,1.1424988508224487,0.9055098295211792,4.319036483764648,-6.197592735290527,-35.9051628112793
84180,0.5927326679229736,1.1415609121322632,0.9058292508125305,4.338930606842041,-6.344374656677246,-35.619239807128906
84218,0.5904684066772461,1.1399807929992676,0.9060176014900208,4.272810935974121,-6.272157669067383,-35.665584564208984
84258,0.5886563062667847,1.1395766735076904,0.9059609174728394,4.746223449707031,-6.115497589111328,-34.9015007019043
84298,0.586618185043335,1.1395926475524902,0.9071634411811829,4.520699501037598,-6.544711112976074,-34.98467254638672
84338,0.5850159525871277,1.1401711702346802,0.9067160487174988,4.430534362792969,-6.371997833251953,-35.51493453979492
84378,0.5836192965507507,1.1394332647323608,0.9061592817306519,4.622371673583984,-6.3033246994018555,-34.887046813964844
84418,0.5824078321456909,1.1385400295257568,0.9057718515396118,4.562269687652588,-6.296967029571533,-34.78285598754883
84458,0.5816655158996582,1.1381850242614746,0.9053710699081421,4.741065502166748,-5.984080791473389,-34.83858108520508
84498,0.581169605255127,1.1379945278167725,0.9055318236351013,4.8308234214782715,-6.170662879943848,-34.687156677246094
84538,0.5809507369995117,1.1379894018173218,0.9057981967926025,4.958345890045166,-6.052268028259277,-35.103118896484375
84581,0.581011176109314,1.137357234954834,0.9060761332511902,4.937533855438232,-6.1543288230896,-35.24046325683594
84618,0.5806748270988464,1.135311484336853,0.9061492085456848,5.125075340270996,-5.978934288024902,-35.32463836669922
84658,0.5803189873695374,1.1341639757156372,0.9060320258140564,5.034170150756836,-6.140153884887695,-35.4242057800293
84698,0.580319881439209,1.1317499876022339,0.9053149223327637,5.270488739013672,-5.886911869049072,-35.29111862182617
84738,0.580383837223053,1.1291946172714233,0.9050284624099731,5.416821479797363,-5.925200939178467,-35.1945686340332
84778,0.5800706148147583,1.1264233589172363,0.9050618410110474,5.666660785675049,-5.874205112457275,-35.037498474121094
84818,0.5794551372528076,1.1244255304336548,0.9056757092475891,5.4125447273254395,-6.057435512542725,-35.675514221191406
84858,0.5783712863922119,1.1223938465118408,0.9063554406166077,5.087090015411377,-6.347632884979248,-36.11952209472656
84898,0.5774863958358765,1.119788646697998,0.9061791300773621,5.126224994659424,-6.091190338134766,-36.22407531738281
84938,0.576508641242981,1.1161586046218872,0.9052225351333618,5.336893081665039,-5.7762322425842285,-35.65804672241211
84978,0.5759259462356567,1.1158558130264282,0.9044902324676514,5.21412992477417,-5.714524269104004,-35.549068450927734
85018,0.5749295949935913,1.115801215171814,0.9048677086830139,4.782379150390625,-5.861130237579346,-36.43865966796875
85058,0.5741869211196899,1.1159706115722656,0.9042580723762512,4.633608341217041,-5.765318870544434,-36.52625274658203
85098,0.5732988715171814,1.1145212650299072,0.9038020968437195,4.64486026763916,-5.616976737976074,-36.36967086791992
85138,0.572743833065033,1.114667296409607,0.9033308029174805,4.473885536193848,-5.733249664306641,-36.44074249267578
85178,0.5723361968994141,1.1160422563552856,0.902515172958374,4.117070198059082,-5.90876579284668,-36.86780548095703
85218,0.5721853375434875,1.116225004196167,0.9009766578674316,4.107781887054443,-5.805532932281494,-36.869537353515625
85258,0.5725861191749573,1.1170017719268799,0.8987366557121277,4.216504096984863,-5.559941291809082,-36.591556549072266
85298,0.5731350183486938,1.1197519302368164,0.8968817591667175,3.8683598041534424,-5.733949184417725,-36.92509841918945
85338,0.573222279548645,1.1208137273788452,0.8963953256607056,3.561619520187378,-5.892024040222168,-37.28731155395508
85378,0.5735586285591125,1.1233224868774414,0.8955518007278442,3.4771907329559326,-6.062432289123535,-37.38470458984375
85418,0.5734730362892151,1.1253838539123535,0.8954533338546753,3.1990396976470947,-6.196976661682129,-37.75414276123047
85458,0.573567271232605,1.1276001930236816,0.8950033783912659,3.2086586952209473,-6.245285511016846,-37.517189025878906
85499,0.5735587477684021,1.1277581453323364,0.8957972526550293,3.3747353553771973,-6.183847904205322,-37.400550842285156
85538,0.5736478567123413,1.1294339895248413,0.8963638544082642,3.1794750690460205,-6.490836143493652,-37.674625396728516
85578,0.5741255283355713,1.1312649250030518,0.8954018354415894,3.5682992935180664,-6.165700435638428,-37.2702522277832
85618,0.5746855735778809,1.1296632289886475,0.8955917358398438,3.601824998855591,-6.24016809463501,-37.06061935424805
85658,0.5755133628845215,1.1280169486999512,0.8953062295913696,3.6898984909057617,-5.936257839202881,-37.11701202392578
85699,0.576607346534729,1.1232810020446777,0.8961605429649353,3.51583194732666,-6.004059314727783,-37.507694244384766
85738,0.5779867172241211,1.1201876401901245,0.8953724503517151,3.452094078063965,-5.823371887207031,-37.88093566894531
85778,0.5795417428016663,1.1143460273742676,0.8945546746253967,3.3210957050323486,-5.815102577209473,-38.10086441040039
85818,0.5807393789291382,1.1037092208862305,0.8945261836051941,3.581299304962158,-5.760060787200928,-38.268741607666016
85858,0.5818775296211243,1.0943217277526855,0.8936730623245239,3.573198080062866,-5.790185451507568,-38.5156135559082
85899,0.5832277536392212,1.084594964981079,0.8924402594566345,3.5474376678466797,-5.805155277252197,-38.76569747924805
85938,0.5841441750526428,1.069101095199585,0.8920084238052368,3.924863815307617,-5.884054183959961,-38.77104187011719
85978,0.5846800208091736,1.0541019439697266,0.8909942507743835,3.9337239265441895,-5.78566312789917,-38.95149230957031
86018,0.58457350730896,1.0387012958526611,0.89113450050354,3.877218246459961,-5.85392951965332,-38.77811050415039
86058,0.5842531323432922,1.0240886211395264,0.8910682201385498,4.145781993865967,-5.881585597991943,-38.687347412109375
86099,0.5827659368515015,1.0095951557159424,0.8914335370063782,4.4864349365234375,-5.588010787963867,-38.633514404296875
86138,0.5791494846343994,0.9906433820724487,0.8939338326454163,4.17728328704834,-6.178189754486084,-38.43357849121094
86178,0.573586106300354,0.9689469337463379,0.8960684537887573,3.91145658493042,-6.467236518859863,-38.47178268432617
86218,0.5659099817276001,0.9389657378196716,0.8995814919471741,4.398723125457764,-6.8009443283081055,-37.18480682373047
86258,0.5578542351722717,0.9099348783493042,0.9015009999275208,4.399776458740234,-7.261752605438232,-35.9153938293457
86300,0.5482971668243408,0.8743985295295715,0.9025607109069824,4.6432342529296875,-7.740562438964844,-34.61076736450195
86338,0.5416966080665588,0.8474699854850769,0.904464602470398,4.313710689544678,-8.456218719482422,-34.03953170776367
86378,0.5361353158950806,0.8230754733085632,0.9024496674537659,4.535696029663086,-8.424193382263184,-33.16224670410156
86418,0.5302309989929199,0.7934736013412476,0.9021984338760376,4.473635673522949,-8.747944831848145,-32.42041015625
86458,0.5246912240982056,0.7642030715942383,0.901419997215271,5.030322551727295,-8.627846717834473,-31.790935516357422
86500,0.5194628834724426,0.7388038039207458,0.9015241861343384,5.14472770690918,-8.565003395080566,-31.265830993652344
86538,0.5132852792739868,0.7142632603645325,0.9037543535232544,4.731874465942383,-8.831777572631836,-32.297000885009766
86578,0.5068017840385437,0.6884380578994751,0.9071844220161438,3.7253150939941406,-9.267979621887207,-33.0814323425293
86618,0.5003933906555176,0.6598741412162781,0.9090756773948669,4.323201656341553,-8.903358459472656,-31.477949142456055
86658,0.4940539598464966,0.6344671845436096,0.9113665223121643,4.474900722503662,-8.872274398803711,-30.51578140258789
86699,0.48788535594940186,0.6132824420928955,0.9138489365577698,3.756103038787842,-9.122051239013672,-30.647695541381836
86738,0.48184844851493835,0.589368462562561,0.9166573286056519,3.060070037841797,-9.224681854248047,-30.347293853759766
86778,0.4770691990852356,0.5697621703147888,0.9163355231285095,3.7144815921783447,-8.706400871276855,-28.549945831298828
86818,0.47189533710479736,0.5499356985092163,0.9178802371025085,3.5973002910614014,-8.759190559387207,-27.667869567871094
86858,0.4664297103881836,0.5339691042900085,0.9187081456184387,3.3448140621185303,-8.844086647033691,-27.293262481689453
86900,0.4604538381099701,0.5197497010231018,0.9191023111343384,2.7536420822143555,-8.929888725280762,-27.523109436035156
86938,0.45397844910621643,0.503665566444397,0.9180725812911987,3.2316832542419434,-8.151390075683594,-26.62030792236328
86978,0.4474107325077057,0.49245530366897583,0.9165365099906921,2.9939208030700684,-8.447386741638184,-25.927339553833008
87018,0.43934381008148193,0.477266788482666,0.9164780974388123,2.4731853008270264,-8.465426445007324,-26.321006774902344
87058,0.43130582571029663,0.46066704392433167,0.9151130318641663,2.8915786743164062,-8.546523094177246,-25.579042434692383
87099,0.4245724678039551,0.4456894099712372,0.9120560884475708,3.021592617034912,-8.674159049987793,-24.712291717529297
87138,0.4176729917526245,0.43071871995925903,0.9095614552497864,2.6777701377868652,-8.713973999023438,-24.78103256225586
87178,0.41170185804367065,0.41897183656692505,0.905825138092041,2.7211785316467285,-8.79981517791748,-24.952463150024414
87218,0.4054719805717468,0.4032699465751648,0.9034247398376465,2.1912975311279297,-9.000862121582031,-24.97035026550293
87258,0.39952352643013,0.3877880275249481,0.8995001316070557,2.1948723793029785,-8.758407592773438,-24.646162033081055
87298,0.39415720105171204,0.3760160803794861,0.8945665955543518,1.836432695388794,-8.371662139892578,-24.47661590576172
87338,0.3873106837272644,0.36412402987480164,0.8928176164627075,1.1400865316390991,-8.44873046875,-25.207101821899414
87378,0.3796309232711792,0.3530411422252655,0.8915557265281677,0.5504958033561707,-8.87863540649414,-25.167919158935547
87418,0.3714700937271118,0.33598071336746216,0.8921008706092834,0.41216209530830383,-9.292887687683105,-24.71335220336914
87458,0.3649666905403137,0.31947875022888184,0.891292154788971,0.7653359174728394,-9.296794891357422,-23.888822555541992
87501,0.35954520106315613,0.3035198450088501,0.8902459144592285,0.1141626164317131,-9.309885025024414,-24.043087005615234
87538,0.35548311471939087,0.28545621037483215,0.8888430595397949,0.3689458668231964,-8.836919784545898,-23.116683959960938
87578,0.352570116519928,0.2727571725845337,0.8847448229789734,-0.16078343987464905,-8.305685997009277,-23.512039184570312
87618,0.34922364354133606,0.25558850169181824,0.8816706538200378,-0.13717801868915558,-7.488649845123291,-23.561695098876953
87658,0.3457454442977905,0.23652474582195282,0.8804582357406616,0.08343866467475891,-7.240400314331055,-22.425514221191406
87698,0.34243112802505493,0.22102044522762299,0.878130316734314,0.19414301216602325,-6.94711971282959,-22.08855438232422
87738,0.3400925099849701,0.20322372019290924,0.87813800573349,0.26850807666778564,-6.72525691986084,-21.64961051940918
87778,0.33933699131011963,0.1891227662563324,0.8777756690979004,0.14221303164958954,-6.908231735229492,-21.20037078857422
87818,0.339531272649765,0.1710810363292694,0.8795563578605652,0.24177245795726776,-6.706145286560059,-21.011228561401367
87858,0.34066545963287354,0.15587498247623444,0.8791972994804382,0.747105062007904,-6.113317489624023,-20.437255859375
87900,0.3420592248439789,0.14273585379123688,0.8801935911178589,0.6474666595458984,-5.958808898925781,-20.657804489135742
87938,0.3431575894355774,0.1267368346452713,0.8837110996246338,0.8300091028213501,-5.809476375579834,-20.651992797851562
87978,0.34422335028648376,0.11105538159608841,0.8876098990440369,0.7823331952095032,-6.2277302742004395,-20.373905181884766
88018,0.3458026051521301,0.09222987294197083,0.8914255499839783,1.378660798072815,-5.981627941131592,-20.376901626586914
88058,0.3478304445743561,0.07075802981853485,0.897051990032196,1.4591517448425293,-6.556728839874268,-19.87116813659668
88098,0.35018810629844666,0.05131746083498001,0.9007907509803772,1.8279433250427246,-6.286447525024414,-20.737499237060547
88138,0.353960245847702,0.02648538164794445,0.9067971110343933,1.798707365989685,-6.781583309173584,-20.34807586669922
88178,0.35851171612739563,0.005684706848114729,0.9096669554710388,2.11921763420105,-6.691595554351807,-18.78487777709961
88218,0.3613453507423401,-0.012030158191919327,0.91318678855896,1.9903966188430786,-6.523625373840332,-19.698345184326172
88258,0.3651931583881378,-0.0391596183180809,0.9170240163803101,1.4127302169799805,-6.463413715362549,-20.24665069580078
88300,0.3677698075771332,-0.06247957795858383,0.9190916419029236,1.553328275680542,-6.363875865936279,-19.25081443786621
88338,0.3691687285900116,-0.0853680670261383,0.9208658933639526,1.212127923965454,-6.353023529052734,-19.814006805419922
88378,0.37025880813598633,-0.1066255271434784,0.9202598333358765,0.8066951632499695,-6.404053688049316,-19.377513885498047
88418,0.37110182642936707,-0.1283615380525589,0.9211531281471252,1.0042827129364014,-6.3158721923828125,-18.473352432250977
88458,0.3729187548160553,-0.1582147181034088,0.9183958172798157,0.7868843078613281,-5.988482475280762,-17.361541748046875
88498,0.3733883798122406,-0.18068309128284454,0.9146935939788818,0.964753270149231,-5.540722370147705,-16.566818237304688
88538,0.37321993708610535,-0.20217815041542053,0.911061704158783,0.6811807751655579,-5.3301262855529785,-15.825510025024414
88578,0.37235867977142334,-0.22079125046730042,0.9064252376556396,1.0736693143844604,-5.12148380279541,-14.565061569213867
88618,0.3699384927749634,-0.24141287803649902,0.9035120606422424,0.9037663340568542,-5.3840484619140625,-13.756708145141602
88658,0.3664887249469757,-0.26144322752952576,0.8995066285133362,0.9930955767631531,-5.1620564460754395,-13.347480773925781
88698,0.36263328790664673,-0.28015342354774475,0.8948160409927368,0.737005889415741,-5.343760013580322,-12.828503608703613
88738,0.35846784710884094,-0.2987683117389679,0.8897145986557007,1.0433361530303955,-5.073930740356445,-12.123270988464355
88778,0.354455828666687,-0.3136107623577118,0.883945107460022,0.18154200911521912,-4.962904453277588,-12.541988372802734
88819,0.349688321352005,-0.33410805463790894,0.8807977437973022,0.7506647706031799,-5.072669506072998,-10.452281951904297
88858,0.34376096725463867,-0.35027092695236206,0.8765914440155029,0.9549679756164551,-5.115542411804199,-9.400226593017578
88898,0.338110089302063,-0.36573007702827454,0.873927891254425,0.368586003780365,-5.023996829986572,-10.856432914733887
88938,0.3360197842121124,-0.3804772198200226,0.8736336827278137,0.14403364062309265,-5.334115982055664,-9.943058967590332
88978,0.33371129631996155,-0.39699995517730713,0.8726595640182495,-0.09486521035432816,-5.463698387145996,-9.122734069824219
89019,0.3315443694591522,-0.41630101203918457,0.8730385899543762,-0.1525280773639679,-5.040799140930176,-9.149192810058594
89058,0.33082133531570435,-0.4273565113544464,0.874273419380188,-0.3509383201599121,-5.076333522796631,-8.852713584899902
89098,0.3296296298503876,-0.4456086754798889,0.8771381378173828,-0.12560853362083435,-4.746636390686035,-7.992323875427246
89138,0.32858219742774963,-0.4633028507232666,0.8815657496452332,-0.013342529535293579,-5.106316089630127,-7.096402645111084
89178,0.3270280659198761,-0.4795309603214264,0.8851816058158875,0.023065006360411644,-5.129559516906738,-7.559455871582031
89219,0.32662662863731384,-0.4956284463405609,0.8887374401092529,-0.3673323094844818,-5.460649013519287,-8.031451225280762
89258,0.32787829637527466,-0.5152588486671448,0.8923287391662598,-0.4721231460571289,-5.348480701446533,-7.861481666564941
89298,0.33090949058532715,-0.5357253551483154,0.89582359790802,-0.22509370744228363,-5.056336879730225,-7.240656852722168
89338,0.33503374457359314,-0.5545166730880737,0.8999131917953491,-0.6151577234268188,-4.81101655960083,-8.30065631866455
89378,0.3399278223514557,-0.5746675729751587,0.9048583507537842,-0.5780592560768127,-4.981786251068115,-8.143167495727539
89419,0.34273281693458557,-0.5936437249183655,0.9083253145217896,-1.2753978967666626,-4.965195655822754,-9.059874534606934
89458,0.34588122367858887,-0.6143825054168701,0.9094021320343018,-1.1169273853302002,-4.59822416305542,-9.037439346313477
89498,0.3490152060985565,-0.6364848613739014,0.9103567004203796,-0.6974473595619202,-4.324136734008789,-8.595148086547852
89538,0.35206010937690735,-0.6549526453018188,0.9089716076850891,-0.7561326026916504,-4.1712775230407715,-8.540669441223145
89578,0.35461050271987915,-0.6749433875083923,0.9083797335624695,-0.929302453994751,-4.298609256744385,-8.272525787353516
89620,0.3560762405395508,-0.6917173862457275,0.9059730768203735,-1.4335216283798218,-3.956364631652832,-8.448576927185059
89658,0.3574730455875397,-0.7117429971694946,0.9053271412849426,-1.6528525352478027,-3.975356340408325,-7.578922748565674
89698,0.3581666946411133,-0.732157826423645,0.9054969549179077,-2.434816837310791,-4.280062675476074,-7.434069633483887
89738,0.3587493300437927,-0.751095712184906,0.9041615724563599,-2.469790458679199,-4.082969665527344,-6.632805347442627
89778,0.3595052659511566,-0.7672406435012817,0.9015864133834839,-2.603801727294922,-4.286833763122559,-5.436450481414795
89820,0.35968148708343506,-0.7794567346572876,0.8990998268127441,-2.98807430267334,-4.049237251281738,-5.1600751876831055
89858,0.35997164249420166,-0.790806770324707,0.8975426554679871,-3.305074453353882,-3.998048782348633,-4.864589691162109
89898,0.3596002757549286,-0.8007223010063171,0.8960768580436707,-3.14633846282959,-3.8959944248199463,-4.006560802459717
89938,0.358365535736084,-0.8081008791923523,0.8952018022537231,-3.2453527450561523,-3.8933305740356445,-3.9622321128845215
89978,0.3568602204322815,-0.8142923712730408,0.8933455944061279,-2.9464902877807617,-3.500781774520874,-3.416543483734131
90020,0.35536909103393555,-0.8190999627113342,0.8925042152404785,-2.9701476097106934,-3.877916097640991,-2.675452709197998
90058,0.35392507910728455,-0.8215487003326416,0.8903195261955261,-3.0995328426361084,-3.811601400375366,-3.0838162899017334
90098,0.35278958082199097,-0.8241313695907593,0.8869192004203796,-3.0633339881896973,-3.7041842937469482,-2.738077402114868
90138,0.3522520363330841,-0.8265398740768433,0.8822293877601624,-2.9690182209014893,-3.775747060775757,-2.2319462299346924
90178,0.35142648220062256,-0.8289057612419128,0.8745837807655334,-2.869650363922119,-3.6247730255126953,-1.8074511289596558
90220,0.3510896861553192,-0.8302502632141113,0.862288773059845,-2.5324206352233887,-3.4114696979522705,-1.1255321502685547
90258,0.3500286936759949,-0.8322435617446899,0.8463064432144165,-2.644118070602417,-3.2426111698150635,-0.8389603495597839
90298,0.347667932510376,-0.837033748626709,0.8272138237953186,-2.4578895568847656,-3.0300114154815674,-0.3133721351623535
90338,0.34645015001296997,-0.8397883176803589,0.8004125952720642,-2.065129041671753,-2.7225687503814697,0.5673667192459106
90378,0.3445861041545868,-0.8412628769874573,0.7672331929206848,-2.1251254081726074,-2.409972667694092,1.0524073839187622
90420,0.34336909651756287,-0.8417702913284302,0.7311349511146545,-2.123342275619507,-2.248993158340454,1.6401926279067993
90458,0.34273216128349304,-0.8393290042877197,0.6893952488899231,-2.1017017364501953,-1.6529325246810913,1.5665349960327148
90498,0.3394716680049896,-0.8423666954040527,0.6517052054405212,-2.6241464614868164,-2.0027525424957275,1.4870941638946533
90538,0.3367464542388916,-0.8446078300476074,0.6101385951042175,-2.252685785293579,-2.130831718444824,2.1794447898864746
90578,0.3337670564651489,-0.847429633140564,0.5670505166053772,-2.4320695400238037,-2.3558883666992188,2.75943922996521
90618,0.3332799971103668,-0.8459609150886536,0.518173336982727,-2.4051260948181152,-2.7982208728790283,3.6834380626678467
90658,0.33021023869514465,-0.8554210662841797,0.4783511757850647,-2.2501296997070312,-3.0744502544403076,4.051151275634766
90698,0.33147352933883667,-0.853797435760498,0.42778846621513367,-3.0161802768707275,-3.8992855548858643,4.78802490234375
90738,0.3325192928314209,-0.8555589318275452,0.3796785771846771,-2.968100070953369,-3.7253189086914062,5.436014175415039
90778,0.3344472050666809,-0.859064519405365,0.33554816246032715,-3.3811888694763184,-3.9937198162078857,5.432270050048828
90821,0.33798155188560486,-0.8625854253768921,0.2917901575565338,-2.613884210586548,-3.48696231842041,5.696305274963379
90858,0.34417593479156494,-0.8669328093528748,0.24947434663772583,-2.372842311859131,-3.7645490169525146,6.864383220672607
90898,0.3511287569999695,-0.8696757555007935,0.2063823789358139,-1.246248483657837,-3.4054691791534424,8.92426586151123
90938,0.35952237248420715,-0.8749158382415771,0.1687726080417633,-0.5431772470474243,-3.2702457904815674,11.43380069732666
90978,0.3669242262840271,-0.8768246173858643,0.1321910321712494,0.10517672449350357,-2.7377331256866455,12.896942138671875
91018,0.373239129781723,-0.8780701756477356,0.10073564201593399,0.07436258345842361,-2.113032341003418,13.083359718322754
91058,0.3771807551383972,-0.879025399684906,0.0747615247964859,0.34128981828689575,-2.184685707092285,12.352166175842285
91098,0.38021811842918396,-0.8798222541809082,0.053450144827365875,0.08357181400060654,-1.6361608505249023,11.143500328063965
91138,0.38226214051246643,-0.8821657299995422,0.04194260016083717,0.036334142088890076,-1.520516276359558,10.9202241897583
91178,0.38489285111427307,-0.8841701745986938,0.027477756142616272,-0.13624219596385956,-2.112459897994995,10.061602592468262
91220,0.3870115280151367,-0.8856356739997864,0.018217049539089203,-0.43435391783714294,-1.5358374118804932,9.021230697631836
91258,0.39011532068252563,-0.8859844207763672,0.011602742597460747,-2.6148273944854736,-1.839404821395874,8.251667022705078
91298,0.38988369703292847,-0.8855351805686951,0.013408593833446503,-2.3665082454681396,-1.6363513469696045,8.001249313354492
91338,0.38914841413497925,-0.8866115808486938,0.01510575506836176,-0.7511176466941833,0.006162193138152361,8.380478858947754
91378,0.38841646909713745,-0.8877345323562622,0.015950294211506844,-0.5993170142173767,0.06627794355154037,8.379959106445312
91418,0.38815581798553467,-0.8881369829177856,0.0161348395049572,-0.5931035280227661,0.0449315682053566,8.3594970703125
91458,0.38827815651893616,-0.8881375193595886,0.015805410221219063,-0.6026657819747925,-0.0013724202290177345,8.3350830078125
91498,0.38831058144569397,-0.8881025910377502,0.01561298780143261,-0.6207388043403625,-0.03139845281839371,8.323770523071289
91538,0.3882569372653961,-0.8880307674407959,0.015501884743571281,-0.6382078528404236,-0.04996190965175629,8.318598747253418
91578,0.3883189558982849,-0.8879050612449646,0.015314817428588867,-0.6660029292106628,-0.09896283596754074,8.3077392578125
91618,0.3882025182247162,-0.8878228664398193,0.015239080414175987,-0.6873167157173157,-0.12231557816267014,8.308708190917969
91658,0.38832518458366394,-0.887875497341156,0.01529046893119812,-0.6885097026824951,-0.17318648099899292,8.319875717163086
91698,0.38823485374450684,-0.887992262840271,0.015439078211784363,-0.696932852268219,-0.19069722294807434,8.303204536437988
91739,0.38815343379974365,-0.8881325125694275,0.01567365787923336,-0.7102183699607849,-0.21288949251174927,8.287008285522461
91778,0.38821879029273987,-0.8881838917732239,0.01587720587849617,-0.7344232797622681,-0.2491515427827835,8.283736228942871
91818,0.38817501068115234,-0.8883992433547974,0.016203271225094795,-0.7482655644416809,-0.25895029306411743,8.28548812866211
91858,0.3882230520248413,-0.8883046507835388,0.016199329867959023,-0.7789388298988342,-0.2741219997406006,8.30396842956543
91898,0.3881678283214569,-0.8884216547012329,0.016471030190587044,-0.7946268320083618,-0.27643638849258423,8.30076789855957
91939,0.3881340026855469,-0.8884828090667725,0.01664680987596512,-0.8110159635543823,-0.28754714131355286,8.297409057617188
91978,0.3881242275238037,-0.8884463310241699,0.016787610948085785,-0.8363555669784546,-0.2999352514743805,8.304760932922363
92018,0.38810431957244873,-0.8885949850082397,0.017243774607777596,-0.8466550707817078,-0.31438148021698,8.314006805419922
92058,0.3881061375141144,-0.8887044787406921,0.017417695373296738,-0.8548421263694763,-0.3260651230812073,8.319367408752441
92098,0.3880920112133026,-0.888870358467102,0.017718827351927757,-0.8627445697784424,-0.331246942281723,8.31159496307373
92139,0.3880815804004669,-0.8888711333274841,0.01778601109981537,-0.8768047094345093,-0.33411797881126404,8.30850887298584
92178,0.3880378305912018,-0.8890789747238159,0.018004056066274643,-0.8760726451873779,-0.33982524275779724,8.321535110473633
92218,0.38801419734954834,-0.8891116380691528,0.01804451085627079,-0.8813341856002808,-0.342517226934433,8.327860832214355
92258,0.38809317350387573,-0.8889126181602478,0.01779257133603096,-0.892639696598053,-0.3559742867946625,8.341226577758789
92298,0.3880459666252136,-0.8889268636703491,0.018048083409667015,-0.9002000093460083,-0.359214723110199,8.344877243041992
92339,0.3880199193954468,-0.8890494704246521,0.01843113824725151,-0.8957710266113281,-0.36776456236839294,8.346726417541504
92378,0.388018399477005,-0.8889802694320679,0.018367886543273926,-0.8976283073425293,-0.37246155738830566,8.339444160461426
92418,0.38797199726104736,-0.8890779614448547,0.018653731793165207,-0.8985964059829712,-0.3773126006126404,8.333847045898438
92458,0.38802826404571533,-0.8890737295150757,0.0186036117374897,-0.9074392318725586,-0.39775511622428894,8.352012634277344
92498,0.3879830837249756,-0.8892752528190613,0.018938332796096802,-0.9110915660858154,-0.40982934832572937,8.35516357421875
92539,0.38792794942855835,-0.8893177509307861,0.019115185365080833,-0.9242550730705261,-0.41463130712509155,8.354992866516113
92578,0.3879828453063965,-0.8893386721611023,0.018965018913149834,-0.926090657711029,-0.427068293094635,8.371460914611816
92618,0.38794347643852234,-0.8894174098968506,0.01901502162218094,-0.9362511038780212,-0.4314161241054535,8.360145568847656
92658,0.38798245787620544,-0.8893137574195862,0.018799450248479843,-0.9479945302009583,-0.44016560912132263,8.378918647766113
92698,0.3879469335079193,-0.8893513083457947,0.018928194418549538,-0.9514374136924744,-0.44415348768234253,8.37712287902832
92740,0.38808301091194153,-0.8891971707344055,0.018894653767347336,-0.9658979773521423,-0.4694129526615143,8.362056732177734
92778,0.3879779577255249,-0.889250636100769,0.018957583233714104,-0.9595356583595276,-0.45562744140625,8.379460334777832
92818,0.3879437744617462,-0.8892279863357544,0.019023243337869644,-0.9642974734306335,-0.4600108563899994,8.373282432556152
92858,0.3880016803741455,-0.8892858624458313,0.018931962549686432,-0.9568343162536621,-0.471361368894577,8.383328437805176
92898,0.3880366384983063,-0.8891397714614868,0.018831424415111542,-0.9688935279846191,-0.4766680896282196,8.378363609313965
92940,0.3879862129688263,-0.8891533613204956,0.018756460398435593,-0.9661058783531189,-0.4725860357284546,8.391042709350586
92978,0.38802650570869446,-0.8891081809997559,0.018582215532660484,-0.9725474715232849,-0.4777030944824219,8.376886367797852
93018,0.38798511028289795,-0.889068067073822,0.018416104838252068,-0.9741407632827759,-0.47828209400177,8.365293502807617
93058,0.3880363702774048,-0.888964056968689,0.018053611740469933,-0.9741160869598389,-0.4849281907081604,8.384387016296387
93098,0.3880552649497986,-0.888904869556427,0.01803717575967312,-0.9812220335006714,-0.4881646931171417,8.379104614257812
93140,0.3881448805332184,-0.8887878656387329,0.018009064719080925,-0.986723005771637,-0.4998128414154053,8.384931564331055
93178,0.3880816102027893,-0.8887544870376587,0.01797235943377018,-0.990210235118866,-0.48909449577331543,8.389599800109863
93218,0.38801994919776917,-0.8889345526695251,0.018296821042895317,-0.9793794751167297,-0.4850388169288635,8.372544288635254
93258,0.3880389332771301,-0.8888372182846069,0.018076542764902115,-0.9797890782356262,-0.4862304627895355,8.389610290527344
93298,0.3880569636821747,-0.8888638615608215,0.018061216920614243,-0.9774597883224487,-0.48638126254081726,8.387520790100098
93340,0.3880610466003418,-0.8888325095176697,0.01803191378712654,-0.9756869077682495,-0.4887641966342926,8.397374153137207
93378,0.388025164604187,-0.8888999819755554,0.018132412806153297,-0.9734795689582825,-0.48436763882637024,8.378500938415527
93418,0.388041228055954,-0.888989269733429,0.0181752797216177,-0.9708728194236755,-0.4883703589439392,8.360910415649414
93458,0.3880665898323059,-0.8888561129570007,0.017887527123093605,-0.9761669635772705,-0.49411746859550476,8.366294860839844
93498,0.3880748152732849,-0.8887519836425781,0.017781702801585197,-0.9848619699478149,-0.4994511604309082,8.365781784057617
