Timestamp,stateEstimate.x,stateEstimate.y,stateEstimate.z,stateEstimate.roll,stateEstimate.pitch,stateEstimate.yaw
53458,0.00037520317710004747,-0.0031809834763407707,0.004007523413747549,-0.8841134905815125,-0.255418062210083,0.14197944104671478
53498,0.00032582698622718453,-0.003029441460967064,0.0039284368976950645,-0.8923417329788208,-0.25598838925361633,0.13999104499816895
53538,0.0003794030926655978,-0.00318293203599751,0.0040391287766397,-0.8875689506530762,-0.2580585181713104,0.14058300852775574
53579,0.000271906319539994,-0.003048297017812729,0.004037069622427225,-0.893322765827179,-0.24865062534809113,0.13685616850852966
53618,0.0003809811023529619,-0.003481502179056406,0.004379425663501024,-0.8880165219306946,-0.2540115714073181,0.14595790207386017
53658,0.00035014579771086574,-0.0037248916923999786,0.004546398762613535,-0.88566654920578,-0.2462754249572754,0.14550599455833435
53698,0.0003486402565613389,-0.0034381214063614607,0.00422955397516489,-0.8911421298980713,-0.24824342131614685,0.14463041722774506
53738,0.0003869434876833111,-0.003763452870771289,0.004492181818932295,-0.8834909796714783,-0.24084694683551788,0.1483183354139328
53779,0.00038717369898222387,-0.0034570980351418257,0.004160052165389061,-0.8878647089004517,-0.2387678474187851,0.15423926711082458
53818,0.0004226056335028261,-0.003099135123193264,0.003815945703536272,-0.8917880654335022,-0.24265164136886597,0.14699313044548035
53858,0.0003835013194475323,-0.0031998681370168924,0.003929811529815197,-0.8915330767631531,-0.22591030597686768,0.14731979370117188
53898,0.00041348658851347864,-0.0032718295697122812,0.004189967177808285,-0.8980458378791809,-0.2217160165309906,0.13561668992042542
53938,0.00043180002830922604,-0.0034712913911789656,0.004474821034818888,-0.8984707593917847,-0.215850368142128,0.12619012594223022
53980,0.0004746935737784952,-0.0036157111171633005,0.0046492768451571465,-0.8962777853012085,-0.21622709929943085,0.12067119777202606
54018,0.00043101535993628204,-0.0036170133389532566,0.004646708723157644,-0.8939169049263,-0.21949751675128937,0.12069685012102127
54058,0.0005286913947202265,-0.0037740280386060476,0.004763438366353512,-0.8907418251037598,-0.22974924743175507,0.12371042370796204
54098,0.00040394303505308926,-0.003942527342587709,0.004777377471327782,-0.8815491199493408,-0.21877175569534302,0.13080446422100067
54138,0.0003550807887222618,-0.0037405751645565033,0.0046758027747273445,-0.888334333896637,-0.21715877950191498,0.1303705871105194
54180,0.00044148493907414377,-0.0038455105386674404,0.00476730614900589,-0.8879204988479614,-0.22053532302379608,0.1253940314054489
54218,0.00041916576446965337,-0.003595637157559395,0.004439706914126873,-0.8884004950523376,-0.22720946371555328,0.1276591569185257
54258,0.000399395968997851,-0.0035819378681480885,0.004450574051588774,-0.8893422484397888,-0.22629854083061218,0.12945978343486786
54298,0.0003875215188600123,-0.0035161192063242197,0.004374229349195957,-0.8867107629776001,-0.22383731603622437,0.12993793189525604
54338,0.00035014591412618756,-0.00341729330830276,0.004452359862625599,-0.8891766667366028,-0.21978899836540222,0.13427522778511047
54380,0.000364403473213315,-0.003568507032468915,0.004536583088338375,-0.8552318811416626,-0.21699324250221252,0.13690051436424255
54418,0.0003289707819931209,-0.00348260928876698,0.004401902202516794,-0.8475701212882996,-0.22127391397953033,0.1372944414615631
54458,0.0003394573868717998,-0.0035895335022360086,0.004381550010293722,-0.8398846387863159,-0.22932228446006775,0.13731366395950317
54498,0.0003844668681267649,-0.0036025920417159796,0.004339931532740593,-0.8185824751853943,-0.23039045929908752,0.14395880699157715
54538,0.0004250732599757612,-0.003655318869277835,0.00435622688382864,-0.8113247752189636,-0.23377810418605804,0.14629027247428894
54580,0.0004535687039606273,-0.0037181582301855087,0.004359193611890078,-0.7999660968780518,-0.23045790195465088,0.13906122744083405
54618,0.000454561784863472,-0.0036525563336908817,0.004511441569775343,-0.807724118232727,-0.22159920632839203,0.1299409121274948
54658,0.000396255636587739,-0.0036812557373195887,0.004571183118969202,-0.7961561679840088,-0.2167278230190277,0.13731245696544647
54698,0.00037919674650765955,-0.003832133486866951,0.0046552009880542755,-0.7930492758750916,-0.20698440074920654,0.14369075000286102
54738,0.000340561120538041,-0.0036570525262504816,0.004481601528823376,-0.7903404831886292,-0.20862115919589996,0.1513364613056183
54778,0.0003453963145148009,-0.003576408140361309,0.004392930772155523,-0.7884813547134399,-0.21181264519691467,0.15434397757053375
54818,0.0003055999695789069,-0.003514146199449897,0.004287727177143097,-0.7801522016525269,-0.2071334570646286,0.15302878618240356
54858,0.0003546746738720685,-0.0035071182064712048,0.0042385077103972435,-0.7648915648460388,-0.2126995474100113,0.14744581282138824
54898,0.0004009147814940661,-0.0034664892591536045,0.004277994856238365,-0.7621826529502869,-0.2133396416902542,0.13562989234924316
54938,0.00040109638939611614,-0.0033828618470579386,0.004202732350677252,-0.756009042263031,-0.21305449306964874,0.1346333771944046
54980,0.00029726745560765266,-0.0034024249762296677,0.004139210097491741,-0.7461021542549133,-0.19601640105247498,0.13602501153945923
55018,0.00024554983247071505,-0.0035344231873750687,0.004277721047401428,-0.7412434220314026,-0.19472122192382812,0.1345776915550232
55058,0.00030251507996581495,-0.003821322927251458,0.004387582186609507,-0.7312928438186646,-0.20023439824581146,0.12753568589687347
55098,0.00026151517522521317,-0.003515734802931547,0.00418168306350708,-0.7436409592628479,-0.20351456105709076,0.12138144671916962
55138,0.0003095146093983203,-0.0032387070823460817,0.003994381986558437,-0.7543168663978577,-0.214319109916687,0.12067914009094238
55178,0.0003656868066173047,-0.003328337101265788,0.004184821620583534,-0.7527033686637878,-0.2151036262512207,0.12092249095439911
55218,0.00033465467276982963,-0.0034784397576004267,0.0044094594195485115,-0.7523748874664307,-0.20888406038284302,0.12267724424600601
55258,0.00035110919270664454,-0.00375408330000937,0.0046025291085243225,-0.751891016960144,-0.21071921288967133,0.1298220306634903
55298,0.0003660196380224079,-0.003707167459651828,0.004601004999130964,-0.7502965331077576,-0.2050650417804718,0.1303006261587143
55338,0.0003260517551098019,-0.0036767213605344296,0.004535352345556021,-0.7471490502357483,-0.20283371210098267,0.13209229707717896
55380,0.000290460855467245,-0.003823002800345421,0.004612737335264683,-0.7357550859451294,-0.19949541985988617,0.1793421506881714
55418,0.00016641324327792972,-0.0036028132308274508,0.004422916565090418,-0.7438907623291016,-0.1607850044965744,0.28136971592903137
55458,0.0001295747933909297,-0.0036751755978912115,0.00459757586941123,-0.7386948466300964,-0.15322647988796234,0.2902824282646179
55498,0.00036106654442846775,-0.003988389391452074,0.00474755372852087,-0.7661133408546448,-0.19735653698444366,0.21116088330745697
55538,0.0003152573190163821,-0.003803026396781206,0.004764629062265158,-0.7871620655059814,-0.1980244219303131,0.14841389656066895
55578,0.000312585209030658,-0.0039015025831758976,0.00491239782422781,-0.805199146270752,-0.21821969747543335,0.19769881665706635
55618,0.0003772778727579862,-0.003762164618819952,0.004932472947984934,-1.1018757820129395,-0.4429563581943512,0.21292145550251007
55658,0.0004189721657894552,-0.0038151517510414124,0.005049061495810747,-1.3486720323562622,-0.55946946144104,0.24749501049518585
55698,0.0006524568307213485,-0.004102409817278385,0.005487807095050812,-1.582878589630127,-0.6790016889572144,0.2799745202064514
55738,0.0004957401542924345,-0.004489044658839703,0.005752513185143471,-1.5195341110229492,-0.3872861862182617,0.37468376755714417
55778,-0.0005863304249942303,-0.004624280147254467,0.007193929515779018,-1.7403888702392578,1.432565450668335,1.2053865194320679
55818,-0.0030077912379056215,-0.002212416846305132,0.013539071194827557,-2.8717737197875977,2.8646140098571777,2.618537187576294
55858,-0.005758832674473524,0.0012591079575940967,0.028915394097566605,-3.6311542987823486,2.206256151199341,1.987349510192871
55899,-0.00817987322807312,0.008609680458903313,0.04621092230081558,-4.866878986358643,1.2008023262023926,1.5464314222335815
55938,-0.008134559728205204,0.018797701224684715,0.06788270175457001,-5.790069580078125,1.3614845275878906,1.537637710571289
55978,-0.004760742653161287,0.028719762340188026,0.09963350743055344,-6.588279724121094,0.6443994641304016,2.6681337356567383
56018,0.000903958163689822,0.04456377401947975,0.13151441514492035,-6.899427890777588,0.580122709274292,4.277740001678467
56058,0.00886932946741581,0.06375648826360703,0.17052267491817474,-7.929160118103027,-0.328067421913147,4.517492294311523
56099,0.018473181873559952,0.08965327590703964,0.2064157873392105,-8.13563060760498,0.5846410989761353,4.846568584442139
56138,0.027986053377389908,0.1293180137872696,0.23242656886577606,-8.239365577697754,-0.224632129073143,5.754966735839844
56178,0.0409027598798275,0.1506195217370987,0.2869056165218353,-7.835506439208984,-0.13259227573871613,6.315332412719727
56218,0.052130281925201416,0.18309487402439117,0.3322334587574005,-8.97839641571045,-0.01793430559337139,4.859764099121094
56258,0.06467940658330917,0.21806132793426514,0.37369224429130554,-8.746147155761719,-0.042351461946964264,4.764144420623779
56300,0.07719755917787552,0.25483909249305725,0.411567360162735,-8.481335639953613,-0.15632310509681702,4.030929088592529
56338,0.0879659578204155,0.2911551594734192,0.4457412362098694,-7.341097831726074,-1.1765732765197754,4.384659767150879
56378,0.09923441708087921,0.3249254524707794,0.4868309795856476,-6.631988048553467,-2.145249128341675,3.881023406982422
56418,0.1094159483909607,0.35998639464378357,0.5207247734069824,-5.978117942810059,-2.829411029815674,3.435857057571411
56458,0.11878363788127899,0.39505091309547424,0.5535765886306763,-6.125993728637695,-3.785781145095825,2.233177900314331
56499,0.12623266875743866,0.430301308631897,0.5804958343505859,-6.377533912658691,-4.450376510620117,0.5244458913803101
56538,0.13583847880363464,0.46262693405151367,0.6075170636177063,-6.028050422668457,-5.430097579956055,-0.6423037052154541
56578,0.14595511555671692,0.49793633818626404,0.6297464966773987,-5.897439479827881,-5.938414096832275,-2.042908191680908
56618,0.15642227232456207,0.5305865406990051,0.6495870351791382,-6.045205593109131,-6.3417744636535645,-3.514267683029175
56658,0.16717033088207245,0.5618091821670532,0.6651313900947571,-4.570441246032715,-6.326374530792236,-4.14313268661499
56699,0.17600201070308685,0.5885267853736877,0.6814895272254944,-4.518294334411621,-6.169384002685547,-5.200058937072754
56738,0.1869732290506363,0.6181157827377319,0.6979947686195374,-4.429598331451416,-5.879648208618164,-6.640510082244873
56778,0.19831040501594543,0.6453310251235962,0.7157403230667114,-3.577836513519287,-6.201247215270996,-7.081648349761963
56818,0.20910771191120148,0.6692468523979187,0.733098030090332,-3.570061445236206,-6.228255748748779,-8.059419631958008
56858,0.21962837874889374,0.6928176283836365,0.7493239045143127,-4.102381229400635,-5.818678379058838,-9.973867416381836
56900,0.22869092226028442,0.7101942300796509,0.765600323677063,-4.018954277038574,-6.082228183746338,-10.467475891113281
56938,0.2402360737323761,0.7274430990219116,0.7801650762557983,-3.6038119792938232,-5.750195026397705,-11.397801399230957
56978,0.2519077658653259,0.744217574596405,0.7928208708763123,-3.897671937942505,-5.764631748199463,-10.977849960327148
57018,0.2624412775039673,0.7599288821220398,0.8043302297592163,-3.757302761077881,-4.979680061340332,-12.389955520629883
57058,0.27218756079673767,0.7748531103134155,0.8156499862670898,-3.3412444591522217,-4.966709136962891,-12.870431900024414
57100,0.28202834725379944,0.7871475219726562,0.8269422650337219,-3.020397186279297,-4.806856632232666,-13.062347412109375
57138,0.289732962846756,0.7988280653953552,0.8370904326438904,-2.632500171661377,-4.773499965667725,-13.413092613220215
57178,0.29834654927253723,0.813482940196991,0.8457127809524536,-2.446038246154785,-4.427299499511719,-13.162806510925293
57218,0.3056829869747162,0.828022301197052,0.855491042137146,-2.494356393814087,-4.47257661819458,-13.775358200073242
57258,0.3121512830257416,0.8423001766204834,0.8659551739692688,-3.0551791191101074,-4.564664363861084,-14.756643295288086
57298,0.31837472319602966,0.8552454710006714,0.8750622272491455,-2.5974767208099365,-4.618112564086914,-15.458102226257324
57338,0.3252633810043335,0.8650329113006592,0.8843256235122681,-2.019683599472046,-4.633959770202637,-15.268704414367676
57378,0.3319582939147949,0.8768758773803711,0.892331063747406,-1.6188627481460571,-4.549136161804199,-15.318081855773926
57418,0.3377419114112854,0.8909223079681396,0.8987880349159241,-0.9606140851974487,-4.579245567321777,-15.662199974060059
57458,0.3425518572330475,0.9051375985145569,0.9053255319595337,-0.5338483452796936,-4.8147711753845215,-15.734840393066406
57500,0.346426397562027,0.9190184473991394,0.9105319976806641,0.04448576644062996,-4.915206432342529,-16.04774284362793
57538,0.3500979244709015,0.9346930980682373,0.9142253994941711,-0.24601253867149353,-4.9521331787109375,-16.097524642944336
57578,0.35353153944015503,0.9486364722251892,0.9167037606239319,0.07314598560333252,-4.712274074554443,-16.24995231628418
57618,0.35668522119522095,0.9607758522033691,0.9186991453170776,-0.4180774986743927,-4.563218116760254,-15.592595100402832
57658,0.3602474629878998,0.972974419593811,0.9198760986328125,0.010780909098684788,-4.631453990936279,-15.462348937988281
57698,0.3635464906692505,0.9831874370574951,0.9207690358161926,0.492546409368515,-4.118554592132568,-15.474340438842773
57738,0.3674784004688263,0.9950747489929199,0.9226637482643127,0.6137188673019409,-4.590119361877441,-14.919266700744629
57778,0.3712491989135742,1.0067425966262817,0.9259610772132874,1.2378904819488525,-4.7498579025268555,-15.729409217834473
57818,0.3748442828655243,1.0182912349700928,0.9297398924827576,1.2595211267471313,-5.643155574798584,-16.0753231048584
57858,0.3784472942352295,1.028138279914856,0.9338491559028625,1.3831579685211182,-6.624594211578369,-16.609209060668945
57900,0.3821083605289459,1.0356143712997437,0.9361734986305237,2.127408504486084,-6.6890106201171875,-16.849388122558594
57938,0.38644516468048096,1.0449026823043823,0.9373818039894104,2.721174716949463,-6.796097278594971,-16.451374053955078
57978,0.3906630873680115,1.0537660121917725,0.9394294023513794,3.279463529586792,-6.692817211151123,-16.8129940032959
58018,0.39484623074531555,1.0609285831451416,0.9417916536331177,3.6744472980499268,-6.782868385314941,-16.352733612060547
58058,0.3989222049713135,1.0698457956314087,0.9433825612068176,4.144670486450195,-6.468079566955566,-16.654836654663086
58098,0.40219879150390625,1.0752798318862915,0.9463587999343872,4.645236492156982,-6.474585056304932,-16.706485748291016
58138,0.40568795800209045,1.080560564994812,0.949229896068573,5.2116265296936035,-6.327808380126953,-16.73493003845215
58178,0.40938809514045715,1.0858057737350464,0.9529361128807068,5.065067768096924,-6.561974048614502,-17.16881561279297
58218,0.41387712955474854,1.0911104679107666,0.9558577537536621,5.279399394989014,-6.479081630706787,-17.92837905883789
58258,0.4190399944782257,1.096002459526062,0.9568833112716675,5.956814765930176,-6.2535529136657715,-17.484214782714844
58298,0.42455360293388367,1.100529670715332,0.9594001770019531,5.992117404937744,-6.628744602203369,-17.40863037109375
58338,0.42978858947753906,1.1065058708190918,0.9611157178878784,6.141644477844238,-6.66836404800415,-17.888111114501953
58378,0.43385449051856995,1.1095054149627686,0.9636386632919312,5.79514217376709,-6.950758934020996,-18.22474479675293
58419,0.4373939633369446,1.1117130517959595,0.9659361839294434,5.720086097717285,-7.1198530197143555,-17.952722549438477
58458,0.4402249753475189,1.1143866777420044,0.9673916697502136,5.85595703125,-7.381986141204834,-18.046653747558594
58498,0.4419543147087097,1.1143473386764526,0.9689821600914001,5.888769149780273,-7.522192001342773,-18.065031051635742
58538,0.4437040686607361,1.1145216226577759,0.9692343473434448,6.219178676605225,-7.423785209655762,-17.72039794921875
58578,0.44449862837791443,1.1128093004226685,0.9708588123321533,6.569576263427734,-7.539667129516602,-17.40777015686035
58618,0.4451112449169159,1.1123555898666382,0.9729675054550171,6.446541786193848,-7.763225078582764,-17.543115615844727
58658,0.44566792249679565,1.1126164197921753,0.9747037887573242,6.476715564727783,-7.806214332580566,-17.69483757019043
58698,0.44614723324775696,1.1109793186187744,0.9774386882781982,6.3534345626831055,-7.993778705596924,-17.945819854736328
58738,0.44696471095085144,1.1098005771636963,0.979252815246582,6.378776550292969,-8.097466468811035,-18.34046745300293
58778,0.4481932818889618,1.1070876121520996,0.980999767780304,6.602687835693359,-8.190086364746094,-18.09096908569336
58819,0.44944822788238525,1.1053686141967773,0.982187807559967,6.5333428382873535,-8.26994514465332,-18.311925888061523
58858,0.4518282413482666,1.1020499467849731,0.984258234500885,6.330336570739746,-8.176607131958008,-18.66767692565918
58898,0.4539472460746765,1.0997464656829834,0.9858736991882324,6.263365745544434,-8.0620756149292,-18.99161720275879
58938,0.4557953178882599,1.0961803197860718,0.9868077039718628,6.346574306488037,-7.8445305824279785,-19.28127098083496
58978,0.4573417603969574,1.0900163650512695,0.9876853823661804,6.111527442932129,-7.828516483306885,-19.348434448242188
59019,0.45869532227516174,1.0846437215805054,0.9873934388160706,6.444878101348877,-7.297300338745117,-19.298229217529297
59058,0.4607621133327484,1.0758882761001587,0.9883774518966675,6.810887813568115,-7.242160320281982,-18.908693313598633
59098,0.46151354908943176,1.0671827793121338,0.9907611608505249,6.74530553817749,-7.3735198974609375,-19.201536178588867
59138,0.4624379575252533,1.0568808317184448,0.993178129196167,6.697855472564697,-7.582014083862305,-19.276731491088867
59178,0.4641069769859314,1.044913649559021,0.9949108958244324,7.1724042892456055,-7.4289703369140625,-18.61442756652832
59220,0.4659143388271332,1.03536856174469,0.9965064525604248,7.491852283477783,-7.414275169372559,-18.457611083984375
59258,0.4698847830295563,1.0204840898513794,0.9999721050262451,7.597395896911621,-7.4928998947143555,-18.670238494873047
59298,0.4740902781486511,1.0086300373077393,1.002187967300415,8.153353691101074,-7.523782730102539,-18.68364143371582
59338,0.4796225428581238,0.9957512617111206,1.0047277212142944,8.790375709533691,-7.65097188949585,-18.57001495361328
59378,0.48550838232040405,0.9846644997596741,1.0067418813705444,9.379093170166016,-7.483757495880127,-18.975645065307617
59420,0.49037355184555054,0.9707865715026855,1.0105866193771362,9.45617961883545,-7.980452537536621,-19.340599060058594
59458,0.49338361620903015,0.9545467495918274,1.0138853788375854,9.203210830688477,-8.07070255279541,-20.422067642211914
59498,0.494625449180603,0.9390647411346436,1.0158377885818481,9.457491874694824,-7.935153007507324,-20.30254554748535
59538,0.4953582286834717,0.9156903028488159,1.0188060998916626,9.72813606262207,-8.200637817382812,-20.222553253173828
59578,0.4951329827308655,0.9012498259544373,1.0208790302276611,9.984626770019531,-8.673639297485352,-20.275571823120117
59620,0.49454763531684875,0.8773099780082703,1.0232447385787964,9.72311782836914,-9.443511009216309,-20.791189193725586
59658,0.49461182951927185,0.8589738011360168,1.0218546390533447,10.21122932434082,-8.957988739013672,-21.987201690673828
59698,0.4948235750198364,0.8377640843391418,1.0214741230010986,10.61673641204834,-8.930169105529785,-21.722007751464844
59738,0.495479017496109,0.8183875679969788,1.0213850736618042,9.944380760192871,-8.985339164733887,-23.060850143432617
59778,0.49678710103034973,0.7985718250274658,1.0206791162490845,9.465250968933105,-8.773967742919922,-23.55724334716797
59820,0.49900758266448975,0.7817348837852478,1.0192445516586304,8.896366119384766,-8.464258193969727,-24.18864631652832
59858,0.5012867450714111,0.7625340223312378,1.0186206102371216,8.460801124572754,-7.896058559417725,-24.902109146118164
59898,0.5041456818580627,0.7431914806365967,1.0185974836349487,7.919178009033203,-7.9322919845581055,-24.92261505126953
59938,0.5070958137512207,0.724315345287323,1.0188806056976318,6.8295512199401855,-7.13526725769043,-26.627302169799805
59978,0.5109018087387085,0.7074849009513855,1.017716884613037,6.2000346183776855,-6.688885688781738,-26.904176712036133
60020,0.5149183869361877,0.6901052594184875,1.017157793045044,5.191612243652344,-6.300378799438477,-27.534963607788086
60058,0.5187961459159851,0.6756917238235474,1.0154292583465576,4.353780269622803,-5.913093566894531,-27.857614517211914
60098,0.5225862860679626,0.6617000102996826,1.0129812955856323,3.8513402938842773,-5.8300909996032715,-27.798879623413086
60138,0.525083601474762,0.6461993455886841,1.010791540145874,3.208629608154297,-5.269771575927734,-28.19835662841797
60178,0.527499794960022,0.6325041055679321,1.0075621604919434,2.979142427444458,-4.955845355987549,-27.32979965209961
60218,0.530060350894928,0.6217564344406128,1.0044656991958618,2.0474252700805664,-4.840333938598633,-27.646242141723633
60258,0.533184826374054,0.6067931056022644,1.0013240575790405,1.9256048202514648,-4.29191780090332,-27.416126251220703
60298,0.5361263751983643,0.5946037769317627,0.9977911114692688,1.8614445924758911,-3.666116952896118,-27.757001876831055
60338,0.5374885201454163,0.5820440053939819,0.9967365264892578,2.045123338699341,-3.3461697101593018,-28.327409744262695
60378,0.5372128486633301,0.5689220428466797,0.9963569045066833,1.645592212677002,-3.763955593109131,-28.38068962097168
60420,0.5372086763381958,0.5567055940628052,0.9937483072280884,2.3624722957611084,-3.4904072284698486,-27.296297073364258
60458,0.5370990633964539,0.5430858135223389,0.9916529059410095,2.602470874786377,-3.1529643535614014,-27.902191162109375
60498,0.5362809300422668,0.5309022665023804,0.9881092309951782,2.761467933654785,-2.825997829437256,-28.159297943115234
60538,0.5355095863342285,0.5194951891899109,0.9830648303031921,4.313188076019287,-2.281982183456421,-27.854555130004883
60578,0.533444881439209,0.5086922645568848,0.9787172079086304,4.20749568939209,-2.1750664710998535,-29.051326751708984
60618,0.531894862651825,0.49909716844558716,0.9720160365104675,5.69765567779541,-1.7300013303756714,-28.163227081298828
60658,0.5285936594009399,0.4860837757587433,0.9680410027503967,5.955018043518066,-2.1562740802764893,-28.38965606689453
60698,0.5243737697601318,0.4732246994972229,0.9633068442344666,5.758618354797363,-2.10874342918396,-28.07272720336914
60738,0.5202980041503906,0.45796939730644226,0.959608793258667,5.915848731994629,-2.682032585144043,-27.558008193969727
60778,0.5166018009185791,0.44479960203170776,0.954949676990509,6.021416664123535,-2.3721063137054443,-27.836223602294922
60821,0.5129868984222412,0.4338730275630951,0.9519472122192383,5.598011016845703,-2.5084447860717773,-28.187698364257812
60858,0.5088703632354736,0.4200988709926605,0.9504544734954834,5.129190921783447,-2.4243698120117188,-28.284076690673828
60898,0.5048190951347351,0.4081636369228363,0.948184072971344,4.773238658905029,-2.301607131958008,-28.152433395385742
60938,0.4997289180755615,0.3928305208683014,0.9464161396026611,4.627632141113281,-2.162187099456787,-27.944360733032227
60978,0.49466070532798767,0.3755177855491638,0.9454783797264099,4.475680828094482,-2.117967128753662,-27.467845916748047
61018,0.4900907576084137,0.36046409606933594,0.9432958364486694,4.418640613555908,-2.299776315689087,-26.871572494506836
61058,0.485758900642395,0.34255343675613403,0.9421457052230835,4.4537882804870605,-2.2612903118133545,-26.69869041442871
61098,0.48274192214012146,0.3280535042285919,0.9399632215499878,4.3746562004089355,-2.3892269134521484,-26.620311737060547
61138,0.4804738759994507,0.30922552943229675,0.9389474391937256,4.338250637054443,-2.464310884475708,-26.89056396484375
61178,0.47965264320373535,0.2888089716434479,0.9372426271438599,4.6820292472839355,-2.4801549911499023,-26.66584014892578
61220,0.47843262553215027,0.2705470025539398,0.9364055395126343,4.218286991119385,-2.791064977645874,-26.872278213500977
61258,0.4766722023487091,0.2484378218650818,0.93709397315979,3.7248425483703613,-2.733837127685547,-27.10361099243164
61298,0.4755360782146454,0.22878427803516388,0.9357231259346008,3.515521287918091,-2.6633639335632324,-26.963497161865234
61338,0.4742879569530487,0.2087916135787964,0.9364938735961914,3.6171364784240723,-2.857558012008667,-26.490602493286133
61378,0.4731428921222687,0.18133370578289032,0.9364122748374939,3.290874719619751,-3.0201175212860107,-26.35257339477539
61418,0.47235947847366333,0.1594158113002777,0.9362590312957764,3.163572311401367,-3.1691083908081055,-25.798498153686523
61458,0.47135642170906067,0.13690224289894104,0.9369006752967834,3.015925884246826,-3.220017910003662,-25.3017635345459
61498,0.4705839455127716,0.11896609514951706,0.935924232006073,2.8207035064697266,-3.1554229259490967,-24.92061424255371
61538,0.46964365243911743,0.10332377254962921,0.9356811046600342,2.9055562019348145,-3.164492130279541,-24.532846450805664
61578,0.4681430160999298,0.08185965567827225,0.9349768757820129,2.508049488067627,-3.200645923614502,-24.563657760620117
61618,0.4670872986316681,0.06345638632774353,0.9336274266242981,2.608053684234619,-2.921815872192383,-24.338876724243164
61658,0.4660733938217163,0.04354157671332359,0.9335886836051941,2.289862632751465,-3.0384323596954346,-23.99229621887207
61698,0.46564894914627075,0.02638944983482361,0.9315756559371948,2.352341651916504,-2.919282913208008,-23.27639389038086
61739,0.46466678380966187,0.006273183971643448,0.9310365319252014,2.8561365604400635,-3.157050609588623,-22.207496643066406
61778,0.46332669258117676,-0.010499589145183563,0.9318113327026367,2.678055763244629,-3.4041647911071777,-21.857650756835938
61818,0.4618038833141327,-0.024406123906373978,0.9322571158409119,2.294808864593506,-3.7470436096191406,-21.829631805419922
61858,0.4601707458496094,-0.03819717839360237,0.9335560202598572,2.1983375549316406,-3.964648485183716,-22.083288192749023
61898,0.4588060975074768,-0.0500674732029438,0.9336082935333252,2.371706485748291,-4.0381364822387695,-22.11464500427246
61938,0.4571835994720459,-0.061779431998729706,0.9338620901107788,2.369967222213745,-4.063442230224609,-22.141691207885742
61978,0.4553453028202057,-0.07232674956321716,0.9357083439826965,2.0460269451141357,-3.5984153747558594,-22.34599494934082
62018,0.45313483476638794,-0.08178095519542694,0.9382638335227966,1.6869397163391113,-3.249039888381958,-22.3392333984375
62058,0.45011141896247864,-0.09253398329019547,0.9424259066581726,1.933671236038208,-2.3479790687561035,-22.278167724609375
62098,0.44672226905822754,-0.10090599954128265,0.9481379985809326,1.7689303159713745,-2.4532175064086914,-22.069242477416992
62139,0.4433092176914215,-0.10764270275831223,0.952972948551178,1.7198723554611206,-2.274639844894409,-22.107410430908203
62178,0.4374602735042572,-0.11790058761835098,0.9589049816131592,1.8120497465133667,-2.10469913482666,-21.274303436279297
62218,0.43216314911842346,-0.12405075877904892,0.962338924407959,1.9367882013320923,-2.1588642597198486,-20.855777740478516
62258,0.4266934096813202,-0.13023741543293,0.9652256965637207,1.9632200002670288,-1.7572823762893677,-20.76121711730957
62298,0.4207722544670105,-0.1350996345281601,0.9678018093109131,1.3841402530670166,-1.7841389179229736,-21.253705978393555
62339,0.4141817092895508,-0.14258338510990143,0.9696335792541504,1.5021617412567139,-1.3899372816085815,-21.4384765625
62378,0.40745654702186584,-0.15072384476661682,0.9693827033042908,1.4935694932937622,-0.8599203824996948,-21.490325927734375
62418,0.40131422877311707,-0.1596120446920395,0.9684356451034546,1.9620660543441772,-0.3553849160671234,-21.106542587280273
62458,0.3954078257083893,-0.16787435114383698,0.9679184556007385,1.6499892473220825,0.2357698678970337,-21.131731033325195
62498,0.38929373025894165,-0.17498935759067535,0.9676060080528259,1.1390000581741333,0.607932984828949,-21.065900802612305
62539,0.38315528631210327,-0.18353645503520966,0.9688981771469116,0.8832524418830872,0.8189575672149658,-21.286495208740234
62578,0.3760501742362976,-0.1906074434518814,0.9670619964599609,0.8107917308807373,1.2852611541748047,-21.202749252319336
62618,0.3683057129383087,-0.1993478685617447,0.966719388961792,0.9081929922103882,1.5513919591903687,-20.821943283081055
62658,0.3594622313976288,-0.20922529697418213,0.9681606292724609,0.9259600639343262,1.4566255807876587,-20.367801666259766
62698,0.3498018980026245,-0.21925707161426544,0.9699597954750061,0.9646194577217102,1.117608904838562,-19.980623245239258
62740,0.3419996500015259,-0.22784025967121124,0.9700984358787537,0.904804527759552,1.1270184516906738,-19.922103881835938
62778,0.3340989649295807,-0.24071922898292542,0.9721319079399109,1.0388576984405518,0.9088912010192871,-19.703054428100586
62818,0.32519522309303284,-0.2552027404308319,0.9742896556854248,1.2751041650772095,0.6447190046310425,-19.546653747558594
62858,0.3170427680015564,-0.26841551065444946,0.9753236770629883,1.359797716140747,0.19535742700099945,-19.575468063354492
62898,0.30845919251441956,-0.282100647687912,0.9769919514656067,1.2312099933624268,-0.23074722290039062,-20.053226470947266
62939,0.302697092294693,-0.2954336404800415,0.9768891334533691,1.3502017259597778,-0.6167073249816895,-20.152875900268555
62978,0.2963544428348541,-0.3121250867843628,0.9784473776817322,1.63973069190979,-0.9374635815620422,-20.270540237426758
63018,0.2897050380706787,-0.32891908288002014,0.9814012050628662,1.3333765268325806,-1.1403971910476685,-21.11681365966797
63058,0.2842963933944702,-0.346955269575119,0.9851372241973877,0.6318320035934448,-1.5608973503112793,-21.623737335205078
63098,0.2802797853946686,-0.3659248948097229,0.9874237775802612,0.6588765382766724,-1.9009732007980347,-21.597951889038086
63140,0.27802300453186035,-0.38137441873550415,0.9868561625480652,0.41250431537628174,-1.94822359085083,-21.713722229003906
63178,0.27627837657928467,-0.3981407880783081,0.9869945049285889,0.4717765152454376,-1.8575013875961304,-21.969682693481445
63218,0.2751171290874481,-0.41430696845054626,0.9869892597198486,0.689149796962738,-1.7921751737594604,-22.174169540405273
63258,0.2738262712955475,-0.42828500270843506,0.9876064658164978,0.7644008994102478,-1.7264844179153442,-22.53679847717285
63298,0.27216827869415283,-0.44060519337654114,0.9886033535003662,0.8282181620597839,-1.8771053552627563,-22.864370346069336
63339,0.2702990472316742,-0.4513916075229645,0.9892279505729675,1.0854097604751587,-1.9969286918640137,-23.066373825073242
63378,0.2674468457698822,-0.46247240900993347,0.9901224970817566,1.6621828079223633,-2.273932695388794,-23.035167694091797
63418,0.2637421190738678,-0.4722146689891815,0.9910639524459839,1.981580138206482,-2.2817330360412598,-23.21044921875
63458,0.2589852511882782,-0.4818551242351532,0.9930487871170044,2.0332870483398438,-2.4799768924713135,-23.254779815673828
63498,0.25370267033576965,-0.4915091395378113,0.9950197339057922,2.05548095703125,-2.6316208839416504,-23.223791122436523
63540,0.24862810969352722,-0.49948838353157043,0.9956573843955994,2.0840702056884766,-2.7608871459960938,-23.18010711669922
63578,0.2421979457139969,-0.508894681930542,0.9960998892784119,2.540823459625244,-3.0133321285247803,-22.727283477783203
63618,0.2347630113363266,-0.5176629424095154,0.9960796236991882,2.8644518852233887,-3.153066635131836,-22.534902572631836
63658,0.22657062113285065,-0.5250962972640991,0.9961742758750916,2.722353219985962,-3.2979702949523926,-22.57066535949707
63698,0.2177029401063919,-0.5324346423149109,0.9959587454795837,2.794635534286499,-3.622797966003418,-22.445737838745117
63740,0.21031124889850616,-0.5379924774169922,0.9938149452209473,2.8013806343078613,-3.986933708190918,-22.378143310546875
63778,0.20075257122516632,-0.5448061227798462,0.9920679330825806,2.8332958221435547,-4.374075412750244,-22.25086212158203
63818,0.1910649836063385,-0.5517661571502686,0.9901200532913208,2.6821844577789307,-4.527635097503662,-22.363285064697266
63858,0.18114235997200012,-0.5571102499961853,0.9874491095542908,2.844430923461914,-4.641763210296631,-22.04707145690918
63898,0.1696547269821167,-0.5625141859054565,0.9864758253097534,2.850571870803833,-5.016744136810303,-21.7261962890625
63941,0.16012577712535858,-0.5649529099464417,0.9844092130661011,2.47556734085083,-5.42921257019043,-21.820392608642578
63978,0.14875948429107666,-0.5684686899185181,0.9829307794570923,2.248438835144043,-5.3446502685546875,-22.233068466186523
64018,0.13760702311992645,-0.5732993483543396,0.9822191596031189,2.2071943283081055,-5.259408473968506,-22.096166610717773
64058,0.12556926906108856,-0.5783703923225403,0.9824678301811218,2.0327577590942383,-5.354176044464111,-21.949542999267578
64098,0.1132500097155571,-0.5826625227928162,0.9818075895309448,1.8758708238601685,-5.814909934997559,-21.774282455444336
64138,0.10438632220029831,-0.5849647521972656,0.9791593551635742,2.02078914642334,-6.409132957458496,-21.872238159179688
64178,0.09463823586702347,-0.5878392457962036,0.976596474647522,1.9622865915298462,-6.329310417175293,-22.594289779663086
64218,0.08607687056064606,-0.5924661755561829,0.974521815776825,2.094949245452881,-6.305219650268555,-22.960025787353516
64258,0.0772068202495575,-0.5978922247886658,0.9719567894935608,2.4083058834075928,-6.1736531257629395,-22.893207550048828
64298,0.06665465980768204,-0.6006965637207031,0.9683725833892822,2.388298511505127,-6.114225387573242,-23.359712600708008
64338,0.05734850838780403,-0.6025976538658142,0.9652554988861084,2.190223217010498,-6.1740193367004395,-24.210351943969727
64378,0.04591628536581993,-0.6060925722122192,0.9630051851272583,2.1377084255218506,-6.200906276702881,-25.13775062561035
64418,0.0344567634165287,-0.6108498573303223,0.9612935185432434,2.2664763927459717,-6.209728240966797,-25.96685028076172
64458,0.02353481762111187,-0.616838812828064,0.9603100419044495,2.3662798404693604,-6.3783650398254395,-26.656097412109375
64498,0.013087380677461624,-0.623542845249176,0.9597815871238708,2.637434720993042,-6.168498992919922,-27.256610870361328
64538,0.0026568418834358454,-0.6304690837860107,0.9608002305030823,2.6515891551971436,-6.437005043029785,-27.766305923461914
64578,-0.008776666596531868,-0.6385437250137329,0.9628909826278687,2.557274580001831,-6.171962738037109,-28.668027877807617
64618,-0.02072681300342083,-0.6475972533226013,0.9661341905593872,2.793714761734009,-6.304271221160889,-29.095983505249023
64658,-0.032054975628852844,-0.6556884050369263,0.969021737575531,2.7392513751983643,-6.521097660064697,-29.797754287719727
64698,-0.04218737408518791,-0.6639421582221985,0.9715720415115356,2.459022283554077,-6.165664196014404,-30.653644561767578
64738,-0.05147929489612579,-0.6710014939308167,0.9739068150520325,2.294229030609131,-6.195898056030273,-31.12802505493164
64778,-0.06130053102970123,-0.6789011359214783,0.9780815839767456,1.675700306892395,-6.252937316894531,-31.894987106323242
64818,-0.07130821794271469,-0.6870747208595276,0.9816715717315674,1.1703145503997803,-6.219205379486084,-32.28318786621094
64858,-0.08059598505496979,-0.6947931051254272,0.9842772483825684,0.7461373209953308,-6.356281757354736,-32.608726501464844
64898,-0.08924999833106995,-0.7028645873069763,0.9866468906402588,0.22175118327140808,-6.408437252044678,-32.860809326171875
64938,-0.09735403209924698,-0.7088451385498047,0.9867333173751831,0.008199946023523808,-6.288961887359619,-32.97709274291992
64978,-0.10547327250242233,-0.714949905872345,0.9873753190040588,-0.3825070559978485,-6.2273383140563965,-33.27080154418945
65018,-0.11391658335924149,-0.7200336456298828,0.9865548014640808,-0.44497615098953247,-5.96134090423584,-33.35298156738281
65059,-0.12243843823671341,-0.723937451839447,0.9845425486564636,-0.5781257748603821,-5.710947513580322,-33.37331771850586
65098,-0.1309211552143097,-0.7281907200813293,0.9825562834739685,-0.7495402693748474,-5.472745895385742,-33.327049255371094
65138,-0.13980478048324585,-0.7310992479324341,0.9791621565818787,-0.9177029132843018,-5.233226299285889,-33.14682388305664
65178,-0.14894214272499084,-0.7358403205871582,0.9771850109100342,-1.1590919494628906,-5.055233001708984,-32.92886734008789
65218,-0.15870773792266846,-0.7408467531204224,0.9747313261032104,-1.1914653778076172,-4.694707870483398,-32.44096374511719
65259,-0.16780593991279602,-0.7457135319709778,0.9721424579620361,-1.129839301109314,-4.2665581703186035,-31.865652084350586
65298,-0.1771879643201828,-0.7500949501991272,0.9693784117698669,-0.8860708475112915,-3.970543384552002,-30.8426456451416
65338,-0.18680772185325623,-0.7525020837783813,0.9664977788925171,-0.8911548852920532,-3.814797878265381,-30.175128936767578
65378,-0.1967553049325943,-0.7552658319473267,0.9651965498924255,-1.0235097408294678,-3.6498911380767822,-29.89583969116211
65418,-0.20656217634677887,-0.7574265599250793,0.9628010392189026,-1.1402928829193115,-3.38950777053833,-29.590194702148438
65459,-0.21510043740272522,-0.7597180008888245,0.9602987170219421,-1.098966121673584,-3.1545095443725586,-28.933359146118164
65498,-0.22293253242969513,-0.7621760964393616,0.9585168957710266,-1.2339770793914795,-3.127030611038208,-28.528413772583008
65538,-0.23002701997756958,-0.7645441293716431,0.9565985798835754,-1.2152986526489258,-3.011169672012329,-27.919538497924805
65578,-0.23720784485340118,-0.7677680253982544,0.9549422860145569,-1.1827043294906616,-2.850571632385254,-27.2187557220459
65618,-0.2448318749666214,-0.7703186273574829,0.9534918665885925,-1.1521475315093994,-2.7989113330841064,-26.593997955322266
65659,-0.2518509030342102,-0.7724981307983398,0.9525809288024902,-1.4955692291259766,-2.7748193740844727,-26.205299377441406
65698,-0.25823476910591125,-0.775422990322113,0.9517824649810791,-1.6549851894378662,-2.6419174671173096,-25.861438751220703
65738,-0.2639654576778412,-0.7784072756767273,0.9500710964202881,-1.450019359588623,-2.5658624172210693,-25.02046775817871
65778,-0.2696116268634796,-0.7812963128089905,0.9495576024055481,-1.6871311664581299,-2.6427760124206543,-24.531526565551758
65818,-0.2752762734889984,-0.7832830548286438,0.9492472410202026,-1.817138433456421,-2.5266501903533936,-24.139301300048828
65859,-0.27981022000312805,-0.784780740737915,0.9498940110206604,-2.0795843601226807,-2.7973854541778564,-23.870025634765625
65898,-0.28328031301498413,-0.786532998085022,0.950874388217926,-2.3778061866760254,-2.8628976345062256,-23.681079864501953
65938,-0.2853057384490967,-0.7880193591117859,0.9509202241897583,-2.526139259338379,-2.8761720657348633,-23.12909698486328
65978,-0.28568699955940247,-0.7899199724197388,0.951574444770813,-2.731309175491333,-3.122488498687744,-22.663158416748047
66018,-0.2856677174568176,-0.7902428507804871,0.9504454135894775,-2.7584755420684814,-3.339773416519165,-22.027545928955078
66060,-0.2846154570579529,-0.7898195385932922,0.9488852620124817,-2.9290852546691895,-3.3248908519744873,-21.754907608032227
66098,-0.2832569181919098,-0.7889471054077148,0.9480083584785461,-3.014819383621216,-3.4133846759796143,-21.654766082763672
66138,-0.2817780673503876,-0.7864688038825989,0.9453023672103882,-3.029233694076538,-3.5109548568725586,-21.681453704833984
66178,-0.27952590584754944,-0.7832501530647278,0.9407631158828735,-3.0253045558929443,-3.4622676372528076,-21.55759620666504
66218,-0.2778376340866089,-0.780669629573822,0.9362334609031677,-2.922131061553955,-3.334535598754883,-21.284061431884766
66260,-0.2763650417327881,-0.7790376543998718,0.9323710799217224,-2.797729969024658,-3.3698511123657227,-21.022296905517578
66298,-0.2752496898174286,-0.7762870192527771,0.9265388250350952,-3.0059165954589844,-3.676121234893799,-20.84556770324707
66338,-0.27461549639701843,-0.7738392949104309,0.918830156326294,-2.9704208374023438,-4.206233501434326,-20.285446166992188
66378,-0.27411535382270813,-0.7711230516433716,0.9088310599327087,-3.031233072280884,-4.610390663146973,-20.186960220336914
66418,-0.2743590772151947,-0.7675687074661255,0.8957268595695496,-2.964627265930176,-4.873362064361572,-19.851423263549805
66460,-0.2747049033641815,-0.7655587196350098,0.8812627792358398,-3.0570201873779297,-4.8213067054748535,-19.574546813964844
66498,-0.2756083011627197,-0.7629466652870178,0.8651480078697205,-3.261810779571533,-4.730972766876221,-19.459993362426758
66538,-0.27678805589675903,-0.7606871724128723,0.8471313118934631,-3.6461238861083984,-4.772871971130371,-19.192283630371094
66578,-0.2780490815639496,-0.7585337162017822,0.8211572170257568,-3.959442615509033,-4.598982334136963,-19.079038619995117
66618,-0.27913156151771545,-0.7544845938682556,0.7951024174690247,-4.2485737800598145,-3.963972330093384,-18.804244995117188
66660,-0.2783217132091522,-0.7532179355621338,0.7691812515258789,-4.551762104034424,-3.540087938308716,-19.259740829467773
66698,-0.27760788798332214,-0.7522497177124023,0.7481184005737305,-4.740339756011963,-3.3561739921569824,-19.224592208862305
66738,-0.2768379747867584,-0.7501964569091797,0.7168686389923096,-4.697033405303955,-3.135859727859497,-19.116374969482422
66778,-0.27586403489112854,-0.7474825382232666,0.6833321452140808,-4.436439037322998,-2.8171041011810303,-19.132762908935547
66818,-0.27494949102401733,-0.7430617213249207,0.6468985676765442,-4.621418476104736,-2.474414587020874,-19.337738037109375
66858,-0.2708958685398102,-0.7423449754714966,0.6113081574440002,-4.478949069976807,-2.2944250106811523,-19.287431716918945
66898,-0.26563483476638794,-0.741675078868866,0.5758257508277893,-4.391133785247803,-2.237349033355713,-18.877405166625977
66938,-0.2590939700603485,-0.7414048910140991,0.5384799242019653,-3.993818759918213,-2.2396342754364014,-18.038358688354492
66978,-0.25261780619621277,-0.7389442324638367,0.4982854127883911,-4.459320545196533,-1.6787174940109253,-18.303287506103516
67018,-0.24740470945835114,-0.734834611415863,0.45578110218048096,-4.572234630584717,-0.9621378779411316,-18.263988494873047
67061,-0.2393801361322403,-0.7333153486251831,0.40544039011001587,-5.461055755615234,-0.13853006064891815,-17.903688430786133
67098,-0.23324547708034515,-0.73536616563797,0.37816646695137024,-5.139360427856445,-0.25824737548828125,-17.73580551147461
67138,-0.22629998624324799,-0.7374951839447021,0.3412680923938751,-4.708858013153076,0.10988622903823853,-16.965974807739258
67178,-0.22081443667411804,-0.7381343245506287,0.30504998564720154,-4.950697422027588,0.360892117023468,-16.437679290771484
67218,-0.2149076759815216,-0.7421466708183289,0.27408692240715027,-4.323253154754639,0.1004372090101242,-15.699707984924316
67258,-0.2091977298259735,-0.7475142478942871,0.24442072212696075,-4.275607109069824,-0.2876112759113312,-15.184441566467285
67298,-0.20449389517307281,-0.7530961632728577,0.21372227370738983,-3.4089725017547607,0.35280469059944153,-14.092951774597168
67338,-0.20090538263320923,-0.7573185563087463,0.18453076481819153,-3.253722906112671,0.2308494746685028,-12.801095962524414
67378,-0.19906079769134521,-0.758653461933136,0.1557854861021042,-2.766256093978882,0.7454209923744202,-12.608800888061523
67418,-0.1967313289642334,-0.7603064179420471,0.13117414712905884,-2.943727731704712,-0.008473100140690804,-12.417350769042969
67458,-0.19352692365646362,-0.7617337107658386,0.10613113641738892,-2.497530698776245,0.09689243137836456,-12.569276809692383
67498,-0.18962016701698303,-0.7631598114967346,0.08251426368951797,-2.414916515350342,0.509466826915741,-12.887344360351562
67538,-0.18522319197654724,-0.764786958694458,0.06016255542635918,-2.6082983016967773,0.9245142936706543,-13.251546859741211
67578,-0.18128059804439545,-0.7656163573265076,0.03761628270149231,-2.240324020385742,1.5826191902160645,-13.323410034179688
67618,-0.1770283281803131,-0.766987144947052,0.019440030679106712,-1.2614749670028687,0.5914747714996338,-11.994946479797363
67658,-0.17377957701683044,-0.7669044733047485,0.0037711537443101406,-1.3783230781555176,0.993944525718689,-12.898221969604492
67698,-0.17229436337947845,-0.7654705047607422,-0.00968183670192957,-0.5270048379898071,0.5018106698989868,-13.993560791015625
67738,-0.170967698097229,-0.7658844590187073,-0.02082778327167034,0.6184635162353516,0.24026373028755188,-14.141287803649902
67779,-0.16933616995811462,-0.7666849493980408,-0.031709350645542145,0.9556986689567566,1.4359334707260132,-15.23984146118164
67818,-0.16647370159626007,-0.7669991254806519,-0.036442242562770844,-2.5302772521972656,-1.4150117635726929,-15.918622016906738
67858,-0.1662655472755432,-0.766192615032196,-0.035158462822437286,-2.7093052864074707,-1.2742973566055298,-15.996482849121094
67898,-0.16687200963497162,-0.7675151824951172,-0.03190993890166283,-1.4824423789978027,0.13584120571613312,-15.95727825164795
67938,-0.1668422520160675,-0.7680132389068604,-0.030856989324092865,-1.425130844116211,0.07603354007005692,-15.890922546386719
67979,-0.16680820286273956,-0.7687287330627441,-0.02988946996629238,-1.3989896774291992,0.06028958782553673,-15.89765739440918
68018,-0.16700978577136993,-0.7686055898666382,-0.030325546860694885,-1.42378568649292,0.04508499056100845,-15.929817199707031
68058,-0.16701500117778778,-0.7688362002372742,-0.029977431520819664,-1.442705750465393,0.026391874998807907,-15.930817604064941
68098,-0.16689817607402802,-0.7688379883766174,-0.029769152402877808,-1.4750412702560425,-0.0051944381557404995,-15.954947471618652
68138,-0.16683349013328552,-0.7692116498947144,-0.02928558923304081,-1.483294129371643,-0.025892289355397224,-15.944538116455078
68178,-0.16676990687847137,-0.7694379091262817,-0.028913233429193497,-1.5047588348388672,-0.04492805153131485,-15.931417465209961
68218,-0.1666633039712906,-0.769477128982544,-0.028710084035992622,-1.537786602973938,-0.07266812771558762,-15.94355583190918
68258,-0.1666380763053894,-0.7695245146751404,-0.028462154790759087,-1.569348692893982,-0.09058061987161636,-15.925908088684082
68298,-0.16656683385372162,-0.769440770149231,-0.028452180325984955,-1.604701280593872,-0.11045235395431519,-15.938211441040039
68338,-0.16659444570541382,-0.7693960666656494,-0.028361568227410316,-1.6239633560180664,-0.12018278986215591,-15.932144165039062
68379,-0.16657227277755737,-0.7695350050926208,-0.027992913499474525,-1.634595274925232,-0.13391776382923126,-15.926613807678223
68418,-0.16637133061885834,-0.7696839570999146,-0.027614891529083252,-1.6550812721252441,-0.15587665140628815,-15.938850402832031
68458,-0.16623656451702118,-0.7696729898452759,-0.027609480544924736,-1.676731824874878,-0.17336055636405945,-15.926337242126465
68498,-0.16629953682422638,-0.7695953249931335,-0.02782176434993744,-1.6876996755599976,-0.17378686368465424,-15.943448066711426
68538,-0.1661970615386963,-0.7699726819992065,-0.027396004647016525,-1.6837729215621948,-0.18439632654190063,-15.929108619689941
68578,-0.16622917354106903,-0.770057201385498,-0.027211865410208702,-1.6959788799285889,-0.18477025628089905,-15.915910720825195
68618,-0.1662168651819229,-0.7701072096824646,-0.02686365693807602,-1.717290997505188,-0.19332124292850494,-15.928350448608398
68658,-0.16618385910987854,-0.7701173424720764,-0.0267209243029356,-1.7353029251098633,-0.20372799038887024,-15.91633415222168
68698,-0.16627028584480286,-0.7698830962181091,-0.027100684121251106,-1.7437386512756348,-0.20510809123516083,-15.93795394897461
68738,-0.1661304235458374,-0.7701725363731384,-0.026522554457187653,-1.7423958778381348,-0.2188555747270584,-15.928229331970215
68780,-0.16605332493782043,-0.7702511548995972,-0.02616705186665058,-1.755622148513794,-0.2237681895494461,-15.915504455566406
68818,-0.16618698835372925,-0.769974410533905,-0.026701580733060837,-1.7624180316925049,-0.21548818051815033,-15.936245918273926
68858,-0.16619060933589935,-0.770103394985199,-0.026520656421780586,-1.7604045867919922,-0.21464450657367706,-15.923613548278809
68898,-0.1663319617509842,-0.7700931429862976,-0.02691696584224701,-1.7567070722579956,-0.21609920263290405,-15.93338394165039
68938,-0.16638325154781342,-0.7701655626296997,-0.027012936770915985,-1.7628285884857178,-0.2213853895664215,-15.918878555297852
68979,-0.166426882147789,-0.7701173424720764,-0.026969540864229202,-1.7843626737594604,-0.22221335768699646,-15.903382301330566
69018,-0.16637744009494781,-0.7701032161712646,-0.026998592540621758,-1.7954301834106445,-0.23732277750968933,-15.917057037353516
69058,-0.16640634834766388,-0.7699663639068604,-0.02703719213604927,-1.8119709491729736,-0.24234221875667572,-15.9012451171875
69098,-0.1662859469652176,-0.7699854373931885,-0.027109939604997635,-1.8144876956939697,-0.255935937166214,-15.914867401123047
69138,-0.16637083888053894,-0.7697726488113403,-0.02755386009812355,-1.820505976676941,-0.2502526640892029,-15.905386924743652
69180,-0.1665257066488266,-0.7694482207298279,-0.02834106981754303,-1.8229440450668335,-0.24457572400569916,-15.924798965454102
69218,-0.16659176349639893,-0.7693532109260559,-0.028604300692677498,-1.8254481554031372,-0.24374139308929443,-15.911996841430664
69258,-0.1664881855249405,-0.7693846821784973,-0.028289631009101868,-1.8379124402999878,-0.24692484736442566,-15.898401260375977
69298,-0.16655071079730988,-0.7693985104560852,-0.028428873047232628,-1.8302475214004517,-0.24317310750484467,-15.912949562072754
69338,-0.16662172973155975,-0.7693334817886353,-0.028751350939273834,-1.824992060661316,-0.2432153970003128,-15.901420593261719
69380,-0.1667410135269165,-0.7691754698753357,-0.0291694775223732,-1.8271098136901855,-0.24221327900886536,-15.885550498962402
69418,-0.16680501401424408,-0.768923282623291,-0.02981504052877426,-1.836320161819458,-0.24930216372013092,-15.898694038391113
69458,-0.16680563986301422,-0.7689248919487,-0.02965553104877472,-1.8471577167510986,-0.2446957528591156,-15.884119987487793
69498,-0.16671088337898254,-0.7690292000770569,-0.029471788555383682,-1.8494670391082764,-0.2562733292579651,-15.89754581451416
69538,-0.16664251685142517,-0.769074559211731,-0.02936392091214657,-1.8513574600219727,-0.2646935284137726,-15.89100456237793
69580,-0.1667710840702057,-0.7687669992446899,-0.029866443946957588,-1.8519995212554932,-0.25609299540519714,-15.891658782958984
69618,-0.16682113707065582,-0.7687828540802002,-0.029824383556842804,-1.8443317413330078,-0.24696075916290283,-15.918277740478516
69658,-0.16687621176242828,-0.7686391472816467,-0.030055521056056023,-1.8458307981491089,-0.2522084712982178,-15.908018112182617
69698,-0.16684353351593018,-0.7686883211135864,-0.03005131706595421,-1.8486149311065674,-0.2637768089771271,-15.917780876159668
69738,-0.1668885052204132,-0.7687540054321289,-0.029832890257239342,-1.8439524173736572,-0.25680965185165405,-15.89993667602539
69778,-0.16687169671058655,-0.7688698768615723,-0.029846327379345894,-1.8358160257339478,-0.2611840069293976,-15.883484840393066
69818,-0.16690872609615326,-0.7687084674835205,-0.030203737318515778,-1.8412344455718994,-0.26144838333129883,-15.896249771118164
69858,-0.16678763926029205,-0.7689029574394226,-0.02986699528992176,-1.84212064743042,-0.26679491996765137,-15.905769348144531
69898,-0.16691239178180695,-0.7686078548431396,-0.030492832884192467,-1.8496979475021362,-0.2640785872936249,-15.91949462890625
69938,-0.16692952811717987,-0.7688011527061462,-0.03007371723651886,-1.8446732759475708,-0.26297035813331604,-15.909762382507324
69981,-0.1670524626970291,-0.7682548761367798,-0.030882086604833603,-1.8663454055786133,-0.2666235566139221,-15.90434741973877
70018,-0.16710348427295685,-0.7681350708007812,-0.031178507953882217,-1.8628451824188232,-0.2718283534049988,-15.918113708496094
70058,-0.16709105670452118,-0.7681652307510376,-0.03121597319841385,-1.852880835533142,-0.2820131480693817,-15.90318489074707
70098,-0.16699713468551636,-0.7685807347297668,-0.0305798277258873,-1.840211033821106,-0.2848965525627136,-15.913904190063477
70138,-0.16696853935718536,-0.7684987187385559,-0.030693266540765762,-1.8503773212432861,-0.288688600063324,-15.903081893920898
70178,-0.16694089770317078,-0.7685607075691223,-0.03065062128007412,-1.8460732698440552,-0.29098743200302124,-15.890837669372559
70218,-0.16700433194637299,-0.7684480547904968,-0.030778668820858,-1.8511978387832642,-0.28122636675834656,-15.907933235168457
70258,-0.16701652109622955,-0.7684734463691711,-0.03078174777328968,-1.8459866046905518,-0.27912718057632446,-15.894972801208496
70298,-0.16705292463302612,-0.7683594226837158,-0.030858706682920456,-1.8543384075164795,-0.27178850769996643,-15.908225059509277
70338,-0.16709084808826447,-0.7681699395179749,-0.03116464614868164,-1.858421802520752,-0.2738238573074341,-15.899965286254883
70381,-0.16708414256572723,-0.7683294415473938,-0.031210049986839294,-1.8438891172409058,-0.2801963686943054,-15.892173767089844
70418,-0.16717815399169922,-0.7679897546768188,-0.03172754868865013,-1.8533822298049927,-0.2817785441875458,-15.91569709777832
70458,-0.167168527841568,-0.7681111097335815,-0.031388863921165466,-1.8527885675430298,-0.2788471579551697,-15.90678596496582
70498,-0.1670956015586853,-0.7680479884147644,-0.03144444152712822,-1.860808253288269,-0.2891421616077423,-15.891955375671387
70538,-0.16710688173770905,-0.7681400179862976,-0.03168197348713875,-1.849562644958496,-0.2902441918849945,-15.910847663879395
70578,-0.16719548404216766,-0.7680861949920654,-0.03177427127957344,-1.8540276288986206,-0.27984538674354553,-15.899574279785156
70618,-0.167196586728096,-0.7681064009666443,-0.031765904277563095,-1.8578369617462158,-0.2823985517024994,-15.904680252075195
70658,-0.1671656370162964,-0.7680736184120178,-0.03174971789121628,-1.865147590637207,-0.2853708565235138,-15.898528099060059
70699,-0.16712528467178345,-0.7681878805160522,-0.031522855162620544,-1.864882469177246,-0.28755900263786316,-15.9111909866333
70738,-0.1670953333377838,-0.7683138847351074,-0.031122636049985886,-1.8683137893676758,-0.28350406885147095,-15.900284767150879
70778,-0.16707998514175415,-0.7682715058326721,-0.031038828194141388,-1.8703917264938354,-0.2844197750091553,-15.89387321472168
70818,-0.16704200208187103,-0.7682555317878723,-0.03093182109296322,-1.8751258850097656,-0.2883027493953705,-15.909015655517578
70858,-0.16700395941734314,-0.7683910727500916,-0.030856098979711533,-1.863279938697815,-0.28730303049087524,-15.90288257598877
