Timestamp,stateEstimate.x,stateEstimate.y,stateEstimate.z,stateEstimate.roll,stateEstimate.pitch,stateEstimate.yaw
3233672,0.18536318838596344,0.030832363292574883,0.02122826687991619,-1.1488142013549805,0.05294337123632431,17.590579986572266
3233712,0.1853252798318863,0.030985243618488312,0.020952830091118813,-1.1531554460525513,0.051126133650541306,17.591341018676758
3233752,0.18537399172782898,0.0310270544141531,0.020862801000475883,-1.1573970317840576,0.048848096281290054,17.584087371826172
3233794,0.18537922203540802,0.030746815726161003,0.02125486545264721,-1.1587663888931274,0.05325306951999664,17.582366943359375
3233832,0.18536600470542908,0.030868621543049812,0.021146714687347412,-1.159517765045166,0.05227857828140259,17.596132278442383
3233872,0.18528448045253754,0.030728526413440704,0.021306507289409637,-1.1558185815811157,0.0564960315823555,17.580747604370117
3233912,0.1852768510580063,0.03092304989695549,0.021130111068487167,-1.1606945991516113,0.0545685701072216,17.601364135742188
3233952,0.18529143929481506,0.031084274873137474,0.020925477147102356,-1.1573193073272705,0.04959907382726669,17.584272384643555
3233992,0.185362309217453,0.030756251886487007,0.02112053707242012,-1.141129732131958,0.045568715780973434,17.560489654541016
3234032,0.1853194236755371,0.031172294169664383,0.020795589312911034,-1.1575342416763306,0.03931247815489769,17.586122512817383
3234072,0.18528532981872559,0.031228268519043922,0.020815560594201088,-1.161821722984314,0.03960941359400749,17.58729362487793
3234112,0.1853492259979248,0.031057165935635567,0.020823413506150246,-1.1491479873657227,0.03496091812849045,17.597049713134766
3234152,0.18530255556106567,0.03103303536772728,0.020873280242085457,-1.1551812887191772,0.036925870925188065,17.59093475341797
3234195,0.18534576892852783,0.031081296503543854,0.020603658631443977,-1.1510742902755737,0.03366191312670708,17.5742244720459
3234232,0.18526095151901245,0.031513750553131104,0.020295187830924988,-1.1696150302886963,0.031424231827259064,17.600849151611328
3234272,0.1852581650018692,0.031238844618201256,0.020556766539812088,-1.157618522644043,0.03431471437215805,17.584733963012695
3234312,0.18529075384140015,0.031444404274225235,0.020431727170944214,-1.1635817289352417,0.025407802313566208,17.565107345581055
3234352,0.18523332476615906,0.03142653778195381,0.020657530054450035,-1.169260025024414,0.0326886884868145,17.59540557861328
3234392,0.18519946932792664,0.031179552897810936,0.020896682515740395,-1.1606018543243408,0.039095401763916016,17.586523056030273
3234432,0.18530699610710144,0.03105129674077034,0.020919522270560265,-1.1474837064743042,0.04098767414689064,17.606983184814453
3234472,0.18526063859462738,0.031167486682534218,0.020889895036816597,-1.1502912044525146,0.04774424061179161,17.595745086669922
3234512,0.185274139046669,0.030996879562735558,0.020933080464601517,-1.1353737115859985,0.05074673518538475,17.618576049804688
3234552,0.1852816790342331,0.03095012530684471,0.02097911387681961,-1.1345576047897339,0.04775828868150711,17.60854148864746
3234595,0.18520857393741608,0.03106708638370037,0.020982248708605766,-1.1396095752716064,0.05020548030734062,17.604442596435547
3234632,0.18529805541038513,0.031141210347414017,0.020918410271406174,-1.1320552825927734,0.03937792032957077,17.62704086303711
3234672,0.18532581627368927,0.03101259097456932,0.020997144281864166,-1.1267412900924683,0.04153008386492729,17.619915008544922
3234712,0.18528108298778534,0.031055312603712082,0.020989447832107544,-1.129441738128662,0.050184499472379684,17.59735679626465
3234752,0.18532304465770721,0.03105532005429268,0.020981349050998688,-1.1222003698349,0.04763318598270416,17.602249145507812
3234795,0.1852550208568573,0.0308504831045866,0.02116289921104908,-1.1204345226287842,0.05533529818058014,17.59282684326172
3234832,0.1854112297296524,0.031071854755282402,0.02086448110640049,-1.122374415397644,0.04582049697637558,17.61786651611328
3234872,0.1853342205286026,0.031286027282476425,0.02060610242187977,-1.1470556259155273,0.04665020853281021,17.587045669555664
3234912,0.18559198081493378,0.030531732365489006,0.021075069904327393,-0.9623075127601624,0.26547348499298096,17.12425422668457
3234952,0.18622034788131714,0.03036605566740036,0.02131306193768978,-0.7056687474250793,0.4215598702430725,16.493661880493164
3234992,0.18413352966308594,0.030905965715646744,0.021687809377908707,-1.6723964214324951,2.1401047706604004,17.034086227416992
3235032,0.18425628542900085,0.032687243074178696,0.025879062712192535,-4.173686504364014,5.976566791534424,19.622028350830078
3235072,0.18506768345832825,0.038326654583215714,0.04103981330990791,-9.616081237792969,12.499707221984863,19.85218620300293
3235112,0.18786360323429108,0.04679634049534798,0.06546062976121902,-8.504124641418457,12.257394790649414,18.5748233795166
3235152,0.19330106675624847,0.060488905757665634,0.09486494958400726,-7.4187188148498535,11.253264427185059,19.051841735839844
3235192,0.19726140797138214,0.08734120428562164,0.11611846089363098,-6.231265068054199,11.726200103759766,18.666213989257812
3235232,0.20062148571014404,0.1134168803691864,0.15052683651447296,-5.077279090881348,11.649023056030273,18.641983032226562
3235272,0.2038716822862625,0.1321464329957962,0.20459426939487457,-4.470646858215332,11.973356246948242,17.85249900817871
3235313,0.20466727018356323,0.16012361645698547,0.24783410131931305,-3.1637096405029297,11.717490196228027,17.2241268157959
3235352,0.2024739384651184,0.18978457152843475,0.2881089448928833,-2.591019630432129,11.762709617614746,16.07957649230957
3235392,0.20073440670967102,0.21969497203826904,0.32202184200286865,-0.6763744354248047,10.9957857131958,16.335363388061523
3235432,0.19632451236248016,0.2430858314037323,0.36641058325767517,-0.38108375668525696,10.763480186462402,15.279306411743164
3235472,0.1918821483850479,0.2660166323184967,0.4101603627204895,0.711066722869873,10.743915557861328,14.58328628540039
3235513,0.18583537638187408,0.29101383686065674,0.44828206300735474,1.4623914957046509,10.76916217803955,13.761558532714844
3235552,0.17746779322624207,0.31799423694610596,0.4832737147808075,1.8476488590240479,11.100044250488281,12.41940689086914
3235592,0.16692139208316803,0.34879347681999207,0.5102916359901428,2.5905845165252686,10.793346405029297,11.16047477722168
3235632,0.15327008068561554,0.37842637300491333,0.5398217439651489,3.415416717529297,10.2167329788208,9.71958065032959
3235672,0.13597474992275238,0.40710967779159546,0.5730677247047424,3.520587205886841,9.569990158081055,7.307429313659668
3235713,0.11708216369152069,0.4406539797782898,0.6003302335739136,3.9526383876800537,8.477994918823242,4.829083442687988
3235752,0.09792540967464447,0.4766572117805481,0.6249446868896484,4.471660137176514,7.362736701965332,2.918494462966919
3235792,0.0788552463054657,0.5162821412086487,0.6423897743225098,4.438779830932617,6.508267879486084,0.403740793466568
3235832,0.0598718635737896,0.5501211881637573,0.6665130853652954,4.417232990264893,5.518011569976807,-1.5566699504852295
3235872,0.04145687818527222,0.5836971402168274,0.6918858885765076,4.392987251281738,5.326901912689209,-3.262012004852295
3235913,0.023830657824873924,0.6179786324501038,0.7171471118927002,4.424716472625732,4.624240875244141,-4.937343120574951
3235952,0.007345058489590883,0.6510112285614014,0.741423487663269,4.729175090789795,4.121616840362549,-5.612375736236572
3235992,-0.009003358893096447,0.6850070357322693,0.7628543972969055,4.729978561401367,3.660897970199585,-6.560791015625
3236032,-0.02580949105322361,0.7170612812042236,0.7867574691772461,5.08986759185791,2.766512155532837,-7.569566249847412
3236072,-0.04345779865980148,0.7475842833518982,0.8107889890670776,5.429555416107178,2.24190616607666,-8.493854522705078
3236114,-0.06135924533009529,0.7775735855102539,0.8320647478103638,5.446003437042236,1.2738025188446045,-9.329628944396973
3236152,-0.07841033488512039,0.8056331872940063,0.8520115613937378,5.8370184898376465,0.2709783613681793,-10.241463661193848
3236192,-0.0945902168750763,0.8303125500679016,0.8694833517074585,6.004769325256348,-0.02361971139907837,-11.370553016662598
3236232,-0.11093725264072418,0.8529154658317566,0.8894787430763245,5.801462650299072,-0.6582074165344238,-12.521410942077637
3236272,-0.12653452157974243,0.8736840486526489,0.9093208909034729,5.6044020652771,-0.8716139793395996,-13.819112777709961
3236313,-0.14151562750339508,0.8916199207305908,0.9285182356834412,6.102652072906494,-1.9166390895843506,-14.401666641235352
3236352,-0.15738831460475922,0.9075862765312195,0.9484599828720093,6.193151473999023,-2.9296061992645264,-14.994023323059082
3236392,-0.1740027368068695,0.9263145923614502,0.9662008285522461,6.671438217163086,-4.610018730163574,-15.814229965209961
3236432,-0.1893198937177658,0.9434226751327515,0.9845695495605469,6.4611496925354,-5.870143890380859,-17.105052947998047
3236472,-0.20373284816741943,0.9603735208511353,1.0000739097595215,6.360076427459717,-6.831543922424316,-17.88767433166504
3236512,-0.2186473160982132,0.9773358702659607,1.0142053365707397,6.215123653411865,-7.475738048553467,-18.73672866821289
3236552,-0.23288436233997345,0.9936380386352539,1.0311412811279297,4.9624528884887695,-8.419022560119629,-20.384586334228516
3236592,-0.24685151875019073,1.0102072954177856,1.0452064275741577,4.283841133117676,-9.329817771911621,-21.965944290161133
3236632,-0.26089316606521606,1.023715853691101,1.0585745573043823,3.384538412094116,-9.752163887023926,-23.43718719482422
3236672,-0.27532580494880676,1.036191701889038,1.0708502531051636,2.909700632095337,-10.303553581237793,-24.77404022216797
3236714,-0.28950366377830505,1.0463777780532837,1.0805381536483765,3.0578246116638184,-10.711997032165527,-25.275054931640625
3236752,-0.30407828092575073,1.0562658309936523,1.0890278816223145,3.0072014331817627,-11.148421287536621,-25.870267868041992
3236792,-0.3192072808742523,1.065592646598816,1.0961154699325562,3.1016716957092285,-11.369303703308105,-26.35160255432129
3236832,-0.3318394422531128,1.070755958557129,1.1026432514190674,3.303166627883911,-11.533395767211914,-26.507869720458984
3236872,-0.3542444109916687,1.0803629159927368,1.1110990047454834,3.480647563934326,-11.52385139465332,-26.667457580566406
3236914,-0.374349445104599,1.0880745649337769,1.117614507675171,3.5665106773376465,-11.903905868530273,-26.577085494995117
3236952,-0.39551496505737305,1.09488844871521,1.1229387521743774,3.538952350616455,-11.957267761230469,-26.508228302001953
3236992,-0.41859757900238037,1.1040112972259521,1.1262993812561035,3.2707393169403076,-12.25401782989502,-26.51879119873047
3237032,-0.43558233976364136,1.1018927097320557,1.1324971914291382,3.1526782512664795,-12.069639205932617,-26.32978057861328
3237072,-0.46573543548583984,1.1030185222625732,1.1414240598678589,2.7634518146514893,-12.403727531433105,-25.48379135131836
3237112,-0.4901699721813202,1.1024295091629028,1.1495232582092285,2.070711374282837,-13.089205741882324,-25.187402725219727
3237152,-0.5132410526275635,1.098139762878418,1.1545840501785278,2.019432306289673,-13.314730644226074,-24.723432540893555
3237192,-0.5360815525054932,1.0949753522872925,1.1563349962234497,2.043086290359497,-13.104103088378906,-23.97747802734375
3237232,-0.5533661842346191,1.0867429971694946,1.1598180532455444,2.293351411819458,-13.015162467956543,-23.361284255981445
3237272,-0.5833207368850708,1.0774859189987183,1.1631412506103516,2.6826415061950684,-13.12891674041748,-21.865388870239258
3237312,-0.6007786393165588,1.0638056993484497,1.1679282188415527,3.0905489921569824,-13.118195533752441,-21.014474868774414
3237352,-0.6238139271736145,1.054336667060852,1.1709229946136475,3.305159091949463,-13.384575843811035,-20.062103271484375
3237392,-0.646254301071167,1.0425174236297607,1.174411654472351,2.973985195159912,-13.611581802368164,-19.38909912109375
3237433,-0.6664327383041382,1.0315073728561401,1.1756772994995117,2.963892936706543,-13.666400909423828,-18.462486267089844
3237472,-0.6862391233444214,1.0162969827651978,1.1775522232055664,3.114440441131592,-13.702503204345703,-17.658220291137695
3237512,-0.7057530879974365,0.9997792840003967,1.1804176568984985,3.314237117767334,-13.91417407989502,-16.77703285217285
3237552,-0.7238571047782898,0.9820399880409241,1.1841074228286743,3.251333475112915,-14.014603614807129,-16.202253341674805
3237592,-0.7415041923522949,0.9634580016136169,1.1880428791046143,3.2437288761138916,-14.262388229370117,-15.79262638092041
3237632,-0.7582247853279114,0.945785641670227,1.1914381980895996,3.6798362731933594,-14.870502471923828,-15.062232971191406
3237672,-0.7734013199806213,0.9238510131835938,1.1975218057632446,3.294187545776367,-15.412059783935547,-14.937853813171387
3237712,-0.7876906991004944,0.9013500213623047,1.204091191291809,2.636565685272217,-15.828598976135254,-14.918182373046875
3237752,-0.8009257912635803,0.87876296043396,1.2106751203536987,1.0404471158981323,-16.25904083251953,-15.286434173583984
3237792,-0.8134658336639404,0.8557384014129639,1.2156893014907837,0.23951564729213715,-16.642261505126953,-15.256275177001953
3237833,-0.8237441778182983,0.8330077528953552,1.2189850807189941,-0.12460482865571976,-17.013675689697266,-14.616599082946777
3237872,-0.8325096368789673,0.8078724145889282,1.2224303483963013,-0.22821584343910217,-17.189006805419922,-14.11689567565918
3237912,-0.8418568968772888,0.7836191654205322,1.2245473861694336,0.08415590226650238,-17.382152557373047,-13.27163314819336
3237952,-0.8502925634384155,0.7583748698234558,1.2273554801940918,-0.25055989623069763,-17.683406829833984,-12.760758399963379
3237992,-0.8586072325706482,0.7328600883483887,1.2274503707885742,-0.013849805109202862,-17.761581420898438,-12.075600624084473
3238033,-0.8647996187210083,0.7040350437164307,1.2261250019073486,0.780929684638977,-17.736160278320312,-10.751470565795898
3238072,-0.8754801750183105,0.6842666268348694,1.2219038009643555,1.569812297821045,-17.533660888671875,-9.655782699584961
3238112,-0.884861171245575,0.6584269404411316,1.220733404159546,1.840614914894104,-17.456693649291992,-8.841936111450195
3238152,-0.8939594626426697,0.6322389245033264,1.2202179431915283,1.7218220233917236,-17.47138023376465,-8.15953254699707
3238192,-0.9039435982704163,0.6068360805511475,1.2176100015640259,2.3831756114959717,-17.3480167388916,-7.079099655151367
3238233,-0.9156796336174011,0.585784375667572,1.2131531238555908,2.6083738803863525,-17.304351806640625,-6.066221714019775
3238272,-0.9253210425376892,0.5582380890846252,1.2109739780426025,2.713881731033325,-17.17258071899414,-5.394380569458008
3238312,-0.9357233047485352,0.5292388796806335,1.2085312604904175,2.7686374187469482,-17.100053787231445,-4.538285732269287
3238352,-0.9446644186973572,0.4981602132320404,1.2062898874282837,2.7712769508361816,-16.99066925048828,-3.5319180488586426
3238392,-0.9556754231452942,0.4693613350391388,1.2033402919769287,2.169921636581421,-17.145689010620117,-2.5835697650909424
3238433,-0.9674723148345947,0.44425854086875916,1.198603630065918,1.6894595623016357,-17.21002197265625,-1.5233652591705322
3238472,-0.9755221009254456,0.41187021136283875,1.1961888074874878,1.9166673421859741,-17.348617553710938,-0.2981509864330292
3238512,-0.9842877984046936,0.3794035017490387,1.194445013999939,1.4882943630218506,-17.19455337524414,0.3379638195037842
3238552,-0.9919542074203491,0.3461057245731354,1.192089557647705,1.715018391609192,-16.892192840576172,1.4812192916870117
3238592,-1.0011310577392578,0.3164004981517792,1.189452052116394,1.8164920806884766,-16.554716110229492,2.6251752376556396
3238634,-1.0103893280029297,0.28854936361312866,1.1879909038543701,1.5482187271118164,-16.68581771850586,3.7422420978546143
3238672,-1.0143027305603027,0.25196602940559387,1.189888834953308,1.5793843269348145,-16.686979293823242,4.939761161804199
3238712,-1.0184754133224487,0.21618372201919556,1.190611720085144,2.005800724029541,-16.69517707824707,6.246387481689453
3238752,-1.0214554071426392,0.1822795420885086,1.1912800073623657,2.165907859802246,-16.93048667907715,7.348878383636475
3238792,-1.0250235795974731,0.1508086919784546,1.1908549070358276,2.4433019161224365,-17.205982208251953,8.498392105102539
3238834,-1.0286343097686768,0.1226271390914917,1.1900005340576172,2.3153579235076904,-17.159887313842773,9.43327522277832
3238872,-1.0278041362762451,0.08910001814365387,1.1920216083526611,2.243952989578247,-17.377775192260742,10.512414932250977
3238912,-1.0270328521728516,0.05708350986242294,1.192886233329773,2.2775561809539795,-17.42234230041504,11.472724914550781
3238952,-1.022843837738037,0.024228382855653763,1.1941094398498535,2.59828782081604,-17.395376205444336,12.7230863571167
3238992,-1.0200902223587036,-0.004505850374698639,1.193951964378357,2.7230658531188965,-17.486915588378906,13.811036109924316
3239033,-1.0150617361068726,-0.03649870678782463,1.1943362951278687,2.8698642253875732,-17.703121185302734,14.953429222106934
3239072,-1.0063756704330444,-0.06761588901281357,1.1957024335861206,2.938946008682251,-17.935169219970703,15.98173713684082
3239112,-0.9988943338394165,-0.09431002289056778,1.1954787969589233,2.471362829208374,-18.139259338378906,16.875858306884766
3239152,-0.986600399017334,-0.12492361664772034,1.196565866470337,2.560986280441284,-18.347810745239258,17.901973724365234
3239192,-0.9738996028900146,-0.15510398149490356,1.1971080303192139,2.4732210636138916,-18.44280433654785,18.644073486328125
3239234,-0.9602458477020264,-0.18369674682617188,1.1976603269577026,2.6499240398406982,-18.566537857055664,19.43495750427246
3239272,-0.9432376623153687,-0.214578777551651,1.1989405155181885,3.116795778274536,-18.595937728881836,20.23100471496582
3239312,-0.9295880198478699,-0.2401883751153946,1.1976827383041382,3.109632730484009,-18.67257308959961,20.571792602539062
3239352,-0.9102336764335632,-0.27051907777786255,1.1981520652770996,2.7105422019958496,-18.719486236572266,20.79104232788086
3239392,-0.887603223323822,-0.3025813400745392,1.1982367038726807,2.480841636657715,-18.808576583862305,20.920547485351562
3239434,-0.863043487071991,-0.3328341841697693,1.197434425354004,2.966088056564331,-18.868864059448242,21.347015380859375
3239472,-0.8350308537483215,-0.363849014043808,1.19913911819458,1.0878026485443115,-19.303743362426758,20.995681762695312
3239512,-0.8111469745635986,-0.3907971978187561,1.194663405418396,1.2723692655563354,-19.44695281982422,21.607892990112305
3239552,-0.7825639247894287,-0.42380043864250183,1.192490577697754,2.402622938156128,-19.265541076660156,21.946874618530273
3239592,-0.7540664076805115,-0.45838481187820435,1.1915453672409058,3.5543487071990967,-18.853513717651367,22.709508895874023
3239634,-0.7295625805854797,-0.4899986684322357,1.1909615993499756,4.782785415649414,-19.0444278717041,23.665725708007812
3239672,-0.7060295939445496,-0.5208191275596619,1.1939040422439575,4.055550575256348,-19.355905532836914,24.18729019165039
3239712,-0.683698296546936,-0.5499963760375977,1.1955456733703613,3.325599193572998,-19.2615909576416,24.806716918945312
3239752,-0.6576233506202698,-0.5821789503097534,1.1984870433807373,3.3082938194274902,-19.406024932861328,25.966068267822266
3239792,-0.6313117146492004,-0.614201009273529,1.2025729417800903,3.407435655593872,-19.903352737426758,27.318702697753906
3239834,-0.6086517572402954,-0.6427146792411804,1.20547616481781,3.4628584384918213,-20.112730026245117,28.353382110595703
3239872,-0.5865634083747864,-0.6703213453292847,1.2084254026412964,3.2305057048797607,-19.935850143432617,29.074647903442383
3239912,-0.5667685866355896,-0.6942460536956787,1.210126280784607,2.845771074295044,-20.057512283325195,29.977500915527344
3239952,-0.5411070585250854,-0.721744179725647,1.2141425609588623,3.057190418243408,-20.503761291503906,31.650924682617188
3239992,-0.5127764940261841,-0.7495461106300354,1.217881202697754,3.86025333404541,-20.91330909729004,33.64763641357422
3240032,-0.48699212074279785,-0.7726662158966064,1.2192227840423584,4.273582935333252,-21.006885528564453,35.217742919921875
3240072,-0.46000561118125916,-0.7934491038322449,1.221131443977356,3.9605772495269775,-21.183149337768555,36.75887680053711
3240112,-0.43470486998558044,-0.8101590275764465,1.2200207710266113,4.0121541023254395,-21.146467208862305,38.60108947753906
3240152,-0.4058689773082733,-0.8274657726287842,1.2209903001785278,4.263243198394775,-20.987464904785156,40.291481018066406
3240192,-0.3746229112148285,-0.8432939052581787,1.2238571643829346,4.054537296295166,-21.05439567565918,41.81685256958008
3240235,-0.3443268835544586,-0.8563535809516907,1.2265578508377075,4.322779178619385,-21.173742294311523,43.56315612792969
3240272,-0.31489643454551697,-0.8669826984405518,1.2294633388519287,4.665452480316162,-21.16863441467285,44.96229553222656
3240312,-0.2871876060962677,-0.8733385801315308,1.2299513816833496,3.910571336746216,-21.089298248291016,46.4210319519043
3240352,-0.25284090638160706,-0.8822199106216431,1.2335517406463623,5.239614009857178,-21.046127319335938,48.7183723449707
3240392,-0.22331979870796204,-0.8861673474311829,1.235152244567871,5.203416347503662,-20.910306930541992,50.033897399902344
3240434,-0.19438676536083221,-0.8868687748908997,1.2360103130340576,4.51383638381958,-20.74563217163086,51.02889633178711
3240472,-0.1645898073911667,-0.8864225745201111,1.2362570762634277,4.676651954650879,-20.745943069458008,52.5881233215332
3240512,-0.13864339888095856,-0.8829827904701233,1.2324186563491821,5.184994220733643,-20.489831924438477,54.14430618286133
3240552,-0.1147581934928894,-0.8830965161323547,1.2352793216705322,5.245429515838623,-20.632694244384766,54.99687576293945
3240592,-0.08200477063655853,-0.8789808750152588,1.2343192100524902,4.436197280883789,-20.630769729614258,55.806949615478516
3240632,-0.0553082600235939,-0.87656569480896,1.232556939125061,4.0369977951049805,-20.478477478027344,56.656593322753906
3240672,-0.027759384363889694,-0.8739640116691589,1.2289953231811523,3.834927797317505,-20.20909309387207,58.047916412353516
3240712,-0.003910296130925417,-0.8696423768997192,1.220821738243103,5.091670036315918,-19.725313186645508,59.61800765991211
3240752,0.017432792112231255,-0.8698235750198364,1.2202235460281372,5.728960990905762,-19.258764266967773,60.3555908203125
3240792,0.0506003312766552,-0.8664594888687134,1.2185851335525513,5.180630683898926,-19.31294059753418,61.454959869384766
3240832,0.07566364854574203,-0.8657266497612,1.2206237316131592,5.641843318939209,-19.475751876831055,62.689735412597656
3240872,0.10454817116260529,-0.8600450754165649,1.2176493406295776,5.648115158081055,-19.51505470275879,64.32683563232422
3240912,0.13451427221298218,-0.8524075150489807,1.2137988805770874,6.119095325469971,-19.668725967407227,65.86312866210938
3240952,0.16294381022453308,-0.845157265663147,1.2138646841049194,5.613932132720947,-19.651857376098633,66.54216766357422
3240992,0.18659783899784088,-0.8397487998008728,1.2157707214355469,5.3594536781311035,-19.393220901489258,67.20669555664062
3241032,0.21585728228092194,-0.8317331671714783,1.214280605316162,6.054301738739014,-19.10800552368164,68.00163269042969
3241072,0.24486994743347168,-0.8246498107910156,1.2159862518310547,6.397212982177734,-19.104066848754883,69.12680053710938
3241112,0.2783292531967163,-0.8168087601661682,1.2204185724258423,6.802475452423096,-19.653018951416016,70.48149108886719
3241153,0.30976468324661255,-0.8096520304679871,1.2265305519104004,6.099379539489746,-20.270587921142578,71.57303619384766
3241192,0.33628565073013306,-0.8053528070449829,1.2312029600143433,5.831696033477783,-20.353002548217773,72.91866302490234
3241232,0.36877208948135376,-0.7997342944145203,1.232273817062378,7.283952236175537,-20.399391174316406,74.47579956054688
3241272,0.40072235465049744,-0.7930992245674133,1.2375637292861938,6.152325630187988,-20.903425216674805,75.73023986816406
3241312,0.4346340596675873,-0.7864352464675903,1.2415817975997925,5.442361831665039,-20.998666763305664,77.1192855834961
3241353,0.46626126766204834,-0.7801986932754517,1.243766188621521,6.053069591522217,-20.719017028808594,79.20378112792969
3241392,0.4942508935928345,-0.7664971947669983,1.2380609512329102,6.254796028137207,-20.67087745666504,81.44850158691406
3241432,0.5244417190551758,-0.7671958208084106,1.2538050413131714,6.077547550201416,-20.236209869384766,83.041015625
3241472,0.5548893809318542,-0.7579841017723083,1.2590391635894775,5.140122890472412,-19.926549911499023,84.95150756835938
3241512,0.5844115018844604,-0.7487273216247559,1.2649106979370117,5.203159809112549,-19.753049850463867,87.02824401855469
3241553,0.6125783324241638,-0.737808883190155,1.269435167312622,4.830417156219482,-19.85230827331543,89.18515014648438
3241592,0.6410641670227051,-0.7258837819099426,1.2721375226974487,4.730284214019775,-19.774690628051758,91.16046905517578
3241632,0.669284999370575,-0.7109311819076538,1.2709378004074097,4.002613067626953,-19.84139060974121,92.99226379394531
3241672,0.699653685092926,-0.6942604780197144,1.2691447734832764,3.7873427867889404,-19.558862686157227,95.37130737304688
3241712,0.72989821434021,-0.6772642135620117,1.2689909934997559,3.9697365760803223,-19.220365524291992,98.05586242675781
3241753,0.7532287240028381,-0.6658901572227478,1.2752939462661743,4.573216915130615,-19.022851943969727,101.27745819091797
3241792,0.7771164774894714,-0.6508967876434326,1.2789982557296753,4.099137783050537,-18.778287887573242,103.72924041748047
3241832,0.7989681363105774,-0.6354527473449707,1.2790249586105347,3.846968412399292,-18.257476806640625,105.81841278076172
3241872,0.821414589881897,-0.6177710890769958,1.277788758277893,3.2511417865753174,-17.464696884155273,107.70294189453125
3241912,0.8436394333839417,-0.5975553393363953,1.2764166593551636,2.6341729164123535,-16.60000228881836,109.53575134277344
3241954,0.863419771194458,-0.5767219662666321,1.2745805978775024,2.701709032058716,-15.9014253616333,111.4031982421875
3241992,0.8825263977050781,-0.5525180101394653,1.2702949047088623,2.800809621810913,-15.094561576843262,113.53968048095703
3242032,0.8983876705169678,-0.5304256677627563,1.2686914205551147,2.979105234146118,-14.581568717956543,115.54562377929688
3242072,0.9138510823249817,-0.5058934688568115,1.2689231634140015,2.1711103916168213,-14.314703941345215,116.8569107055664
3242112,0.9277637004852295,-0.4808725416660309,1.2701812982559204,2.1326303482055664,-14.264269828796387,118.33651733398438
3242154,0.9398491978645325,-0.4560334086418152,1.2699360847473145,2.1519947052001953,-13.711894989013672,119.66624450683594
3242192,0.9526903033256531,-0.42779338359832764,1.2693870067596436,2.3354787826538086,-13.357237815856934,120.71615600585938
3242232,0.9642112851142883,-0.401159405708313,1.2709920406341553,1.6962308883666992,-13.327264785766602,121.30899047851562
3242272,0.9769882559776306,-0.3717573881149292,1.2676141262054443,1.976611614227295,-13.122305870056152,122.61068725585938
3242312,0.9883339405059814,-0.3443942666053772,1.2643400430679321,2.831043004989624,-12.854988098144531,123.66458129882812
3242354,1.0005594491958618,-0.3157532811164856,1.2627331018447876,3.4927849769592285,-12.508017539978027,124.63422393798828
3242392,1.0145474672317505,-0.285567969083786,1.2599682807922363,3.8148891925811768,-12.298027992248535,125.7858657836914
3242432,1.0258135795593262,-0.2624718248844147,1.257983684539795,3.978909492492676,-11.968832969665527,126.87828063964844
3242472,1.0440232753753662,-0.22655868530273438,1.255441665649414,4.366844177246094,-11.849527359008789,128.61843872070312
3242512,1.0585532188415527,-0.19774487614631653,1.2534278631210327,3.881669282913208,-11.854646682739258,129.81455993652344
3242554,1.0731244087219238,-0.1670125126838684,1.250183343887329,3.9699532985687256,-11.653885841369629,131.63084411621094
3242592,1.0833778381347656,-0.1443592756986618,1.247690200805664,4.262028217315674,-11.34410572052002,132.78326416015625
3242632,1.096240520477295,-0.11544489115476608,1.2456341981887817,4.444033145904541,-11.31521224975586,134.31832885742188
3242672,1.1086012125015259,-0.08659735321998596,1.2440730333328247,4.253284454345703,-11.361149787902832,136.13970947265625
3242712,1.1199724674224854,-0.06018390133976936,1.242632508277893,4.397294521331787,-11.173847198486328,137.77023315429688
3242752,1.1316806077957153,-0.03204546123743057,1.2429856061935425,4.183736324310303,-11.173298835754395,139.52914428710938
3242792,1.1421419382095337,-0.0053204926662147045,1.2442103624343872,3.7612454891204834,-11.267548561096191,141.49468994140625
3242832,1.1528016328811646,0.021847710013389587,1.2446177005767822,3.2769882678985596,-11.294809341430664,143.20501708984375
3242872,1.1621272563934326,0.04816347360610962,1.2446982860565186,3.1694023609161377,-11.080619812011719,145.382080078125
3242912,1.1707042455673218,0.07403216511011124,1.2445669174194336,2.738518238067627,-11.081478118896484,147.3857879638672
3242954,1.1806854009628296,0.106068454682827,1.2438974380493164,2.4888832569122314,-10.744251251220703,150.4993896484375
3242992,1.1895424127578735,0.13288678228855133,1.2385845184326172,3.0034756660461426,-10.29438304901123,155.50767517089844
3243032,1.2003074884414673,0.1694059520959854,1.229812502861023,4.372012615203857,-9.617121696472168,162.7992401123047
3243072,1.209153652191162,0.2038630098104477,1.2217521667480469,5.54575777053833,-8.302630424499512,173.04747009277344
3243112,1.2105070352554321,0.22350242733955383,1.2215181589126587,6.061782360076904,-7.359184265136719,-179.89199829101562
3243152,1.2119027376174927,0.24553748965263367,1.22042977809906,6.688858509063721,-6.500106334686279,-173.27932739257812
3243192,1.2101532220840454,0.26472756266593933,1.2215313911437988,6.071310997009277,-5.500828266143799,-164.630859375
3243232,1.2131761312484741,0.29632699489593506,1.2157113552093506,6.151381015777588,-4.70856237411499,-158.7908477783203
3243272,1.2141326665878296,0.3236459493637085,1.2110120058059692,6.5434889793396,-3.922086000442505,-151.28924560546875
3243312,1.217193365097046,0.3566756844520569,1.2053829431533813,6.4857096672058105,-3.562131881713867,-146.64111328125
3243354,1.219244360923767,0.3888792097568512,1.2004084587097168,6.132149696350098,-3.336512804031372,-142.53453063964844
3243392,1.2183901071548462,0.4212718904018402,1.1963900327682495,6.209113121032715,-2.8420159816741943,-136.6866912841797
3243432,1.2192034721374512,0.45948150753974915,1.1924142837524414,6.0728068351745605,-2.6718251705169678,-133.16116333007812
3243472,1.2176522016525269,0.4936717748641968,1.1919677257537842,5.71909761428833,-2.5674805641174316,-128.45106506347656
3243512,1.2170087099075317,0.5314978361129761,1.1913586854934692,4.987336158752441,-2.956815719604492,-125.45471954345703
3243552,1.2162307500839233,0.5692658424377441,1.1897685527801514,4.976513862609863,-3.209047794342041,-122.0877685546875
3243592,1.2161085605621338,0.6062251329421997,1.1900548934936523,4.477058410644531,-3.374434471130371,-118.23262786865234
3243632,1.216786503791809,0.6502256393432617,1.189228892326355,3.8007712364196777,-3.6389853954315186,-115.38885498046875
3243672,1.2170641422271729,0.6923292279243469,1.1891611814498901,3.4895594120025635,-4.147523880004883,-111.05501556396484
3243712,1.219440221786499,0.7415916919708252,1.1869593858718872,2.8741695880889893,-4.703251838684082,-107.77787017822266
3243752,1.2235188484191895,0.7933512330055237,1.1826754808425903,2.008976459503174,-5.022494792938232,-104.75116729736328
3243792,1.227819800376892,0.8510140180587769,1.1747524738311768,2.169384002685547,-5.413390159606934,-100.86190032958984
3243832,1.2317185401916504,0.9104608297348022,1.1668590307235718,1.420557975769043,-5.730067729949951,-97.75057983398438
3243872,1.2304624319076538,0.961950957775116,1.1573596000671387,1.9583828449249268,-6.130897521972656,-93.83663940429688
3243912,1.2267380952835083,1.005952000617981,1.1509138345718384,1.7821882963180542,-6.5926666259765625,-90.6466293334961
3243952,1.232622504234314,1.0648877620697021,1.1379207372665405,1.7072679996490479,-6.810266494750977,-88.1201400756836
3243992,1.2403620481491089,1.1255438327789307,1.1237783432006836,1.4389210939407349,-7.029959201812744,-85.57855224609375
3244032,1.2498751878738403,1.188856840133667,1.109168291091919,0.6789711713790894,-6.971822738647461,-83.27831268310547
3244072,1.2610716819763184,1.2546063661575317,1.0940849781036377,0.08503090590238571,-7.075385093688965,-80.93456268310547
3244112,1.274235725402832,1.3222910165786743,1.078525424003601,-0.4062595069408417,-7.1450934410095215,-78.54777526855469
3244152,1.290084958076477,1.391614556312561,1.063058853149414,-1.1843667030334473,-7.344804286956787,-76.1961669921875
3244192,1.3088995218276978,1.461936593055725,1.0470296144485474,-1.8299542665481567,-7.424283027648926,-73.7583236694336
3244232,1.3306587934494019,1.5331547260284424,1.0304479598999023,-2.287383556365967,-7.3580803871154785,-71.17963409423828
3244272,1.3558647632598877,1.607920527458191,1.014033555984497,-3.352776288986206,-7.390648365020752,-68.9354019165039
3244312,1.3825781345367432,1.6814244985580444,0.9972975254058838,-3.9692275524139404,-7.164630889892578,-66.60589599609375
3244352,1.411321997642517,1.7544599771499634,0.9803224205970764,-4.307419776916504,-7.029493808746338,-64.10743713378906
3244392,1.441545844078064,1.827315330505371,0.9639026522636414,-4.558122634887695,-6.992992877960205,-61.41742706298828
3244432,1.472389578819275,1.9010953903198242,0.9485576152801514,-4.337142467498779,-7.165161609649658,-58.794708251953125
3244472,1.492624044418335,1.9028589725494385,0.9661428332328796,-5.217883110046387,-8.146343231201172,-53.80821228027344
3244512,1.7734229564666748,3.2076354026794434,0.4923693537712097,-7.512335777282715,-0.4845307767391205,-55.103092193603516
3244552,0.9699496626853943,1.0134185552597046,1.205349087715149,1.2895299196243286,-3.35288143157959,-65.21821594238281
3244592,1.036110520362854,1.2990084886550903,1.1057454347610474,0.9138342142105103,-0.8634749054908752,-77.75459289550781
3244632,1.0524004697799683,1.4203797578811646,1.0659855604171753,0.7778584957122803,0.11831396818161011,-83.9867935180664
3244672,1.0629103183746338,1.5169057846069336,1.0349273681640625,0.5438350439071655,0.20259173214435577,-86.9019775390625
3244712,1.0553916692733765,1.5724962949752808,1.0149974822998047,1.7529860734939575,-0.7075436115264893,-94.36602783203125
3244752,1.0515047311782837,1.6422566175460815,0.9908077120780945,1.7827900648117065,-1.1193784475326538,-94.14545440673828
3244792,1.0365763902664185,1.684656023979187,0.9759237766265869,2.327589273452759,-1.5536054372787476,-94.54817962646484
3244832,1.0251977443695068,1.7458316087722778,0.9554331302642822,1.9792580604553223,-1.869644045829773,-94.09429168701172
3244874,1.0147985219955444,1.81709885597229,0.9316404461860657,2.3428590297698975,-2.2636115550994873,-93.26099395751953
3244912,1.0019220113754272,1.8797930479049683,0.9113451242446899,2.7757534980773926,-2.822226047515869,-93.0790023803711
3244952,0.994325578212738,1.9602997303009033,0.8850668668746948,2.469381093978882,-3.053898572921753,-92.20038604736328
3244992,0.9839900732040405,2.031893014907837,0.8599550127983093,2.6651382446289062,-3.0896220207214355,-91.82950592041016
3245032,0.9762634038925171,2.1158719062805176,0.8312233686447144,2.9402337074279785,-3.1275875568389893,-90.77741241455078
3245072,0.9724308252334595,2.2126147747039795,0.8000150322914124,2.8069417476654053,-2.8105688095092773,-89.85468292236328
3245112,0.9682741165161133,2.317493200302124,0.7664645910263062,3.1265175342559814,-2.5759596824645996,-87.80338287353516
3245152,0.9625144600868225,2.4235596656799316,0.735175609588623,1.8988255262374878,-2.809957265853882,-86.02659606933594
3245192,0.9553337097167969,2.5284624099731445,0.7037528157234192,0.7822548151016235,-3.0675253868103027,-83.93809509277344
3245232,0.9479120373725891,2.6323230266571045,0.6706957221031189,0.24022632837295532,-3.056396245956421,-81.61114501953125
3245272,0.9258971810340881,2.7392568588256836,0.6272278428077698,1.0845489501953125,-2.8946869373321533,-82.07276153564453
3245312,0.91239994764328,2.812953472137451,0.5982236266136169,0.9093582034111023,-2.7054367065429688,-81.3738784790039
3245352,0.8959188461303711,2.899961471557617,0.5664772987365723,0.8474550247192383,-2.414308786392212,-79.65142059326172
3245392,0.8753317594528198,2.9640870094299316,0.5409720540046692,1.371195673942566,-2.4321675300598145,-78.1006851196289
3245432,0.8538252711296082,3.0363681316375732,0.5127459764480591,1.8210574388504028,-2.55434250831604,-75.95944213867188
3245475,0.8264942169189453,3.10041880607605,0.4879477918148041,1.9555584192276,-2.8812432289123535,-73.62271118164062
3245512,0.80011385679245,3.110629081726074,0.48188021779060364,2.160646438598633,-3.3246116638183594,-72.07457733154297
3245552,0.7691579461097717,3.158475875854492,0.46082577109336853,1.703240156173706,-3.762195587158203,-69.41923522949219
3245592,0.7391164302825928,3.1946747303009033,0.43900665640830994,2.3955702781677246,-3.9099316596984863,-66.57244873046875
3245632,0.7013518810272217,3.18455171585083,0.4296369254589081,3.2261295318603516,-4.352133750915527,-63.82842254638672
3245675,0.658019483089447,3.1587018966674805,0.4273063540458679,3.4243247509002686,-4.951643466949463,-61.49397277832031
3245712,0.6163679957389832,3.1646385192871094,0.4128519892692566,3.1453540325164795,-5.628881931304932,-58.91361618041992
3245752,0.5695973634719849,3.136561870574951,0.4056382477283478,3.22872257232666,-6.093691349029541,-55.91722106933594
3245792,0.5218838453292847,3.0931990146636963,0.40091627836227417,3.1671581268310547,-6.519321918487549,-52.78981399536133
3245832,0.46934807300567627,2.9800174236297607,0.41815298795700073,2.864372730255127,-7.371573448181152,-49.63853073120117
3245875,0.4245692789554596,2.915961980819702,0.41706791520118713,2.699388265609741,-7.931695938110352,-46.51369094848633
3245912,0.3785090148448944,2.7767207622528076,0.4408486783504486,2.38761568069458,-8.772101402282715,-43.12202072143555
3245952,0.33329248428344727,2.6785902976989746,0.4480537474155426,2.272953748703003,-9.501832962036133,-39.65191650390625
3245992,0.2920752465724945,2.5859835147857666,0.4527956545352936,2.1049087047576904,-9.964178085327148,-36.0828971862793
3246032,0.2555025815963745,2.430377960205078,0.48155540227890015,2.136333703994751,-10.502760887145996,-32.33905029296875
3246072,0.22371700406074524,2.3180339336395264,0.494401216506958,1.747053861618042,-10.576407432556152,-28.784887313842773
3246112,0.1954747438430786,2.1407294273376465,0.5340108275413513,2.6398122310638428,-11.00253677368164,-24.741559982299805
3246152,0.16825458407402039,2.0286688804626465,0.5495092868804932,2.5963704586029053,-11.23461627960205,-21.68961524963379
3246192,0.14634676277637482,1.906137228012085,0.5729641914367676,1.9714343547821045,-11.359884262084961,-18.929424285888672
3246232,0.13227581977844238,1.7136690616607666,0.6297982931137085,1.8685948848724365,-11.312406539916992,-15.545914649963379
3246272,0.12113816291093826,1.5660680532455444,0.6706562638282776,2.2313735485076904,-11.419102668762207,-12.461709022521973
3246312,0.11559467762708664,1.3641891479492188,0.7418709993362427,1.9526493549346924,-11.212950706481934,-9.840850830078125
3246352,0.108668752014637,1.2185640335083008,0.7874173521995544,1.7653212547302246,-11.032328605651855,-7.1996660232543945
3246392,0.1089792251586914,1.0204741954803467,0.8625860214233398,1.7406007051467896,-10.869382858276367,-4.480525493621826
3246432,0.1082194522023201,0.8822994828224182,0.9103511571884155,1.5194544792175293,-10.499218940734863,-2.4113895893096924
3246472,0.11077947169542313,0.7501991391181946,0.9579975605010986,1.4473124742507935,-10.437397003173828,-0.2594086825847626
3246512,0.11871606856584549,0.5986002683639526,1.0177301168441772,1.716631293296814,-10.202445983886719,2.3373889923095703
3246552,0.12313921749591827,0.5039504170417786,1.0492453575134277,2.003821611404419,-9.971543312072754,4.984326362609863
3246593,0.1264134794473648,0.41954758763313293,1.0755383968353271,1.834883213043213,-9.773694038391113,6.970152854919434
3246632,0.12940269708633423,0.33941227197647095,1.101477026939392,1.3915824890136719,-9.255218505859375,8.6929349899292
3246672,0.1310945600271225,0.2816449999809265,1.1139194965362549,0.8846716284751892,-8.74079704284668,10.208478927612305
3246712,0.13240839540958405,0.2321770191192627,1.120300531387329,0.8462047576904297,-8.335954666137695,11.940483093261719
3246752,0.13256078958511353,0.19805771112442017,1.1177951097488403,0.6501713395118713,-7.9059553146362305,13.23570728302002
3246792,0.1329272985458374,0.1607893407344818,1.1140111684799194,0.2895703613758087,-7.483307838439941,14.136800765991211
3246832,0.13111625611782074,0.13579335808753967,1.103663682937622,0.5959376096725464,-7.637167930603027,15.131153106689453
3246872,0.12909431755542755,0.11001543700695038,1.092144250869751,0.283651202917099,-7.776432991027832,15.718079566955566
3246912,0.1255897730588913,0.095339335501194,1.0730929374694824,-0.002092507667839527,-7.974867820739746,16.082843780517578
3246952,0.12263499945402145,0.08271123468875885,1.0512936115264893,0.01729891076683998,-7.805004596710205,16.61696434020996
3246993,0.11901858448982239,0.061093613505363464,1.0321239233016968,0.6400874257087708,-7.909045219421387,17.453691482543945
3247032,0.11288896203041077,0.05269943177700043,1.0076954364776611,-0.018316000699996948,-7.919164180755615,17.53020477294922
3247072,0.10853797197341919,0.035528991371393204,0.984991192817688,-1.474550724029541,-6.98661994934082,17.310190200805664
3247112,0.10422389954328537,0.028385302051901817,0.9508731365203857,-1.737999439239502,-6.328129291534424,17.638219833374023
3247152,0.10094084590673447,0.02624579519033432,0.9105637073516846,-1.7278422117233276,-5.71226167678833,17.9818058013916
3247192,0.10028474777936935,0.008971843868494034,0.8731313943862915,-1.945760726928711,-5.059992790222168,18.01202964782715
3247232,0.09835746139287949,0.01029183343052864,0.8193439841270447,-1.4016345739364624,-4.986394882202148,18.478357315063477
3247272,0.09826312214136124,0.005694399122148752,0.7673097848892212,-1.1473774909973145,-4.508291244506836,18.114154815673828
3247312,0.09844230860471725,0.009985345415771008,0.7055232524871826,-1.5508452653884888,-4.015196323394775,17.838119506835938
3247352,0.09945768117904663,0.019585462287068367,0.6406221389770508,-1.4415571689605713,-3.2938549518585205,18.093189239501953
3247393,0.10295210778713226,0.013735880143940449,0.5994056463241577,-1.2526061534881592,-2.2854487895965576,18.040626525878906
3247432,0.10854130983352661,0.01216892059892416,0.5278926491737366,-0.3306613564491272,-1.4613940715789795,18.778051376342773
3247472,0.11345545202493668,0.008754766546189785,0.4743685722351074,-0.16403818130493164,-0.5308836698532104,19.420978546142578
3247512,0.11781477183103561,0.00934300571680069,0.41933178901672363,0.7394407391548157,0.025122934952378273,20.33721923828125
3247552,0.12137338519096375,0.01078232005238533,0.3690592646598816,1.2521913051605225,0.008871452882885933,21.033227920532227
3247593,0.12422076612710953,0.006918518338352442,0.3348545432090759,1.9365062713623047,0.8849313855171204,21.16755485534668
3247632,0.12670378386974335,0.00593602703884244,0.28115779161453247,2.3511741161346436,1.692467212677002,20.99964714050293
3247672,0.12860706448554993,0.0033960286527872086,0.24341167509555817,2.7067477703094482,1.9198886156082153,21.4343204498291
3247712,0.13020338118076324,0.003478880040347576,0.20535220205783844,3.451791524887085,2.80403208732605,21.97337532043457
3247752,0.1305861622095108,0.004459460265934467,0.17394132912158966,3.571375846862793,2.752479076385498,22.076587677001953
3247793,0.13088376820087433,0.004146513994783163,0.15045388042926788,3.9625468254089355,3.2157974243164062,21.601970672607422
3247832,0.1327514797449112,0.00371817359700799,0.12576453387737274,5.514005661010742,2.4355688095092773,22.86652946472168
3247872,0.13456889986991882,0.0031775417737662792,0.10627481341362,6.768130779266357,1.4817551374435425,24.12229347229004
3247912,0.1357317417860031,0.007110904902219772,0.08627502620220184,5.764981746673584,3.0258736610412598,24.05160903930664
3247952,0.13882100582122803,0.012998508289456367,0.07389303296804428,-1.1063987016677856,0.20891347527503967,21.96862030029297
3247994,0.13959847390651703,0.017482692375779152,0.07223845273256302,-1.1742225885391235,-0.5594049096107483,21.92502784729004
3248032,0.13843876123428345,0.020892074331641197,0.06674914807081223,-0.9158980250358582,-0.0017410755390301347,21.98714828491211
3248072,0.13811923563480377,0.02181631699204445,0.06521013379096985,-0.8234093189239502,0.029570981860160828,21.982872009277344
3248112,0.1378076672554016,0.023706898093223572,0.061379574239254,-0.7529532313346863,0.028566481545567513,21.92272186279297
3248152,0.13750751316547394,0.025379063561558723,0.05868063122034073,-0.756801426410675,0.0028968232218176126,21.912508010864258
3248194,0.13719286024570465,0.0274581890553236,0.055524665862321854,-0.7670145034790039,-0.020934825763106346,21.910205841064453
3248232,0.13685552775859833,0.031100815162062645,0.05068175494670868,-0.7924589514732361,-0.05947064235806465,21.8662109375
3248272,0.1365806758403778,0.033331312239170074,0.04788130521774292,-0.8158857822418213,-0.09178560227155685,21.8702449798584
3248312,0.13624055683612823,0.03651305288076401,0.04361855238676071,-0.8311746120452881,-0.13143795728683472,21.84319305419922
3248352,0.13612721860408783,0.03839677944779396,0.04122168570756912,-0.8393922448158264,-0.1714501678943634,21.8525447845459
3248394,0.13587069511413574,0.04023665189743042,0.038791071623563766,-0.8494356274604797,-0.186233252286911,21.876102447509766
3248432,0.13560844957828522,0.0425502248108387,0.03550009801983833,-0.8532472252845764,-0.2069634050130844,21.851266860961914
3248472,0.13532328605651855,0.04454249516129494,0.032766759395599365,-0.8607628345489502,-0.21769484877586365,21.8642520904541
3248512,0.13518594205379486,0.04678264260292053,0.02967788837850094,-0.8634698987007141,-0.24611082673072815,21.834064483642578
3248552,0.13502946496009827,0.04847993701696396,0.02743600681424141,-0.8726916909217834,-0.25680017471313477,21.844343185424805
3248594,0.13478225469589233,0.0500698983669281,0.025397391989827156,-0.884262204170227,-0.2608364224433899,21.857437133789062
3248632,0.1345767229795456,0.0516027957201004,0.023288913071155548,-0.8849453926086426,-0.2729339301586151,21.846139907836914
3248672,0.1343519538640976,0.05288736894726753,0.02147752232849598,-0.8922392725944519,-0.2843570113182068,21.861757278442383
3248712,0.13417010009288788,0.05445001274347305,0.019530078396201134,-0.8991063237190247,-0.30486223101615906,21.848155975341797
3248752,0.13399940729141235,0.055772483348846436,0.01779153011739254,-0.8992123007774353,-0.32042941451072693,21.86710548400879
3248795,0.13390640914440155,0.05672989785671234,0.016534902155399323,-0.897304117679596,-0.33950474858283997,21.893341064453125
3248832,0.13386580348014832,0.057692207396030426,0.015137694776058197,-0.890312135219574,-0.3590955138206482,21.876047134399414
3248872,0.1337372362613678,0.0586957149207592,0.014003949239850044,-0.8979471921920776,-0.3650297522544861,21.896507263183594
3248912,0.13375236093997955,0.058869313448667526,0.013632204383611679,-0.8863328099250793,-0.3704754710197449,21.85228157043457
3248952,0.13354690372943878,0.05997868627309799,0.01192503422498703,-0.8814499974250793,-0.37069812417030334,21.89751434326172
3248992,0.13346001505851746,0.0605635792016983,0.011156297288835049,-0.8840547204017639,-0.3793407380580902,21.888309478759766
3249032,0.13343019783496857,0.06120867282152176,0.010481852106750011,-0.8884039521217346,-0.39607498049736023,21.878746032714844
3249072,0.13333237171173096,0.06184595078229904,0.009610539302229881,-0.8848121166229248,-0.404041051864624,21.904760360717773
3249112,0.13332779705524445,0.06238885968923569,0.009093199856579304,-0.8863162994384766,-0.41995593905448914,21.9246826171875
3249152,0.13325490057468414,0.0628017708659172,0.008649050258100033,-0.8818172216415405,-0.42233821749687195,21.920522689819336
3249195,0.1333450973033905,0.06242645904421806,0.008772138506174088,-0.8546271324157715,-0.4219503402709961,21.909364700317383
3249232,0.13324770331382751,0.06301587074995041,0.00799079891294241,-0.8602309823036194,-0.42231741547584534,21.92583465576172
3249272,0.13320116698741913,0.06356602162122726,0.007276574149727821,-0.8580042719841003,-0.43084800243377686,21.942834854125977
3249312,0.13321559131145477,0.06344811618328094,0.007082793395966291,-0.8462021350860596,-0.4273512661457062,21.9632568359375
3249352,0.1331520974636078,0.06402480602264404,0.0065561942756175995,-0.8609446883201599,-0.4320269525051117,21.93573570251465
3249392,0.1331005096435547,0.06449019908905029,0.006023193709552288,-0.8605061173439026,-0.4414011240005493,21.957494735717773
3249432,0.13310274481773376,0.06415876746177673,0.0064516207203269005,-0.8542602062225342,-0.44085606932640076,21.940921783447266
3249472,0.1330970674753189,0.06423541158437729,0.006399236619472504,-0.858066737651825,-0.4432702660560608,21.966306686401367
3249512,0.13302971422672272,0.06447064876556396,0.006087330169975758,-0.8611810803413391,-0.4424040913581848,21.98431968688965
3249552,0.13310037553310394,0.06423836201429367,0.006568114273250103,-0.8621017932891846,-0.4522903561592102,21.96819496154785
3249592,0.1330261528491974,0.06445064395666122,0.006351145915687084,-0.8612483143806458,-0.446537047624588,21.984712600708008
3249632,0.13316957652568817,0.06403980404138565,0.006564362905919552,-0.8446367979049683,-0.45269766449928284,21.959993362426758
3249672,0.13315726816654205,0.06449282914400101,0.006152172572910786,-0.8548202514648438,-0.4609891176223755,21.979446411132812
3249712,0.13306216895580292,0.06445536017417908,0.006193212233483791,-0.8565587997436523,-0.4482041001319885,21.998958587646484
3249752,0.13315685093402863,0.06416667997837067,0.006296537816524506,-0.8431308269500732,-0.4570496678352356,21.97488784790039
3249792,0.13308273255825043,0.06426543742418289,0.006160342134535313,-0.8444746732711792,-0.45405805110931396,21.987211227416992
