Timestamp,stateEstimate.x,stateEstimate.y,stateEstimate.z,stateEstimate.roll,stateEstimate.pitch,stateEstimate.yaw
3204512,0.1831047087907791,0.03487318754196167,0.021509207785129547,-0.9371311664581299,-0.04620860889554024,3.483750820159912
3204552,0.1831803172826767,0.03496949374675751,0.02144099399447441,-0.9419335126876831,-0.05277011916041374,3.4862494468688965
3204592,0.18308240175247192,0.035098351538181305,0.021362299099564552,-0.9435739517211914,-0.04451315104961395,3.4758548736572266
3204632,0.18317562341690063,0.03490101918578148,0.021455315873026848,-0.9350491166114807,-0.05039049685001373,3.481254816055298
3204672,0.18312571942806244,0.035441454499959946,0.02111968956887722,-0.953840434551239,-0.04234104976058006,3.4766979217529297
3204712,0.183150053024292,0.03548787906765938,0.021146757528185844,-0.9519557356834412,-0.039850231260061264,3.479102373123169
3204752,0.1831129491329193,0.03544846549630165,0.0211399607360363,-0.9481759667396545,-0.03843791037797928,3.4759202003479004
3204795,0.18310800194740295,0.03526873514056206,0.02125389128923416,-0.943540096282959,-0.03590625151991844,3.471585273742676
3204832,0.18309934437274933,0.03496050462126732,0.021473830565810204,-0.9401638507843018,-0.037324536591768265,3.4867777824401855
3204872,0.18309372663497925,0.03516126051545143,0.02119370363652706,-0.9486858248710632,-0.04471658542752266,3.4852046966552734
3204912,0.18319310247898102,0.03499547764658928,0.0213813167065382,-0.9512037038803101,-0.047400347888469696,3.4789249897003174
3204952,0.18307553231716156,0.03512664884328842,0.02118753083050251,-0.9480279684066772,-0.046798307448625565,3.464261770248413
3204994,0.18313902616500854,0.035153742879629135,0.02122810296714306,-0.9523704648017883,-0.06045917049050331,3.4644274711608887
3205032,0.18316559493541718,0.03494489938020706,0.021369654685258865,-0.9409493207931519,-0.06293089687824249,3.4728848934173584
3205072,0.18312686681747437,0.03510262444615364,0.021230217069387436,-0.942967414855957,-0.05575671046972275,3.4656851291656494
3205112,0.1832030713558197,0.035202886909246445,0.021185114979743958,-0.9533515572547913,-0.061294302344322205,3.470646381378174
3205152,0.1831800788640976,0.035121530294418335,0.021267937496304512,-0.9456533789634705,-0.05715610831975937,3.4809460639953613
3205195,0.18309836089611053,0.03514845296740532,0.02127942256629467,-0.9531880617141724,-0.05164135992527008,3.46958327293396
3205232,0.18316872417926788,0.03516039997339249,0.021354565396904945,-0.9556288719177246,-0.056395236402750015,3.474839210510254
3205272,0.1831386536359787,0.03499877452850342,0.021378811448812485,-0.9455205202102661,-0.04876655712723732,3.4625580310821533
3205312,0.1831112951040268,0.03498300164937973,0.021329624578356743,-0.9511339068412781,-0.04246817156672478,3.4566590785980225
3205352,0.18313579261302948,0.03514452651143074,0.021281080320477486,-0.9533047080039978,-0.041629690676927567,3.4530394077301025
3205395,0.18319493532180786,0.03490038216114044,0.02162942662835121,-0.9501710534095764,-0.041192665696144104,3.4569621086120605
3205432,0.18314188718795776,0.03488750010728836,0.02145589515566826,-0.9443760514259338,-0.03744802251458168,3.461761474609375
3205472,0.18306021392345428,0.03535947576165199,0.021022483706474304,-0.9592210650444031,-0.03577795624732971,3.4625422954559326
3205512,0.1831376850605011,0.03511403128504753,0.02133687026798725,-0.9578116536140442,-0.039845529943704605,3.4762320518493652
3205552,0.18313923478126526,0.035048630088567734,0.0214456208050251,-0.9574533104896545,-0.040177155286073685,3.483311176300049
3205592,0.1831088811159134,0.035011328756809235,0.021465735509991646,-0.9557710289955139,-0.037925925105810165,3.4867773056030273
3205632,0.18310843408107758,0.035017695277929306,0.021543074399232864,-0.9571606516838074,-0.04251367226243019,3.499431848526001
3205672,0.18303540349006653,0.03498886153101921,0.02150515839457512,-0.9535389542579651,-0.0424116775393486,3.494701862335205
3205712,0.18312975764274597,0.034836187958717346,0.02160908281803131,-0.9530574083328247,-0.04353805631399155,3.5008676052093506
3205752,0.1831328272819519,0.0347156785428524,0.021741582080721855,-0.9500730633735657,-0.039817098528146744,3.4896531105041504
3205792,0.1831168532371521,0.034838151186704636,0.021758252754807472,-0.9610427618026733,-0.03926467522978783,3.48468017578125
3205832,0.18322794139385223,0.03454381972551346,0.022107627242803574,-0.9621906876564026,-0.055065855383872986,3.4789278507232666
3205872,0.18327532708644867,0.034345149993896484,0.022482996806502342,-0.9656180739402771,-0.06228920817375183,3.4737656116485596
3205913,0.18324506282806396,0.034070756286382675,0.022874323651194572,-0.9623182415962219,-0.058190979063510895,3.487837076187134
3205952,0.18323443830013275,0.034109413623809814,0.022925565019249916,-0.9624413847923279,-0.05094796419143677,3.4772963523864746
3205992,0.18321292102336884,0.03378508239984512,0.023118549957871437,-0.9469033479690552,-0.04587690159678459,3.4675676822662354
3206032,0.18302656710147858,0.0341234914958477,0.02281446009874344,-1.0526652336120605,-0.087303526699543,3.684082269668579
3206072,0.1833820790052414,0.033789437264204025,0.023012684658169746,-1.2288776636123657,-0.2168419063091278,3.5162277221679688
3206112,0.1834976077079773,0.033850133419036865,0.023028317838907242,-1.449272632598877,-0.307707816362381,3.4542837142944336
3206152,0.18344256281852722,0.03403637930750847,0.023119153454899788,-1.7314488887786865,-0.5307709574699402,3.5041234493255615
3206192,0.18301817774772644,0.03337967023253441,0.023600516840815544,-1.6419410705566406,-0.3523804545402527,3.629102945327759
3206232,0.182322159409523,0.03269338235259056,0.024837875738739967,-1.2322497367858887,0.6716384291648865,3.908851385116577
3206272,0.18113695085048676,0.0328514389693737,0.02817756123840809,-1.9639866352081299,2.589266061782837,4.6887526512146
3206313,0.17948172986507416,0.033839672803878784,0.03874601051211357,-1.95229971408844,2.061133623123169,4.7873077392578125
3206352,0.17766930162906647,0.03527054563164711,0.048300664871931076,-2.1056063175201416,1.9491194486618042,3.5566399097442627
3206392,0.17798741161823273,0.03786364197731018,0.06548459082841873,-2.672605276107788,1.8201320171356201,3.9195520877838135
3206432,0.18053904175758362,0.04335406795144081,0.0831385999917984,-2.2089169025421143,2.1620936393737793,5.168004989624023
3206472,0.18325263261795044,0.0515776202082634,0.10497751832008362,-2.602411985397339,2.864095449447632,5.732738494873047
3206513,0.18457090854644775,0.06548969447612762,0.1247154101729393,-2.6290884017944336,3.489037036895752,6.041638374328613
3206552,0.18677793443202972,0.07996146380901337,0.148106187582016,-2.5760867595672607,5.229001522064209,5.788125991821289
3206592,0.18972563743591309,0.09201545268297195,0.17706260085105896,-1.2881386280059814,6.357905387878418,7.220843315124512
3206632,0.1883852183818817,0.10642708837985992,0.20719073712825775,-1.7269049882888794,6.227303504943848,6.642534255981445
3206672,0.1856308877468109,0.12177880108356476,0.23719367384910583,-0.97904372215271,6.806827068328857,5.982761383056641
3206713,0.18276061117649078,0.1369684338569641,0.2716667950153351,-0.023917710408568382,6.37053108215332,6.906616687774658
3206752,0.17619355022907257,0.15651434659957886,0.29790613055229187,0.3503718078136444,6.699104309082031,5.79176139831543
3206792,0.16693215072155,0.1770515739917755,0.32288816571235657,0.800555944442749,7.003077983856201,4.761412620544434
3206832,0.1550120860338211,0.19725124537944794,0.3538055717945099,0.9415026903152466,7.537579536437988,3.647759199142456
3206872,0.1409110575914383,0.2141687422990799,0.39271414279937744,0.6287794709205627,7.338162899017334,2.4970996379852295
3206914,0.12447050213813782,0.2366175353527069,0.42470940947532654,1.1897438764572144,7.301539897918701,0.9354630708694458
3206952,0.10577221214771271,0.2622183859348297,0.45291805267333984,1.694728136062622,6.97279691696167,-0.11350084841251373
3206992,0.08485019207000732,0.29408690333366394,0.4744073152542114,2.142273187637329,6.56355619430542,-1.8630471229553223
3207032,0.06265930086374283,0.3207549750804901,0.5036345720291138,2.010502338409424,5.783236980438232,-3.1154065132141113
3207072,0.039147622883319855,0.34407177567481995,0.5368240475654602,2.062824010848999,5.619715213775635,-4.621166229248047
3207114,0.014529393054544926,0.3721720576286316,0.5629152059555054,2.12625789642334,5.207813739776611,-6.287525653839111
3207152,-0.010081912390887737,0.39870214462280273,0.5887687802314758,2.5128567218780518,5.54680871963501,-7.000927448272705
3207192,-0.034274205565452576,0.427985280752182,0.6107345819473267,2.8937437534332275,5.84119176864624,-7.864545822143555
3207232,-0.058038633316755295,0.45374494791030884,0.6382458806037903,3.180403232574463,5.577263832092285,-8.43681526184082
3207272,-0.08136390894651413,0.4763961434364319,0.6667796969413757,4.176121234893799,5.969247817993164,-7.952664375305176
3207314,-0.10608135908842087,0.5012063980102539,0.6940985321998596,4.70491886138916,5.437931060791016,-8.37642765045166
3207352,-0.13021506369113922,0.5264382362365723,0.7177639007568359,5.240862846374512,5.358331203460693,-8.876978874206543
3207392,-0.15460939705371857,0.5515053272247314,0.7405257821083069,5.321683406829834,4.564935684204102,-9.980026245117188
3207432,-0.1800786405801773,0.5691186189651489,0.7728642821311951,5.457319259643555,4.200235843658447,-10.9944429397583
3207472,-0.20317642390727997,0.5893779397010803,0.792900800704956,5.855620861053467,3.447286367416382,-11.587812423706055
3207514,-0.22767308354377747,0.6071259379386902,0.8157187104225159,5.139132976531982,3.7458107471466064,-12.790024757385254
3207552,-0.251230388879776,0.6230494976043701,0.8367209434509277,5.223938465118408,2.534780502319336,-13.606220245361328
3207592,-0.26808831095695496,0.6325666308403015,0.8508481979370117,5.543248653411865,2.1717164516448975,-13.694278717041016
3207632,-0.28819137811660767,0.640796422958374,0.8680329918861389,5.471312046051025,0.9828508496284485,-13.808438301086426
3207672,-0.3093547821044922,0.6501137018203735,0.8837268948554993,5.163263320922852,-0.06348937004804611,-14.008950233459473
3207712,-0.3301942050457001,0.6568632125854492,0.8964074850082397,5.540794372558594,-0.8647706508636475,-13.75275707244873
3207752,-0.3504130244255066,0.6646456122398376,0.9066303968429565,4.923689842224121,-1.8256757259368896,-14.30596923828125
3207792,-0.3705340623855591,0.6697949171066284,0.9165316224098206,5.159251689910889,-2.5254788398742676,-14.900633811950684
3207832,-0.3899604082107544,0.6742924451828003,0.9254758954048157,5.7073211669921875,-3.428426742553711,-14.796859741210938
3207872,-0.4102749824523926,0.6780601739883423,0.9386224746704102,5.363335609436035,-3.832702398300171,-15.57972240447998
3207912,-0.42939549684524536,0.6798457503318787,0.9551328420639038,5.171741962432861,-4.719424247741699,-16.299636840820312
3207952,-0.44754689931869507,0.6839950084686279,0.9677631855010986,5.693056583404541,-5.066121578216553,-16.376605987548828
3207992,-0.46617060899734497,0.6876264810562134,0.9821100234985352,6.002706527709961,-6.09099006652832,-16.81679916381836
3208032,-0.4856533110141754,0.691298246383667,0.9944905042648315,5.3119587898254395,-6.735920429229736,-17.555654525756836
3208072,-0.5046355128288269,0.690521240234375,1.0056431293487549,5.037683963775635,-7.112796783447266,-17.450101852416992
3208112,-0.5250865817070007,0.6899425387382507,1.0144855976104736,5.373754024505615,-7.23739767074585,-17.654294967651367
3208152,-0.5455200672149658,0.6908584833145142,1.0213912725448608,4.675557613372803,-7.580830097198486,-18.252893447875977
3208192,-0.56642085313797,0.6902027130126953,1.0281474590301514,3.9356136322021484,-7.8320417404174805,-18.921428680419922
3208232,-0.5872905850410461,0.6904193162918091,1.0328326225280762,4.039316177368164,-8.177177429199219,-19.16201400756836
3208272,-0.6081965565681458,0.6877586245536804,1.0382879972457886,3.730494976043701,-8.395073890686035,-19.7215633392334
3208312,-0.6290139555931091,0.6820874810218811,1.0431188344955444,4.151821136474609,-8.170662879943848,-19.413053512573242
3208352,-0.6500471234321594,0.6771579384803772,1.0472056865692139,3.9677586555480957,-8.6790132522583,-19.402652740478516
3208392,-0.6710366606712341,0.6698544025421143,1.0496766567230225,4.21613883972168,-8.347732543945312,-19.0504207611084
3208433,-0.6932470202445984,0.6643234491348267,1.0498822927474976,4.01150369644165,-8.180604934692383,-18.630298614501953
3208472,-0.7161345481872559,0.6542508006095886,1.0502668619155884,3.937278985977173,-8.10129451751709,-17.600780487060547
3208512,-0.7372386455535889,0.6372126340866089,1.0534136295318604,4.094318866729736,-7.868805885314941,-16.54113006591797
3208552,-0.7606123089790344,0.6210711002349854,1.0577398538589478,3.514352321624756,-8.288171768188477,-16.372615814208984
3208592,-0.7815290093421936,0.602787435054779,1.0622198581695557,2.7433083057403564,-8.725495338439941,-16.022104263305664
3208632,-0.8019062280654907,0.5881013870239258,1.0615671873092651,3.203885793685913,-8.778908729553223,-15.08377742767334
3208672,-0.8216778635978699,0.574474036693573,1.0604243278503418,3.2754616737365723,-8.840181350708008,-14.397324562072754
3208712,-0.8400363326072693,0.5611655116081238,1.0592073202133179,3.473745346069336,-8.943052291870117,-13.284171104431152
3208752,-0.8571632504463196,0.5451498031616211,1.0596823692321777,3.7271597385406494,-9.328777313232422,-12.652762413024902
3208792,-0.8719162940979004,0.5277571678161621,1.0604649782180786,3.6014790534973145,-9.655906677246094,-12.190682411193848
3208833,-0.8839364051818848,0.5094478726387024,1.0604277849197388,3.448824405670166,-9.798818588256836,-11.562858581542969
3208872,-0.8933848142623901,0.4885668456554413,1.0605006217956543,3.338578701019287,-9.988178253173828,-10.896441459655762
3208912,-0.9020239114761353,0.46968215703964233,1.0581084489822388,3.9912285804748535,-10.097758293151855,-9.384806632995605
3208952,-0.9100262522697449,0.4502323865890503,1.0568749904632568,4.094120025634766,-10.329577445983887,-8.794881820678711
3208992,-0.9169362187385559,0.43034684658050537,1.0559747219085693,3.962158441543579,-10.600969314575195,-8.361214637756348
3209033,-0.9208941459655762,0.408667653799057,1.0559462308883667,3.410355567932129,-11.107087135314941,-7.934293746948242
3209072,-0.9230017066001892,0.3838917911052704,1.0554910898208618,3.776615858078003,-11.303679466247559,-6.98521614074707
3209112,-0.9254582524299622,0.3626183271408081,1.054390788078308,3.686289072036743,-11.589516639709473,-5.959081649780273
3209152,-0.9268336892127991,0.33877962827682495,1.0549046993255615,4.513031482696533,-11.64590072631836,-4.892271041870117
3209192,-0.9285380244255066,0.31427180767059326,1.0578844547271729,3.692756175994873,-12.12521743774414,-4.51985502243042
3209233,-0.9296703338623047,0.29320529103279114,1.05988347530365,3.3704841136932373,-12.19239616394043,-4.083905220031738
3209272,-0.9310894012451172,0.2620472311973572,1.0602154731750488,3.3595547676086426,-12.54336166381836,-2.919157028198242
3209312,-0.9314746260643005,0.23624181747436523,1.059575080871582,3.3888356685638428,-12.433656692504883,-2.0976216793060303
3209352,-0.9320226311683655,0.2104160338640213,1.0593100786209106,3.4798548221588135,-12.422307968139648,-1.051741123199463
3209392,-0.935407817363739,0.18862250447273254,1.057857871055603,3.1025516986846924,-12.524365425109863,-0.4648439586162567
3209434,-0.9372538924217224,0.16147473454475403,1.0573203563690186,3.4766035079956055,-12.534589767456055,0.4671194851398468
3209472,-0.940721333026886,0.1356438398361206,1.0558041334152222,4.018413543701172,-12.541777610778809,1.5071824789047241
3209512,-0.9470495581626892,0.11115030944347382,1.0542690753936768,3.819956064224243,-12.674212455749512,1.7269561290740967
3209552,-0.9494752883911133,0.09147762507200241,1.0537259578704834,3.913679838180542,-13.01149845123291,2.521165132522583
3209592,-0.9541670680046082,0.06876267492771149,1.0512114763259888,3.9058849811553955,-13.242372512817383,3.462289571762085
3209634,-0.9562577605247498,0.04103238880634308,1.051202654838562,3.413116216659546,-13.484712600708008,3.8573670387268066
3209672,-0.9591177105903625,0.015391499735414982,1.050132155418396,3.1414010524749756,-13.218809127807617,3.8769376277923584
3209712,-0.9612562656402588,-0.01093626581132412,1.0497738122940063,3.276951789855957,-13.192251205444336,4.901001453399658
3209752,-0.9623181223869324,-0.03771210461854935,1.0517719984054565,3.143113613128662,-13.330009460449219,5.625093936920166
3209792,-0.9621418714523315,-0.06288467347621918,1.0542150735855103,2.6171672344207764,-14.072970390319824,6.794467449188232
3209834,-0.9608974456787109,-0.08942154049873352,1.0568406581878662,2.652937650680542,-14.14647102355957,7.690251350402832
3209872,-0.9588097333908081,-0.1147952526807785,1.0602014064788818,2.3202731609344482,-14.567826271057129,8.209593772888184
3209912,-0.9560951590538025,-0.14083079993724823,1.0621404647827148,2.531416416168213,-14.718439102172852,8.909765243530273
3209952,-0.9518783688545227,-0.16536282002925873,1.063783884048462,2.9808616638183594,-15.010507583618164,9.691366195678711
3209992,-0.9478743672370911,-0.1890811026096344,1.064544916152954,2.8519515991210938,-15.316900253295898,10.106511116027832
3210033,-0.943420946598053,-0.2102668136358261,1.0636318922042847,2.7809808254241943,-15.25783920288086,10.417787551879883
3210072,-0.9359728097915649,-0.23418191075325012,1.063122034072876,2.8292737007141113,-15.242493629455566,10.75786018371582
3210112,-0.9269742369651794,-0.2585512101650238,1.0615428686141968,3.0055205821990967,-15.406562805175781,10.945244789123535
3210152,-0.9165371656417847,-0.2823435366153717,1.058565378189087,3.904973030090332,-15.119826316833496,11.483458518981934
3210192,-0.9079802632331848,-0.3030336797237396,1.0552012920379639,3.46645188331604,-15.117888450622559,11.2245512008667
3210234,-0.8961654901504517,-0.3255854845046997,1.0541353225708008,3.267590045928955,-15.23095703125,11.023625373840332
3210272,-0.8867453336715698,-0.3447903096675873,1.0501337051391602,3.8059825897216797,-14.91630744934082,10.801339149475098
3210312,-0.8754706978797913,-0.36699989438056946,1.0497890710830688,3.530503988265991,-15.536458015441895,10.249402046203613
3210352,-0.8634147644042969,-0.391401469707489,1.0511218309402466,4.489487648010254,-15.235453605651855,10.001928329467773
3210392,-0.8546645641326904,-0.41431117057800293,1.052024006843567,4.719059944152832,-15.00925064086914,8.91319465637207
3210434,-0.8418343663215637,-0.4453442394733429,1.0556501150131226,4.8373918533325195,-15.529711723327637,8.96564769744873
3210472,-0.8344647288322449,-0.46269112825393677,1.0573045015335083,4.632046699523926,-15.578289031982422,8.350921630859375
3210512,-0.8182222247123718,-0.49276667833328247,1.0617179870605469,3.8440260887145996,-15.805835723876953,8.678875923156738
3210552,-0.8004573583602905,-0.5217185616493225,1.0647832155227661,3.6261847019195557,-15.824862480163574,9.047802925109863
3210592,-0.7826917767524719,-0.549262285232544,1.0652915239334106,3.093363046646118,-15.358132362365723,9.61381721496582
3210634,-0.7669061422348022,-0.5721288323402405,1.0635440349578857,2.931494951248169,-15.492966651916504,11.123627662658691
3210672,-0.7469276785850525,-0.5979005694389343,1.0666368007659912,2.7259106636047363,-15.975678443908691,12.094063758850098
3210712,-0.72782301902771,-0.6218788623809814,1.068818211555481,2.3744659423828125,-15.58560848236084,13.271759033203125
3210752,-0.7081074714660645,-0.6443996429443359,1.0731629133224487,2.124622106552124,-15.842588424682617,14.636092185974121
3210792,-0.6906168460845947,-0.6638103127479553,1.0763972997665405,2.7162797451019287,-16.070783615112305,16.454500198364258
3210832,-0.6757453083992004,-0.6800888180732727,1.0803146362304688,2.985999822616577,-16.16144561767578,17.40187644958496
3210872,-0.6591280698776245,-0.6970717310905457,1.087164282798767,2.3872568607330322,-16.74691390991211,18.330358505249023
3210912,-0.6433572769165039,-0.7121548056602478,1.0923255681991577,2.8351430892944336,-16.81586265563965,19.368894577026367
3210952,-0.6261329054832458,-0.7266613841056824,1.0986945629119873,2.6677074432373047,-17.155887603759766,20.11327362060547
3210992,-0.6103850603103638,-0.7396627068519592,1.1030958890914917,3.082883834838867,-17.284198760986328,21.105304718017578
3211034,-0.5963805317878723,-0.7524355053901672,1.10732102394104,4.0778021812438965,-17.426918029785156,22.157211303710938
3211072,-0.5808460712432861,-0.7681085467338562,1.113343358039856,5.29278564453125,-17.984119415283203,23.743566513061523
3211112,-0.5661121010780334,-0.7842646837234497,1.1188006401062012,5.31718635559082,-17.910709381103516,24.158451080322266
3211152,-0.5490795373916626,-0.8007750511169434,1.1233067512512207,4.254533767700195,-18.018901824951172,24.267353057861328
3211192,-0.5260135531425476,-0.8200466632843018,1.1276789903640747,3.2910921573638916,-18.265483856201172,25.52227783203125
3211232,-0.5081502795219421,-0.8355050683021545,1.1260722875595093,4.0821075439453125,-18.303016662597656,27.16509437561035
3211272,-0.48966342210769653,-0.8538715243339539,1.129025936126709,3.326772689819336,-18.774169921875,27.65165138244629
3211312,-0.4723203182220459,-0.8725032806396484,1.1298860311508179,2.7943272590637207,-19.45137596130371,28.65414047241211
3211352,-0.4572921097278595,-0.8914902210235596,1.1285098791122437,3.221654176712036,-18.89177131652832,28.645082473754883
3211392,-0.44557154178619385,-0.9102038741111755,1.1248393058776855,2.6643548011779785,-18.645774841308594,28.369869232177734
3211432,-0.4367000162601471,-0.9270837306976318,1.11812424659729,3.211536169052124,-18.49725914001465,28.314247131347656
3211472,-0.42420682311058044,-0.9480299353599548,1.11455237865448,3.675882577896118,-18.062408447265625,27.78468132019043
3211512,-0.4090825021266937,-0.9703394770622253,1.112679362297058,3.7549147605895996,-18.067066192626953,27.85651969909668
3211552,-0.39256665110588074,-0.9913412928581238,1.109779953956604,3.9614391326904297,-17.232431411743164,27.889741897583008
3211592,-0.3723113238811493,-1.0117886066436768,1.1089040040969849,3.7065863609313965,-17.084409713745117,28.452314376831055
3211632,-0.35220298171043396,-1.028846263885498,1.1060364246368408,2.8879880905151367,-17.174474716186523,29.64671516418457
3211672,-0.3199867308139801,-1.0528994798660278,1.1116728782653809,3.634531259536743,-16.912307739257812,31.2769718170166
3211712,-0.29784470796585083,-1.0664983987808228,1.109719157218933,2.9618422985076904,-16.933990478515625,32.90419006347656
3211753,-0.2727075517177582,-1.0805879831314087,1.1126397848129272,2.36592960357666,-16.364816665649414,33.54374313354492
3211792,-0.2449963092803955,-1.0930287837982178,1.1154659986495972,2.4063494205474854,-16.310462951660156,35.27059555053711
3211832,-0.2188146859407425,-1.1018024682998657,1.1175906658172607,2.719700336456299,-16.120620727539062,36.80534362792969
3211872,-0.191257506608963,-1.1090093851089478,1.1217061281204224,2.660609722137451,-16.054994583129883,38.363407135009766
3211912,-0.16761063039302826,-1.1130008697509766,1.1226273775100708,2.4335055351257324,-15.690918922424316,39.300785064697266
3211953,-0.14546062052249908,-1.1168020963668823,1.1264091730117798,2.7336740493774414,-16.042011260986328,40.63905715942383
3211992,-0.1132381483912468,-1.1196489334106445,1.1270134449005127,3.060833215713501,-16.2486572265625,42.53936767578125
3212032,-0.08789592236280441,-1.1210658550262451,1.1268686056137085,3.597926616668701,-16.45452308654785,44.368873596191406
3212072,-0.06401999294757843,-1.1218910217285156,1.126883864402771,3.9324705600738525,-16.414043426513672,45.4572868347168
3212112,-0.04211064428091049,-1.122928261756897,1.1251119375228882,4.600072383880615,-15.858023643493652,46.722412109375
3212153,-0.01572304591536522,-1.1261709928512573,1.1286476850509644,4.644827842712402,-16.103574752807617,47.31568145751953
3212192,0.011362586170434952,-1.1276308298110962,1.129145622253418,4.71342134475708,-15.805693626403809,48.6988525390625
3212232,0.0397699773311615,-1.1276700496673584,1.1288676261901855,4.274423599243164,-15.145622253417969,50.17753982543945
3212272,0.0683613047003746,-1.126861810684204,1.12809419631958,4.205412864685059,-14.279806137084961,51.924800872802734
3212312,0.09417358040809631,-1.1254158020019531,1.1265661716461182,3.8745241165161133,-14.358246803283691,53.3464241027832
3212353,0.11893617361783981,-1.1258623600006104,1.1258641481399536,4.186776161193848,-12.78531551361084,54.87419891357422
3212392,0.139455646276474,-1.1268082857131958,1.1267904043197632,3.8314030170440674,-12.264126777648926,55.84425354003906
3212432,0.1659366935491562,-1.1275073289871216,1.1247870922088623,3.4342544078826904,-11.192617416381836,56.84553146362305
3212472,0.19400624930858612,-1.1286917924880981,1.12417733669281,3.7267332077026367,-10.303619384765625,59.55698013305664
3212512,0.22428500652313232,-1.1293567419052124,1.1241276264190674,3.7987704277038574,-10.061184883117676,61.811912536621094
3212554,0.2474983036518097,-1.1308594942092896,1.1268867254257202,3.3894941806793213,-9.88325309753418,62.97883605957031
3212592,0.2760836184024811,-1.1311386823654175,1.1285042762756348,3.159047842025757,-9.896613121032715,64.26311492919922
3212632,0.3065643906593323,-1.130784034729004,1.1290141344070435,3.0767083168029785,-9.789864540100098,65.27913665771484
3212672,0.33568647503852844,-1.1302902698516846,1.1298216581344604,3.493187665939331,-9.334312438964844,66.37898254394531
3212712,0.3668779134750366,-1.1284980773925781,1.1315404176712036,3.5467333793640137,-9.351302146911621,67.4099349975586
3212754,0.3917221426963806,-1.1267515420913696,1.1346162557601929,2.4730875492095947,-9.593781471252441,68.15909576416016
3212792,0.42226216197013855,-1.1245896816253662,1.1355539560317993,2.5672554969787598,-8.91812801361084,69.45909118652344
3212832,0.45422667264938354,-1.121285080909729,1.1363375186920166,2.5924019813537598,-8.650551795959473,70.61857604980469
3212872,0.4835660755634308,-1.1171647310256958,1.1392732858657837,0.9421381950378418,-8.130853652954102,71.78299713134766
3212912,0.5137379765510559,-1.1125229597091675,1.1421781778335571,-0.32084977626800537,-7.28208589553833,73.33290100097656
3212954,0.5364972352981567,-1.1070330142974854,1.1430270671844482,-0.325832724571228,-6.720430850982666,74.37860107421875
3212992,0.5636483430862427,-1.1006314754486084,1.145316243171692,-0.0718727558851242,-6.342310428619385,75.06749725341797
3213032,0.5892038345336914,-1.0962038040161133,1.1556870937347412,0.208454430103302,-6.937920570373535,75.8689956665039
3213072,0.6145644187927246,-1.088394045829773,1.1579115390777588,0.10373260080814362,-6.904729843139648,77.12936401367188
3213112,0.6408359408378601,-1.0798273086547852,1.1590311527252197,1.3498196601867676,-6.499875068664551,79.18059539794922
3213154,0.6672376394271851,-1.069975733757019,1.1603854894638062,1.300762414932251,-7.333413124084473,81.14378356933594
3213192,0.6923186182975769,-1.0592796802520752,1.158998966217041,1.0600486993789673,-7.413379192352295,82.60348510742188
3213232,0.7178035378456116,-1.0485851764678955,1.160323977470398,1.4952811002731323,-7.46585750579834,84.26005554199219
3213272,0.7420249581336975,-1.0370105504989624,1.1611008644104004,1.8350448608398438,-7.034567356109619,85.92994689941406
3213312,0.7665127515792847,-1.023987054824829,1.163576602935791,0.996250569820404,-7.495791435241699,87.96472930908203
3213354,0.7887786626815796,-1.011391043663025,1.162622094154358,1.2145801782608032,-7.381245136260986,89.93339538574219
3213392,0.8107590079307556,-1.000128149986267,1.1640195846557617,1.6376956701278687,-7.47323751449585,91.53266906738281
3213432,0.8340170383453369,-0.9862145781517029,1.1657607555389404,0.842707633972168,-8.304338455200195,93.11420440673828
3213472,0.8553988933563232,-0.9703403115272522,1.1631220579147339,1.701174259185791,-7.982670307159424,95.57743072509766
3213512,0.8749755620956421,-0.9547852277755737,1.1611443758010864,0.8590940833091736,-8.335076332092285,96.76082611083984
3213555,0.8993013501167297,-0.9353289604187012,1.1568714380264282,-0.2607094645500183,-9.29781723022461,97.9803695678711
3213592,0.9132745862007141,-0.924117922782898,1.1522458791732788,-0.42197635769844055,-9.417903900146484,98.79910278320312
3213632,0.9340033531188965,-0.9075267910957336,1.1463552713394165,0.7545724511146545,-9.432480812072754,100.78235626220703
3213672,0.9540897607803345,-0.8909655213356018,1.1417211294174194,0.5821347236633301,-10.053254127502441,102.4488525390625
3213712,0.9722946882247925,-0.8755543828010559,1.1375088691711426,0.01062038168311119,-10.100027084350586,103.14173889160156
3213755,0.9909608364105225,-0.8592449426651001,1.1329858303070068,0.14385397732257843,-9.620658874511719,104.0053939819336
3213792,1.0075900554656982,-0.8437402844429016,1.1291937828063965,0.015211655758321285,-9.650150299072266,104.93248748779297
3213832,1.022541880607605,-0.8289660215377808,1.125814437866211,0.28453925251960754,-9.59157657623291,105.89781188964844
3213872,1.0374013185501099,-0.8134555220603943,1.1244652271270752,1.0659908056259155,-9.16211986541748,106.60206604003906
3213912,1.0519448518753052,-0.7960553765296936,1.125401496887207,0.6494303941726685,-9.732397079467773,107.55965423583984
3213952,1.0652313232421875,-0.7781641483306885,1.127415657043457,0.46692028641700745,-9.91229248046875,108.16932678222656
3213992,1.0782710313796997,-0.758995532989502,1.1274834871292114,0.13326451182365417,-9.902832984924316,108.98487854003906
3214032,1.0901774168014526,-0.7406345009803772,1.1268683671951294,-0.28022363781929016,-10.041010856628418,109.5301742553711
3214073,1.1022977828979492,-0.7205977439880371,1.126686453819275,-0.46399739384651184,-10.150272369384766,110.26205444335938
3214112,1.1149535179138184,-0.7002676725387573,1.1250919103622437,-0.31031984090805054,-10.029891014099121,111.08712005615234
3214155,1.1284099817276,-0.6784799098968506,1.1237307786941528,-0.2699645757675171,-10.129469871520996,111.80332946777344
3214192,1.1378709077835083,-0.6628496646881104,1.121687650680542,-0.6530880331993103,-10.304173469543457,112.63677215576172
3214232,1.150567650794983,-0.6413023471832275,1.1166460514068604,-0.792859673500061,-10.157088279724121,113.68669128417969
3214272,1.166689395904541,-0.6142397522926331,1.108170986175537,-0.4851393401622772,-9.634967803955078,114.99849700927734
3214312,1.1755672693252563,-0.5992414951324463,1.1038705110549927,-0.4234832227230072,-9.524591445922852,115.84781646728516
3214352,1.1883512735366821,-0.5777954459190369,1.098996639251709,-0.4613703489303589,-9.131791114807129,116.30349731445312
3214392,1.2006678581237793,-0.5564088821411133,1.0946030616760254,-0.0807657241821289,-8.917716026306152,118.197265625
3214432,1.2130979299545288,-0.535707414150238,1.0906106233596802,0.5663244724273682,-8.379148483276367,119.26209259033203
3214472,1.2250334024429321,-0.5149871706962585,1.088728666305542,0.27528661489486694,-8.38784122467041,120.88587188720703
3214512,1.2370243072509766,-0.4946921169757843,1.085099220275879,0.21500997245311737,-8.027383804321289,122.05722045898438
3214552,1.2493045330047607,-0.4728524684906006,1.0815073251724243,0.5303311347961426,-7.848332405090332,123.67948913574219
3214592,1.2602256536483765,-0.45125800371170044,1.0779956579208374,0.5214119553565979,-7.541679382324219,125.03337097167969
3214632,1.2706472873687744,-0.42810454964637756,1.0748435258865356,0.449337363243103,-7.517035961151123,126.83204650878906
3214673,1.2798281908035278,-0.406852126121521,1.0712183713912964,0.43735504150390625,-7.305720329284668,128.01368713378906
3214712,1.2883310317993164,-0.38510021567344666,1.0692908763885498,0.3005463182926178,-7.110475540161133,129.49429321289062
3214752,1.2972813844680786,-0.36200830340385437,1.0688872337341309,0.021026527509093285,-7.175568580627441,130.77828979492188
3214792,1.3045103549957275,-0.339685320854187,1.0693773031234741,0.11241903901100159,-7.393214225769043,132.57481384277344
3214832,1.3106458187103271,-0.31759318709373474,1.0718164443969727,0.4597500264644623,-7.3847222328186035,134.04278564453125
3214873,1.3164565563201904,-0.29897087812423706,1.0754799842834473,0.303333044052124,-7.551773548126221,135.1727294921875
3214912,1.3234180212020874,-0.28001436591148376,1.079431414604187,0.052343565970659256,-7.801724433898926,136.03529357910156
3214952,1.3300375938415527,-0.2620343863964081,1.0827114582061768,0.21503837406635284,-7.6235809326171875,137.01150512695312
3214992,1.3374602794647217,-0.24197930097579956,1.0876587629318237,0.19132870435714722,-7.708863735198975,138.3242645263672
3215032,1.3451892137527466,-0.22121661901474,1.093392014503479,0.16770368814468384,-7.790034294128418,139.45790100097656
3215073,1.3526490926742554,-0.20144696533679962,1.0992540121078491,0.004676664713770151,-7.911708831787109,140.50450134277344
3215112,1.3592514991760254,-0.18247012794017792,1.1057308912277222,-0.22705569863319397,-8.11727237701416,141.63221740722656
3215152,1.3657341003417969,-0.16386853158473969,1.1101775169372559,-0.192377969622612,-8.352840423583984,142.7321319580078
3215192,1.3714853525161743,-0.14594581723213196,1.1150504350662231,-0.058195143938064575,-8.388490676879883,143.5421600341797
3215232,1.377066731452942,-0.12598730623722076,1.1207760572433472,-0.41500476002693176,-8.977465629577637,144.3970489501953
3215273,1.3812013864517212,-0.10749984532594681,1.1250654458999634,-0.2855801284313202,-9.071802139282227,145.0046844482422
3215312,1.383461833000183,-0.09057271480560303,1.1299654245376587,-0.2988021969795227,-9.233114242553711,145.61668395996094
3215352,1.3854680061340332,-0.07402591407299042,1.1336616277694702,-0.8699154853820801,-9.512770652770996,145.81687927246094
3215392,1.386325716972351,-0.0584263876080513,1.136103630065918,-0.3122340440750122,-9.27624225616455,146.1884765625
3215432,1.387611746788025,-0.0421578511595726,1.1381300687789917,-0.3513795733451843,-9.215559959411621,145.96299743652344
3215474,1.3882191181182861,-0.026656318455934525,1.1403518915176392,-0.21021303534507751,-9.219318389892578,146.00970458984375
3215512,1.388167142868042,-0.01184470858424902,1.1426209211349487,-0.5137444734573364,-9.325631141662598,145.82778930664062
3215552,1.388698697090149,0.0022586293052881956,1.1420915126800537,-0.20900064706802368,-9.1976957321167,145.7478790283203
3215592,1.3887981176376343,0.015183735638856888,1.1415225267410278,0.029322201386094093,-8.9720458984375,145.4842987060547
3215632,1.3890968561172485,0.02920759655535221,1.141136884689331,-0.07195410877466202,-8.950407028198242,145.1468048095703
3215674,1.3893232345581055,0.04555359110236168,1.1410465240478516,-0.21231935918331146,-8.977150917053223,145.22769165039062
3215712,1.38890540599823,0.05589203163981438,1.1411601305007935,-0.20056220889091492,-8.836492538452148,145.21392822265625
3215752,1.3885139226913452,0.07089564204216003,1.141918420791626,-0.7025738954544067,-8.818893432617188,144.82562255859375
3215792,1.38764488697052,0.09188218414783478,1.1424907445907593,-0.7006768584251404,-8.91282844543457,145.4547119140625
3215832,1.386137843132019,0.10251206159591675,1.142771601676941,-0.6591169834136963,-8.785950660705566,145.60491943359375
3215874,1.3839471340179443,0.11687922477722168,1.1436656713485718,-0.7662715315818787,-8.625079154968262,145.4136505126953
3215912,1.3813858032226562,0.13048258423805237,1.1460504531860352,-1.6253407001495361,-8.638360977172852,145.24769592285156
3215952,1.3791422843933105,0.1449587196111679,1.147230863571167,-1.8861805200576782,-8.352777481079102,145.20887756347656
3215992,1.3759033679962158,0.16405338048934937,1.148995041847229,-1.7383885383605957,-8.443496704101562,145.91433715820312
3216032,1.3735604286193848,0.17548996210098267,1.1503394842147827,-2.0271732807159424,-8.56019401550293,146.35487365722656
3216074,1.3682599067687988,0.19432859122753143,1.1524990797042847,-2.154744863510132,-8.714499473571777,147.15664672851562
3216112,1.3638097047805786,0.20461221039295197,1.154207468032837,-2.3682613372802734,-8.801002502441406,147.54583740234375
3216152,1.358484148979187,0.21871846914291382,1.1545765399932861,-2.581115484237671,-8.718255996704102,147.69656372070312
3216192,1.350894570350647,0.23465922474861145,1.1546542644500732,-2.291409730911255,-8.678083419799805,148.17703247070312
3216232,1.3465852737426758,0.24324439465999603,1.1540758609771729,-1.9291563034057617,-8.299051284790039,148.39703369140625
3216274,1.3391791582107544,0.25863659381866455,1.1544591188430786,-2.1108181476593018,-8.433324813842773,148.39044189453125
3216312,1.3336544036865234,0.26693838834762573,1.1549030542373657,-2.1093201637268066,-8.38955020904541,148.77066040039062
3216352,1.3260509967803955,0.2793540954589844,1.1551575660705566,-2.638448476791382,-8.601640701293945,149.0491180419922
3216392,1.318546175956726,0.29079657793045044,1.1534526348114014,-2.542734146118164,-8.386505126953125,148.95570373535156
3216432,1.3100086450576782,0.3019692301750183,1.1520529985427856,-2.3828532695770264,-8.154152870178223,149.05947875976562
3216472,1.301182746887207,0.3136892318725586,1.151711106300354,-3.1022849082946777,-7.919310092926025,148.5250701904297
3216512,1.2912808656692505,0.3246006369590759,1.150983214378357,-3.7113430500030518,-7.653758525848389,148.4461669921875
3216552,1.279587984085083,0.3361993730068207,1.150881052017212,-4.353339195251465,-7.168266296386719,147.89137268066406
3216592,1.2706069946289062,0.34782400727272034,1.1511788368225098,-5.766688823699951,-6.543091297149658,146.61521911621094
3216632,1.2608610391616821,0.3589610159397125,1.1517399549484253,-6.528750896453857,-6.331118583679199,146.61367797851562
3216672,1.2525620460510254,0.3699592649936676,1.1502410173416138,-6.142128944396973,-6.219019412994385,146.86441040039062
3216712,1.2439361810684204,0.377606600522995,1.1502621173858643,-5.961117267608643,-5.826206684112549,146.10145568847656
3216752,1.2376245260238647,0.3872021734714508,1.1504372358322144,-7.26472806930542,-5.293413162231445,144.5331573486328
3216792,1.2327519655227661,0.39680033922195435,1.149276614189148,-6.882258415222168,-5.081366062164307,144.33555603027344
3216832,1.2291181087493896,0.405331015586853,1.1475348472595215,-6.537235736846924,-5.075069427490234,143.39976501464844
3216874,1.2271615266799927,0.41481637954711914,1.1448663473129272,-5.379148006439209,-4.89722204208374,142.89056396484375
3216912,1.2264987230300903,0.42460060119628906,1.144733190536499,-5.954164981842041,-4.956455230712891,141.95045471191406
3216952,1.2261685132980347,0.43529608845710754,1.1454030275344849,-6.403379917144775,-5.47666072845459,141.16542053222656
3216992,1.2258163690567017,0.447123646736145,1.1444311141967773,-6.1480393409729,-5.4536895751953125,140.6985626220703
3217032,1.2248623371124268,0.4587530493736267,1.1451733112335205,-6.16647481918335,-5.958341598510742,140.07012939453125
3217072,1.2233651876449585,0.4711516499519348,1.1459418535232544,-6.498663425445557,-6.044467926025391,139.00082397460938
3217112,1.2203006744384766,0.4860222339630127,1.1468087434768677,-7.505419731140137,-6.450449466705322,138.42530822753906
3217152,1.2153191566467285,0.5009766817092896,1.1469181776046753,-7.287406921386719,-6.310126781463623,137.73336791992188
3217192,1.2104699611663818,0.5169233679771423,1.1467918157577515,-7.480304718017578,-6.2810564041137695,136.9416046142578
3217232,1.2046570777893066,0.5325031876564026,1.1464645862579346,-7.0503411293029785,-6.077395915985107,136.38526916503906
3217274,1.1990139484405518,0.5496230125427246,1.1458230018615723,-6.6841959953308105,-6.261501312255859,136.22882080078125
3217312,1.1907672882080078,0.5636630058288574,1.146445870399475,-6.624425888061523,-6.343906879425049,135.56179809570312
3217352,1.1810718774795532,0.5771823525428772,1.1475673913955688,-6.914246082305908,-6.452423572540283,134.7001190185547
3217393,1.1712563037872314,0.5918163657188416,1.1470566987991333,-5.78434419631958,-6.589940547943115,134.4956817626953
3217432,1.1605852842330933,0.6058267951011658,1.1481164693832397,-5.877880573272705,-6.4827446937561035,133.788330078125
3217472,1.15030837059021,0.6220994591712952,1.1485602855682373,-5.8846940994262695,-6.519959449768066,132.35110473632812
3217512,1.138277292251587,0.6384755373001099,1.149640679359436,-6.0126776695251465,-6.577496528625488,131.5722198486328
3217552,1.1262263059616089,0.655214250087738,1.151344895362854,-5.143101215362549,-6.503759860992432,131.3250274658203
3217593,1.1155552864074707,0.6728441715240479,1.1545524597167969,-5.519242286682129,-7.078979015350342,131.0889892578125
3217632,1.1049880981445312,0.6907230615615845,1.1579633951187134,-5.832026958465576,-6.708874225616455,129.68807983398438
3217672,1.0956354141235352,0.7118929624557495,1.1609572172164917,-6.068497180938721,-7.018139362335205,129.09043884277344
3217712,1.084313154220581,0.730414867401123,1.1659258604049683,-6.757290840148926,-6.957575798034668,128.46461486816406
3217752,1.072367787361145,0.747489869594574,1.1710468530654907,-6.93752908706665,-6.731692314147949,127.38619232177734
3217793,1.0613150596618652,0.7653912305831909,1.1759766340255737,-6.713342189788818,-6.1804280281066895,126.72269439697266
3217832,1.0498172044754028,0.7800686955451965,1.1828646659851074,-7.0437798500061035,-6.503661155700684,126.11458587646484
3217872,1.0398051738739014,0.7939262986183167,1.187873125076294,-6.947330474853516,-6.122189521789551,125.03897857666016
3217912,1.027551293373108,0.8010843992233276,1.1953598260879517,-6.716527462005615,-6.813747406005859,123.03216552734375
3217952,1.0167673826217651,0.810728907585144,1.2010260820388794,-6.466830730438232,-7.206988334655762,121.40687561035156
3217994,1.005935549736023,0.8153111934661865,1.2064591646194458,-6.142136573791504,-7.680812835693359,120.2819595336914
3218032,0.9956889152526855,0.8198253512382507,1.2103440761566162,-6.407927513122559,-7.2676100730896,117.85160064697266
3218072,0.985936164855957,0.8223775029182434,1.2137686014175415,-7.056221961975098,-7.224348068237305,115.59574127197266
3218112,0.9745801091194153,0.8183896541595459,1.217249870300293,-5.962216854095459,-6.681057453155518,113.41207122802734
3218152,0.96439528465271,0.8182222247123718,1.2200242280960083,-6.315752029418945,-6.344420909881592,110.93650817871094
3218192,0.9557188749313354,0.8224818110466003,1.2202073335647583,-6.66204309463501,-5.909799098968506,108.27266693115234
3218232,0.9497241973876953,0.8355432152748108,1.2155226469039917,-5.533964157104492,-5.653230667114258,106.68756866455078
3218272,0.9428449273109436,0.8482208847999573,1.2122485637664795,-5.470800876617432,-5.947602272033691,104.89447784423828
3218312,0.9342628717422485,0.8636224865913391,1.2076925039291382,-5.577640056610107,-5.367165565490723,99.50949096679688
3218352,0.9263685941696167,0.8832384943962097,1.20305597782135,-6.151443004608154,-4.641848087310791,89.73526000976562
3218393,0.9096029996871948,0.869373083114624,1.2135123014450073,-6.505231857299805,-4.259545803070068,86.8165512084961
3218432,0.8936359286308289,0.8625669479370117,1.221205711364746,-5.655945301055908,-4.025777816772461,86.28369140625
3218472,0.8846058249473572,0.8784197568893433,1.2212594747543335,-5.877607345581055,-4.319847106933594,85.5397720336914
3218512,0.8729953765869141,0.8872566223144531,1.2238184213638306,-5.121774673461914,-4.253323554992676,85.21428680419922
3218552,0.8614541292190552,0.9006431698799133,1.2258198261260986,-5.087540149688721,-4.344016075134277,84.69800567626953
3218594,0.8500878810882568,0.9153529405593872,1.227088212966919,-4.5535783767700195,-4.309176445007324,83.97756958007812
3218632,0.838049590587616,0.9318976402282715,1.2286348342895508,-4.123806476593018,-4.721290588378906,83.67266082763672
3218672,0.8260834217071533,0.9475575089454651,1.229737639427185,-4.534085273742676,-4.62409782409668,83.65209197998047
3218712,0.8147570490837097,0.9620853066444397,1.2289327383041382,-4.116994380950928,-4.957839012145996,83.3694839477539
3218752,0.7926316857337952,0.9818944334983826,1.2263672351837158,-4.147700786590576,-4.378170013427734,82.00151062011719
3218794,0.7726160287857056,0.997715413570404,1.2245557308197021,-4.18154239654541,-4.031816005706787,80.62554168701172
3218832,0.7517903447151184,1.0171799659729004,1.2225650548934937,-3.9785828590393066,-3.797748565673828,79.43074798583984
3218872,0.7314829230308533,1.0410916805267334,1.2187472581863403,-4.395008563995361,-3.5237793922424316,77.99176025390625
3218912,0.7071756720542908,1.0548431873321533,1.2177947759628296,-4.2953200340271,-2.8443565368652344,76.55509185791016
3218952,0.6844245791435242,1.0776851177215576,1.2133537530899048,-4.308556079864502,-2.343254327774048,75.6102294921875
3218994,0.6616823673248291,1.1061748266220093,1.2055842876434326,-3.407294750213623,-1.7308400869369507,74.46263885498047
3219032,0.6385752558708191,1.130622386932373,1.199670433998108,-2.7990353107452393,-1.1368979215621948,73.01925659179688
3219072,0.6170036792755127,1.1577388048171997,1.1929831504821777,-2.3657796382904053,-0.8772080540657043,72.07014465332031
3219112,0.5943032503128052,1.1863124370574951,1.185343861579895,-1.5972944498062134,-0.5037643909454346,70.78933715820312
3219152,0.5706265568733215,1.20767080783844,1.180436134338379,-1.477415919303894,-0.5009996891021729,69.21857452392578
3219193,0.5459433197975159,1.213281273841858,1.179335355758667,-0.9011012315750122,0.028957905247807503,67.02938842773438
3219232,0.5261387825012207,1.2335999011993408,1.172913908958435,-1.0565193891525269,0.026081420481204987,64.21117401123047
3219272,0.5083329081535339,1.2499722242355347,1.167059302330017,-1.073790431022644,0.3135887682437897,62.119571685791016
3219312,0.491260290145874,1.2713258266448975,1.1593371629714966,-0.9217123985290527,0.29149192571640015,59.020267486572266
3219352,0.4757864475250244,1.2934706211090088,1.1507155895233154,-0.38242360949516296,0.3497634828090668,56.63325500488281
3219394,0.4602352976799011,1.3094507455825806,1.14568293094635,-0.3501097857952118,0.13845603168010712,54.53831481933594
3219432,0.445881187915802,1.336146354675293,1.137863039970398,-0.6110054850578308,-0.18604418635368347,51.917076110839844
3219472,0.4309634268283844,1.3549120426177979,1.1331194639205933,-1.0636907815933228,-0.4819812476634979,49.23614501953125
3219512,0.42047491669654846,1.376274824142456,1.1269694566726685,-1.6851437091827393,-0.6733028292655945,47.86634063720703
3219552,0.40585124492645264,1.4009993076324463,1.1186010837554932,-1.5636457204818726,-0.7996866703033447,48.06560516357422
3219592,0.3904624283313751,1.4122166633605957,1.115688681602478,-1.6619940996170044,-1.2405644655227661,47.41758728027344
3219632,0.37456977367401123,1.4206430912017822,1.1142096519470215,-1.5846309661865234,-1.7163265943527222,47.10872268676758
3219672,0.35676828026771545,1.423987627029419,1.1142232418060303,-1.035638689994812,-2.089649200439453,45.60875701904297
3219712,0.3391566574573517,1.4242268800735474,1.1151940822601318,-0.5502578020095825,-2.308643341064453,44.39902877807617
3219752,0.3250126242637634,1.427858829498291,1.1154232025146484,-1.5032329559326172,-2.4964613914489746,43.51020050048828
3219792,0.3085613548755646,1.4258636236190796,1.11717689037323,-1.8728053569793701,-2.675337553024292,43.034629821777344
3219832,0.2929092049598694,1.4215868711471558,1.1185046434402466,-1.075168490409851,-2.8791511058807373,42.28255844116211
3219872,0.2765452265739441,1.417725682258606,1.1195299625396729,-0.32277625799179077,-2.5292179584503174,41.04171371459961
3219913,0.26280468702316284,1.4155062437057495,1.1205037832260132,0.2032553255558014,-2.4321939945220947,40.19696807861328
3219952,0.24686788022518158,1.4065885543823242,1.1241744756698608,0.532224714756012,-2.398996114730835,39.37065887451172
3219992,0.2307613492012024,1.4032443761825562,1.1250048875808716,0.6746044754981995,-2.3678550720214844,38.893131256103516
3220032,0.21414348483085632,1.3966395854949951,1.1263444423675537,0.6763253211975098,-2.0881507396698,37.84756851196289
3220072,0.19866995513439178,1.389658808708191,1.1268706321716309,1.1405155658721924,-2.399629831314087,37.550392150878906
3220113,0.18214336037635803,1.3809623718261719,1.1277260780334473,0.8830270767211914,-2.5896646976470947,37.3261604309082
3220152,0.16617722809314728,1.3744397163391113,1.1264253854751587,0.827883780002594,-2.716991901397705,36.77186584472656
3220192,0.15215042233467102,1.3733102083206177,1.1228480339050293,1.6151046752929688,-2.145437240600586,36.38972091674805
3220232,0.1379764825105667,1.3700510263442993,1.12198805809021,1.6998834609985352,-2.1042213439941406,35.76519012451172
3220272,0.12325599044561386,1.365841031074524,1.1228340864181519,2.049983263015747,-2.4996485710144043,36.21602249145508
3220313,0.10766540467739105,1.363525390625,1.1247951984405518,1.703951120376587,-3.0672597885131836,35.74542236328125
3220352,0.09007134288549423,1.3626805543899536,1.1262587308883667,1.9095714092254639,-3.1394083499908447,35.106834411621094
3220392,0.07175783067941666,1.3666640520095825,1.1262192726135254,2.3918709754943848,-3.4244818687438965,34.82603073120117
3220432,0.05147532746195793,1.3548802137374878,1.1345889568328857,1.4622682332992554,-4.213034152984619,33.64728927612305
3220472,0.03173337131738663,1.358140468597412,1.1359108686447144,1.0482274293899536,-4.536528587341309,32.48808288574219
3220513,0.012065976858139038,1.3509830236434937,1.1409333944320679,1.2744406461715698,-4.959408760070801,32.299129486083984
3220552,-0.007636793423444033,1.3525519371032715,1.1435984373092651,1.7583751678466797,-5.24403190612793,31.468992233276367
3220592,-0.02694060653448105,1.3511366844177246,1.1489956378936768,1.6627981662750244,-5.819946765899658,30.3548583984375
3220632,-0.0457146093249321,1.349753737449646,1.154466152191162,1.2117336988449097,-6.460982322692871,29.372718811035156
3220672,-0.0625726506114006,1.3490047454833984,1.1584235429763794,1.4519591331481934,-6.967405319213867,28.411579132080078
3220714,-0.07511676102876663,1.3457155227661133,1.1623224020004272,1.646733045578003,-7.0797834396362305,27.554548263549805
3220752,-0.08941826969385147,1.3415956497192383,1.1666573286056519,1.7640777826309204,-7.3111724853515625,26.907861709594727
3220792,-0.10211071372032166,1.3345192670822144,1.1716585159301758,1.8239095211029053,-7.6302266120910645,26.965421676635742
3220832,-0.11443199962377548,1.328116774559021,1.1754474639892578,1.595555305480957,-8.205443382263184,26.545713424682617
3220872,-0.12554873526096344,1.3199726343154907,1.1781136989593506,1.7451108694076538,-8.197322845458984,26.0059757232666
3220914,-0.1358092725276947,1.3083598613739014,1.180356740951538,2.058135986328125,-8.246574401855469,26.016475677490234
3220952,-0.14540104568004608,1.2995686531066895,1.1809916496276855,2.236630439758301,-8.302594184875488,26.23190689086914
3220992,-0.15406176447868347,1.2861850261688232,1.1822987794876099,2.214329481124878,-8.42385196685791,26.255420684814453
3221032,-0.16340135037899017,1.2692307233810425,1.1823798418045044,2.614593982696533,-8.01503849029541,27.17339515686035
3221072,-0.16896207630634308,1.26007878780365,1.1820476055145264,2.5690555572509766,-8.120157241821289,27.239055633544922
3221114,-0.17643126845359802,1.2412562370300293,1.1816054582595825,3.073925733566284,-7.753715515136719,27.364734649658203
3221152,-0.18254943192005157,1.2240115404129028,1.1813541650772095,3.630680799484253,-7.648653507232666,28.17290687561035
3221192,-0.1886921375989914,1.2040058374404907,1.1828397512435913,3.927276134490967,-7.8718132972717285,28.433900833129883
3221232,-0.19436459243297577,1.186967372894287,1.1846710443496704,4.0909810066223145,-8.212733268737793,28.582090377807617
3221272,-0.1986970156431198,1.1653083562850952,1.1882210969924927,3.2809596061706543,-8.831478118896484,28.877710342407227
3221313,-0.2027091532945633,1.1428017616271973,1.1899909973144531,3.680215835571289,-8.714661598205566,29.34562873840332
3221352,-0.20738346874713898,1.1222795248031616,1.1904956102371216,4.197669506072998,-8.347877502441406,30.131275177001953
3221392,-0.21182535588741302,1.098050594329834,1.1937971115112305,3.839982032775879,-8.60816764831543,30.326522827148438
3221432,-0.21594376862049103,1.076300859451294,1.1959871053695679,4.027539253234863,-8.615209579467773,30.685070037841797
3221472,-0.21901772916316986,1.0510094165802002,1.199743628501892,4.2357707023620605,-8.91649341583252,31.431921005249023
3221513,-0.22139187157154083,1.0259748697280884,1.2040746212005615,3.84657883644104,-9.371044158935547,31.563556671142578
3221552,-0.2231801599264145,1.0013031959533691,1.2072824239730835,3.699131965637207,-9.73187255859375,32.270042419433594
3221592,-0.22289544343948364,0.9729925394058228,1.2107954025268555,3.880748987197876,-9.930961608886719,33.35066604614258
3221632,-0.22257883846759796,0.9494292140007019,1.2133252620697021,3.7899727821350098,-10.359648704528809,34.15361404418945
3221672,-0.22029168903827667,0.9214402437210083,1.2166534662246704,4.001819610595703,-10.382514953613281,35.05763626098633
3221714,-0.21744702756404877,0.8955739140510559,1.219780683517456,4.0443434715271,-10.723836898803711,36.42405700683594
3221752,-0.2154131531715393,0.8716695308685303,1.222059726715088,3.773876905441284,-10.948247909545898,36.94447708129883
3221792,-0.21196512877941132,0.8424110412597656,1.224558711051941,3.393728256225586,-10.978819847106934,37.39228820800781
3221832,-0.20768724381923676,0.8165266513824463,1.2247607707977295,3.7265641689300537,-10.85145378112793,39.19850158691406
3221872,-0.20263366401195526,0.7882471084594727,1.2257964611053467,3.901078939437866,-10.743593215942383,40.511016845703125
3221914,-0.19720065593719482,0.7597017884254456,1.2277740240097046,3.6685431003570557,-10.745695114135742,41.50255584716797
3221952,-0.19240818917751312,0.7352024912834167,1.2290451526641846,3.6131579875946045,-10.77253532409668,42.683433532714844
3221992,-0.18723051249980927,0.7082022428512573,1.2318769693374634,3.337345600128174,-11.160501480102539,43.74143600463867
3222032,-0.18154127895832062,0.6791837811470032,1.2338534593582153,2.9243671894073486,-11.160609245300293,44.57603073120117
3222072,-0.1756049245595932,0.6516522169113159,1.2342342138290405,3.112056016921997,-10.833708763122559,45.72901153564453
3222112,-0.16904470324516296,0.6237138509750366,1.2351645231246948,3.140958070755005,-10.6952543258667,46.87351608276367
3222152,-0.16257008910179138,0.5985898375511169,1.234887719154358,3.2971138954162598,-10.29461669921875,48.04985809326172
3222192,-0.15557044744491577,0.5722214579582214,1.2361901998519897,3.056666374206543,-10.133260726928711,48.862892150878906
3222232,-0.14734917879104614,0.5423732995986938,1.2376949787139893,2.9953603744506836,-10.098849296569824,49.54506301879883
3222272,-0.1386314034461975,0.5156949162483215,1.2377846240997314,2.9510812759399414,-9.89734172821045,50.62038040161133
3222315,-0.1283448487520218,0.4857955873012543,1.2389087677001953,2.6440305709838867,-9.599834442138672,51.3773307800293
3222352,-0.11775092780590057,0.45628198981285095,1.2390531301498413,1.5361993312835693,-8.57425308227539,51.036033630371094
3222392,-0.11089064180850983,0.43478843569755554,1.2379378080368042,1.1899760961532593,-7.212358474731445,49.67293930053711
3222432,-0.10041206330060959,0.4034333825111389,1.2376922369003296,0.47406867146492004,-6.56386661529541,49.48623275756836
3222472,-0.09415655583143234,0.38421115279197693,1.2379381656646729,0.055460911244153976,-6.142467975616455,49.47589874267578
3222515,-0.08533293008804321,0.35400593280792236,1.2386947870254517,-0.4881468713283539,-5.459742546081543,47.95646286010742
3222552,-0.0754479244351387,0.32773953676223755,1.2380298376083374,-2.1181559562683105,-5.400851726531982,47.79676818847656
3222592,-0.06361237168312073,0.30079102516174316,1.235751748085022,-1.0272513628005981,-4.553825855255127,48.87100601196289
3222632,-0.05289020016789436,0.27997010946273804,1.2339050769805908,-0.8596910238265991,-4.214161396026611,49.77311325073242
3222672,-0.04345105215907097,0.25857511162757874,1.2338684797286987,-1.0130974054336548,-3.487805128097534,49.223052978515625
3222712,-0.035075873136520386,0.23734498023986816,1.2347508668899536,-0.8261423110961914,-2.990981101989746,48.579193115234375
3222752,-0.026535607874393463,0.21968895196914673,1.2364975214004517,-1.1898912191390991,-3.3023059368133545,48.93549728393555
3222792,-0.017350176349282265,0.20302195847034454,1.2386318445205688,-1.6110800504684448,-3.350766658782959,48.783660888671875
3222832,-0.008424920961260796,0.18846534192562103,1.240861177444458,-1.3657453060150146,-2.9045355319976807,48.20022964477539
3222872,0.0017058360390365124,0.17495189607143402,1.2441946268081665,-0.14098407328128815,-2.5761497020721436,48.370216369628906
3222912,0.01216419879347086,0.16365523636341095,1.2511610984802246,0.06088593602180481,-3.0906083583831787,49.07373809814453
3222952,0.021037274971604347,0.1553911566734314,1.2592496871948242,-0.7719185948371887,-3.76977801322937,48.94038009643555
3222992,0.02888539619743824,0.1501103788614273,1.2640879154205322,-0.522919237613678,-3.7771811485290527,48.36941146850586
3223034,0.03852683678269386,0.14415845274925232,1.2688486576080322,-0.589482843875885,-4.068160533905029,48.34858322143555
3223072,0.0436808317899704,0.14103715121746063,1.2699612379074097,0.48294663429260254,-3.837414264678955,48.68478775024414
3223112,0.04950138181447983,0.13784600794315338,1.2725495100021362,1.4116501808166504,-4.2297468185424805,48.52485275268555
3223152,0.05440380051732063,0.13518878817558289,1.2758772373199463,1.268170952796936,-4.458343505859375,47.87018585205078
3223192,0.05955272540450096,0.1325296014547348,1.277347207069397,1.6113616228103638,-4.825841426849365,48.37758255004883
3223232,0.06335686147212982,0.1308165192604065,1.276976466178894,1.5372788906097412,-4.933283805847168,48.09809875488281
3223272,0.06539390981197357,0.1286771446466446,1.2759029865264893,1.7718920707702637,-4.882041931152344,47.735084533691406
3223312,0.06719393283128738,0.12745104730129242,1.275009036064148,1.3205962181091309,-5.24576997756958,47.272701263427734
3223352,0.06958822906017303,0.12648582458496094,1.2730119228363037,1.510319471359253,-5.290336608886719,47.27408981323242
3223392,0.07218746095895767,0.12571917474269867,1.2701400518417358,1.5754811763763428,-5.528697490692139,47.59212875366211
3223433,0.0739385336637497,0.12560999393463135,1.2659519910812378,1.966441035270691,-5.626943588256836,47.82373809814453
3223472,0.07465286552906036,0.12611506879329681,1.2611970901489258,1.9236912727355957,-5.6605305671691895,47.964290618896484
3223512,0.07453393936157227,0.12661980092525482,1.2557750940322876,1.7898658514022827,-5.951212406158447,48.12023162841797
3223552,0.07332814484834671,0.1260327696800232,1.2485499382019043,1.7203340530395508,-6.236970901489258,48.01462173461914
3223592,0.07178452610969543,0.1226794421672821,1.2393566370010376,1.8347214460372925,-6.579968452453613,47.73320007324219
3223632,0.07014099508523941,0.11859241127967834,1.227326512336731,1.798457384109497,-6.933906078338623,47.385047912597656
3223672,0.06938238441944122,0.1134791225194931,1.2113243341445923,2.0155444145202637,-7.001959323883057,47.494590759277344
3223712,0.06791270524263382,0.11454370617866516,1.1887962818145752,2.6577022075653076,-6.91636848449707,48.208927154541016
3223752,0.06589381396770477,0.11090050637722015,1.165602207183838,2.4377005100250244,-6.908212661743164,47.557708740234375
3223792,0.0645422711968422,0.10191850364208221,1.1418381929397583,2.0506081581115723,-6.433724880218506,46.43313217163086
3223833,0.06420298665761948,0.0957990512251854,1.1139652729034424,1.826580286026001,-6.531041145324707,46.03965759277344
3223872,0.06520988792181015,0.08773648738861084,1.0831549167633057,1.6359962224960327,-6.906926155090332,45.143611907958984
3223912,0.06574697047472,0.09203777462244034,1.0415629148483276,0.6446646451950073,-7.810536861419678,44.35232925415039
