Timestamp,stateEstimate.x,stateEstimate.y,stateEstimate.z,stateEstimate.roll,stateEstimate.pitch,stateEstimate.yaw
3259192,1.1357122659683228,0.2024500072002411,1.281914472579956,4.048451900482178,-2.628014326095581,93.87374877929688
3259232,1.1183152198791504,0.16637928783893585,1.3019734621047974,3.8082034587860107,-2.746563673019409,94.30299377441406
3259272,1.1206049919128418,0.17036212980747223,1.3006374835968018,4.087070941925049,-2.854686975479126,94.95243072509766
3259312,1.113084316253662,0.15505968034267426,1.3091405630111694,4.112605094909668,-2.9368531703948975,95.23876953125
3259352,1.098591923713684,0.12575477361679077,1.3244973421096802,4.0659003257751465,-2.896069049835205,95.29759979248047
3259392,1.0946261882781982,0.11842615902423859,1.3285043239593506,4.008023738861084,-2.957422971725464,95.20394897460938
3259432,1.0963858366012573,0.12280355393886566,1.3267691135406494,3.8104307651519775,-3.158461093902588,95.39715576171875
3259472,1.1001958847045898,0.13037413358688354,1.3231486082077026,3.851435422897339,-3.272143602371216,95.7776107788086
3259512,1.106751799583435,0.14405639469623566,1.31570303440094,3.882425308227539,-3.3439018726348877,96.09922790527344
3259552,1.1097149848937988,0.15001198649406433,1.3118911981582642,4.04966402053833,-3.3006882667541504,96.5068130493164
3259592,1.1146796941757202,0.1612226665019989,1.3058600425720215,3.9904282093048096,-3.408872604370117,96.74266052246094
3259632,1.1167758703231812,0.16655924916267395,1.3026189804077148,3.806687831878662,-3.408399820327759,96.69982147216797
3259674,1.1198450326919556,0.17463919520378113,1.2982624769210815,3.6231582164764404,-3.5394816398620605,96.33855438232422
3259712,1.1212527751922607,0.1789548099040985,1.2954117059707642,3.5498111248016357,-3.5783584117889404,96.43699645996094
3259752,1.1223459243774414,0.18275001645088196,1.291847586631775,3.465106725692749,-3.522125005722046,96.13408660888672
3259792,1.1061209440231323,0.1509575992822647,1.3066383600234985,3.343709945678711,-3.0576388835906982,95.57918548583984
3259832,1.100638747215271,0.14001218974590302,1.311474323272705,3.27128267288208,-2.915491819381714,95.53550720214844
3259873,1.091679334640503,0.12150751799345016,1.319887638092041,3.1510560512542725,-2.5818517208099365,95.47677612304688
3259912,1.0947692394256592,0.12836509943008423,1.3151419162750244,3.183234930038452,-2.1741318702697754,95.28577423095703
3259952,1.099755883216858,0.1391119807958603,1.3091343641281128,3.000999689102173,-1.9670374393463135,95.25907897949219
3259992,1.1061934232711792,0.15477024018764496,1.300686001777649,2.795055627822876,-1.5968859195709229,94.8685302734375
3260032,1.1080405712127686,0.16160959005355835,1.297107219696045,2.702554702758789,-1.260917067527771,94.67549896240234
3260073,1.1130081415176392,0.17444057762622833,1.2917400598526,2.608419179916382,-1.0012515783309937,94.31967163085938
3260112,1.1162751913070679,0.18760088086128235,1.2876989841461182,2.341843605041504,-1.2238261699676514,93.71890258789062
3260152,1.1176302433013916,0.19724291563034058,1.2859086990356445,2.044201135635376,-1.2130669355392456,92.73401641845703
3260192,1.115904450416565,0.2018825113773346,1.2880104780197144,1.4749077558517456,-1.3330317735671997,91.56855010986328
3260232,1.114186406135559,0.2070281207561493,1.289598822593689,1.085647463798523,-1.2979532480239868,90.54203796386719
3260275,1.1130402088165283,0.21296072006225586,1.2905069589614868,0.7342205047607422,-1.1153461933135986,90.17716979980469
3260312,1.1121376752853394,0.22026361525058746,1.2917040586471558,0.43831750750541687,-0.8805007934570312,89.61225891113281
3260352,1.11195969581604,0.23036009073257446,1.2924333810806274,0.2458530217409134,-0.8857369422912598,89.46501159667969
3260392,1.111983060836792,0.24377907812595367,1.2929586172103882,-0.23327045142650604,-0.7341071367263794,88.98298645019531
3260432,1.1106979846954346,0.2566657066345215,1.2947410345077515,-0.5631127953529358,-0.8031607866287231,88.65201568603516
3260475,1.1087238788604736,0.2706041932106018,1.2962064743041992,-1.0972651243209839,-0.748197615146637,88.05663299560547
3260512,1.1071738004684448,0.28582680225372314,1.2972073554992676,-1.0363463163375854,-0.6878325939178467,87.55953216552734
3260552,1.1071946620941162,0.3049752414226532,1.2971220016479492,-0.906424880027771,-0.8468762636184692,87.77703094482422
3260592,1.1050761938095093,0.3234380781650543,1.2994288206100464,-1.4677244424819946,-0.8502833247184753,87.16304779052734
3260632,1.1036591529846191,0.34362271428108215,1.300086498260498,-0.898968517780304,-0.7630987763404846,86.65837860107422
3260672,1.101500153541565,0.3643108010292053,1.3011747598648071,-0.7766699194908142,-0.7570517659187317,86.67505645751953
3260712,1.0979158878326416,0.385284423828125,1.3022302389144897,-1.0389751195907593,-0.6821563839912415,85.5724868774414
3260752,1.0936321020126343,0.4065183401107788,1.3018255233764648,-0.9030241966247559,0.0350259467959404,84.16868591308594
3260792,1.0888899564743042,0.42206355929374695,1.3029403686523438,-0.8674944639205933,0.24492110311985016,82.98926544189453
3260832,1.0817806720733643,0.45144376158714294,1.3041521310806274,-0.790496826171875,0.20557983219623566,81.65818786621094
3260872,1.0749948024749756,0.4753047227859497,1.3048818111419678,-1.3140071630477905,0.43404045701026917,80.09803009033203
3260912,1.0685104131698608,0.5006566643714905,1.30404794216156,-0.9684132933616638,0.6770946979522705,78.36598205566406
3260952,1.0624816417694092,0.5286505818367004,1.3024919033050537,-0.894180178642273,0.951254665851593,76.41278839111328
3260992,1.0543135404586792,0.5539278984069824,1.3034038543701172,-0.9638164639472961,1.2966386079788208,73.88390350341797
3261032,1.0457550287246704,0.5778919458389282,1.3060815334320068,-0.9063950777053833,1.3150241374969482,72.32975006103516
3261072,1.0380938053131104,0.6035276651382446,1.308040738105774,-1.0883675813674927,0.9800230264663696,70.50048828125
3261112,1.029233455657959,0.6268688440322876,1.310114860534668,-1.3858736753463745,1.1441746950149536,68.31844329833984
3261152,1.0207772254943848,0.6523333191871643,1.3105957508087158,-1.506037950515747,1.3563472032546997,65.85319519042969
3261192,1.0097401142120361,0.675176203250885,1.3127191066741943,-1.5130587816238403,1.502898097038269,63.17750549316406
3261232,1.0003304481506348,0.7012771964073181,1.313091516494751,-1.654712438583374,1.4430192708969116,60.457130432128906
3261272,0.990953803062439,0.7274510860443115,1.3126059770584106,-1.6208224296569824,1.7688944339752197,57.66264724731445
3261312,0.9827388525009155,0.7549105882644653,1.3109478950500488,-1.6411516666412354,2.1750707626342773,55.14205551147461
3261352,0.9736043214797974,0.7776955366134644,1.310002088546753,-1.6301443576812744,2.77095627784729,51.29510498046875
3261393,0.9614091515541077,0.793595552444458,1.3118304014205933,-1.4807319641113281,3.276524066925049,47.477054595947266
3261432,0.9476856589317322,0.8053109645843506,1.3142684698104858,-1.6886284351348877,3.797111988067627,43.72684097290039
3261472,0.934766411781311,0.8182440400123596,1.3145124912261963,-1.4633694887161255,4.362885475158691,40.283470153808594
3261512,0.9203011393547058,0.8274656534194946,1.316139817237854,-1.4215697050094604,4.81422758102417,36.44853591918945
3261552,0.9079997539520264,0.843836784362793,1.3150111436843872,-1.4381977319717407,5.099619388580322,32.580867767333984
3261593,0.896213948726654,0.8495253920555115,1.3168071508407593,-1.3821437358856201,5.428094863891602,29.608964920043945
3261632,0.879570722579956,0.8652201294898987,1.316262125968933,-1.170532464981079,5.893369197845459,24.57011604309082
3261672,0.8664453029632568,0.8778188228607178,1.3156968355178833,-1.1500763893127441,6.336095809936523,20.753236770629883
3261712,0.8539777994155884,0.8910866379737854,1.315315842628479,-0.9800373315811157,6.2364397048950195,16.73256492614746
3261752,0.8428801894187927,0.9077349305152893,1.3134746551513672,-0.9810126423835754,6.330683708190918,12.894715309143066
3261793,0.8311650156974792,0.9215055108070374,1.3131062984466553,-0.6962795853614807,6.321389675140381,9.124075889587402
3261832,0.8190553784370422,0.93288254737854,1.3147526979446411,-0.9060196280479431,6.044638156890869,5.821613788604736
3261872,0.8071456551551819,0.9453219175338745,1.3157691955566406,-1.0628582239151,5.587507247924805,2.498056173324585
3261912,0.7951163053512573,0.9596302509307861,1.3147469758987427,-1.0200588703155518,5.461747646331787,-1.0948904752731323
3261952,0.7830023169517517,0.9748790860176086,1.3122501373291016,-0.8318047523498535,5.175450801849365,-3.9777512550354004
3261994,0.7674768567085266,0.9841127395629883,1.3112632036209106,-0.40783536434173584,5.166080951690674,-7.098215103149414
3262032,0.7527710795402527,0.9994322657585144,1.3081474304199219,-0.22507379949092865,4.937798976898193,-10.339295387268066
3262072,0.740319550037384,1.0096123218536377,1.3064528703689575,-0.04298790916800499,4.94732666015625,-12.850440979003906
3262112,0.7199949622154236,1.02670419216156,1.3035510778427124,0.2519119679927826,4.512228965759277,-16.707183837890625
3262152,0.7088058590888977,1.0385899543762207,1.30227792263031,0.28044527769088745,4.003296375274658,-18.85439109802246
3262194,0.691399097442627,1.045287847518921,1.3051806688308716,-0.24919477105140686,3.326819658279419,-21.368610382080078
3262232,0.6755635738372803,1.053847312927246,1.3072679042816162,-0.7246560454368591,3.1996731758117676,-23.656679153442383
3262272,0.6590705513954163,1.0612720251083374,1.3098992109298706,-1.1033928394317627,2.6626975536346436,-26.02133560180664
3262312,0.6428381204605103,1.0677027702331543,1.3124845027923584,-1.1224544048309326,2.70097017288208,-28.300247192382812
3262352,0.6275771260261536,1.0750548839569092,1.3156110048294067,-1.4542555809020996,2.0378668308258057,-30.209867477416992
3262394,0.6113993525505066,1.078437089920044,1.3207999467849731,-1.4123964309692383,1.5364426374435425,-31.83576202392578
3262432,0.5967142581939697,1.0827326774597168,1.3263976573944092,-1.5359898805618286,0.8563242554664612,-33.38081741333008
3262472,0.5782946944236755,1.0880142450332642,1.3335541486740112,-2.4273488521575928,-0.017795011401176453,-34.7090950012207
3262512,0.563754677772522,1.0922725200653076,1.337510108947754,-2.4565532207489014,-0.05490085110068321,-36.017852783203125
3262552,0.5512635111808777,1.0939561128616333,1.3421992063522339,-2.9293880462646484,-0.520736813545227,-36.86084747314453
3262595,0.5371690392494202,1.0985924005508423,1.3459579944610596,-2.9821953773498535,-0.7509526610374451,-37.496177673339844
3262632,0.5235803723335266,1.1033525466918945,1.3506031036376953,-3.2197864055633545,-1.5453559160232544,-38.09823226928711
3262672,0.5095527768135071,1.1067982912063599,1.3564835786819458,-3.8695731163024902,-2.058586359024048,-38.70452880859375
3262712,0.49584248661994934,1.11081862449646,1.361271858215332,-4.1100568771362305,-2.514152765274048,-38.82731246948242
3262752,0.4811708629131317,1.1163173913955688,1.3658571243286133,-4.1622467041015625,-2.9157180786132812,-39.38502883911133
3262792,0.46747395396232605,1.1232006549835205,1.369760513305664,-4.66159725189209,-3.706220865249634,-39.466556549072266
3262832,0.45264774560928345,1.1288793087005615,1.373511552810669,-4.66531229019165,-4.4365763664245605,-39.112770080566406
3262872,0.43597161769866943,1.1317698955535889,1.3787038326263428,-4.802402973175049,-4.942070960998535,-38.8742561340332
3262912,0.4184768795967102,1.135860800743103,1.3832601308822632,-4.909612655639648,-5.2029900550842285,-38.403709411621094
3262952,0.4002397060394287,1.1405690908432007,1.388045310974121,-4.601243019104004,-5.368509769439697,-37.76200485229492
3262992,0.3850502371788025,1.148714303970337,1.3927454948425293,-4.607830047607422,-5.889744758605957,-36.88887023925781
3263032,0.3676903545856476,1.154104471206665,1.3986402750015259,-4.170215129852295,-6.414365291595459,-35.90717697143555
3263072,0.34920376539230347,1.1574145555496216,1.4053137302398682,-4.0469746589660645,-6.941493511199951,-35.39078903198242
3263112,0.33090460300445557,1.1601063013076782,1.4106321334838867,-3.650301456451416,-7.187247276306152,-34.704139709472656
3263152,0.31381604075431824,1.1661831140518188,1.4141565561294556,-3.420592784881592,-7.439578056335449,-33.79737854003906
3263192,0.29939213395118713,1.172157645225525,1.416740894317627,-3.2913143634796143,-7.57868766784668,-33.014381408691406
3263232,0.2818935215473175,1.1766976118087769,1.4189317226409912,-2.978794574737549,-7.253467559814453,-31.828693389892578
3263272,0.2634657025337219,1.1779990196228027,1.4218599796295166,-2.837120771408081,-7.720154762268066,-30.788789749145508
3263312,0.245640829205513,1.1831719875335693,1.4223852157592773,-2.537821054458618,-7.51068115234375,-30.267343521118164
3263352,0.2275507152080536,1.1849772930145264,1.4224483966827393,-2.582362413406372,-7.149011135101318,-29.584030151367188
3263392,0.2113039642572403,1.1846665143966675,1.4216655492782593,-2.2367398738861084,-6.943540573120117,-28.56024742126465
3263432,0.19315946102142334,1.1885240077972412,1.4198912382125854,-2.322012424468994,-6.787800312042236,-27.656314849853516
3263472,0.17526772618293762,1.187305212020874,1.4187382459640503,-2.073772430419922,-6.203264236450195,-26.913537979125977
3263512,0.15817192196846008,1.1848288774490356,1.4182524681091309,-2.255368947982788,-6.208860874176025,-26.299650192260742
3263552,0.14044146239757538,1.183987021446228,1.416184663772583,-2.002384901046753,-5.86867618560791,-25.634172439575195
3263592,0.12347239255905151,1.1818677186965942,1.41419517993927,-1.785092830657959,-5.9286298751831055,-25.28050994873047
3263632,0.10534773766994476,1.1813359260559082,1.4112600088119507,-1.6319347620010376,-5.75517463684082,-24.77841567993164
3263672,0.08727551251649857,1.1761149168014526,1.4101241827011108,-1.7069144248962402,-5.515797138214111,-24.733383178710938
3263712,0.07004313915967941,1.1724098920822144,1.4091968536376953,-2.019301414489746,-5.414958953857422,-25.072294235229492
3263752,0.053505003452301025,1.1708321571350098,1.4081825017929077,-2.4600939750671387,-5.420498847961426,-24.995073318481445
3263792,0.038450390100479126,1.165290355682373,1.4079711437225342,-2.3990650177001953,-5.796980857849121,-25.188133239746094
3263832,0.022726908326148987,1.1623564958572388,1.4068882465362549,-2.51668381690979,-5.2360148429870605,-25.680768966674805
3263872,0.007758894469588995,1.153685450553894,1.4083083868026733,-2.8289856910705566,-5.456543922424316,-25.532756805419922
3263913,-0.006949218455702066,1.1450995206832886,1.4095075130462646,-2.6357152462005615,-5.397205829620361,-25.573415756225586
3263952,-0.02332211285829544,1.1374447345733643,1.4107171297073364,-2.6725587844848633,-5.408974647521973,-25.42264175415039
3263992,-0.03815943002700806,1.1310081481933594,1.4113380908966064,-2.351802349090576,-5.605823040008545,-24.625350952148438
3264032,-0.053592659533023834,1.128239631652832,1.4110136032104492,-1.6949433088302612,-5.8727946281433105,-24.292184829711914
3264072,-0.06699325144290924,1.1260342597961426,1.4114733934402466,-2.3077919483184814,-5.96250057220459,-24.506397247314453
3264113,-0.08068541437387466,1.1214566230773926,1.41178297996521,-2.397944450378418,-5.861039638519287,-24.5245418548584
3264152,-0.09435562044382095,1.1209396123886108,1.4105910062789917,-2.1654133796691895,-5.668046951293945,-24.920726776123047
3264192,-0.10699369013309479,1.1184810400009155,1.4108330011367798,-2.4786674976348877,-5.2792649269104,-25.369340896606445
3264232,-0.11856665462255478,1.118530511856079,1.411141037940979,-2.2260384559631348,-5.978926181793213,-25.633602142333984
3264272,-0.1288435012102127,1.1160849332809448,1.411277174949646,-2.291614055633545,-6.051238536834717,-26.115875244140625
3264313,-0.1383400410413742,1.1150327920913696,1.410837173461914,-2.20086932182312,-6.193526744842529,-26.155744552612305
3264352,-0.1496599316596985,1.112981915473938,1.4100805521011353,-1.9758812189102173,-6.132266998291016,-26.463546752929688
3264392,-0.16124919056892395,1.10956609249115,1.4095937013626099,-2.122278928756714,-6.191964626312256,-26.92400550842285
3264432,-0.1730078011751175,1.107244610786438,1.4077041149139404,-1.557374358177185,-5.8084259033203125,-27.0048885345459
3264472,-0.18496568500995636,1.1049320697784424,1.4068289995193481,-1.789141297340393,-5.898123741149902,-27.686443328857422
3264513,-0.19724351167678833,1.103335976600647,1.4048917293548584,-1.6308645009994507,-5.580679416656494,-27.728832244873047
3264552,-0.21096579730510712,1.1017316579818726,1.40266752243042,-1.689092993736267,-5.594304084777832,-28.178314208984375
3264592,-0.2248661071062088,1.0951802730560303,1.4010615348815918,-1.398692011833191,-5.326964855194092,-28.3051815032959
3264632,-0.2390735149383545,1.0897287130355835,1.3995386362075806,-1.3452285528182983,-5.378300666809082,-28.27704429626465
3264672,-0.25398707389831543,1.0826339721679688,1.398483395576477,-1.4839303493499756,-5.512677192687988,-28.437496185302734
3264713,-0.2703070640563965,1.078527569770813,1.3958840370178223,-1.5903338193893433,-5.335611343383789,-28.19023895263672
3264752,-0.28790441155433655,1.070034384727478,1.3941835165023804,-1.4262295961380005,-5.5144171714782715,-27.7933292388916
3264792,-0.30611348152160645,1.056999683380127,1.3943592309951782,-1.5699800252914429,-5.535811424255371,-27.482297897338867
3264832,-0.3255070447921753,1.0488754510879517,1.39394211769104,-1.672175407409668,-5.451716899871826,-27.95526695251465
3264872,-0.344527930021286,1.0390310287475586,1.393999695777893,-2.235262632369995,-5.857068061828613,-27.749500274658203
3264914,-0.36411741375923157,1.0328075885772705,1.3914779424667358,-2.400299310684204,-5.602659702301025,-27.293752670288086
3264952,-0.3834863305091858,1.0211130380630493,1.389859676361084,-1.9098811149597168,-5.2710065841674805,-26.57217025756836
3264992,-0.402767151594162,1.006876826286316,1.3899567127227783,-1.404567003250122,-5.153234004974365,-25.530109405517578
3265032,-0.4220409393310547,0.9943285584449768,1.3904929161071777,-1.3447550535202026,-5.035787105560303,-24.905467987060547
3265072,-0.4395522475242615,0.9791871905326843,1.3911890983581543,-1.0072720050811768,-5.01094913482666,-23.847360610961914
3265114,-0.45684880018234253,0.9680171608924866,1.390914797782898,-0.9261451959609985,-5.0792341232299805,-22.98186683654785
3265152,-0.47301509976387024,0.9538918137550354,1.3909112215042114,-0.971036970615387,-5.167212009429932,-22.203786849975586
3265192,-0.4885285496711731,0.9407612085342407,1.3901565074920654,-0.7564244866371155,-5.167914867401123,-21.136009216308594
3265232,-0.5041605234146118,0.9275546073913574,1.3894803524017334,-0.491937518119812,-5.392208099365234,-19.95939064025879
3265272,-0.518409788608551,0.9121790528297424,1.3899366855621338,-0.3042632043361664,-5.544893741607666,-18.79783058166504
3265314,-0.530860424041748,0.8972703218460083,1.3907279968261719,-0.8229978084564209,-5.580075263977051,-18.089338302612305
3265352,-0.5443833470344543,0.8812803626060486,1.389012098312378,-0.6176459193229675,-5.332431793212891,-17.03902244567871
3265392,-0.5531526207923889,0.8689035177230835,1.3875408172607422,-0.2825310528278351,-5.17240047454834,-16.205665588378906
3265432,-0.5650403499603271,0.8544434309005737,1.385258674621582,-0.13902229070663452,-4.990020751953125,-15.225057601928711
3265472,-0.5751895904541016,0.8379120826721191,1.3833767175674438,0.12249484658241272,-4.985230922698975,-14.349798202514648
3265512,-0.5847266912460327,0.8186481595039368,1.3821619749069214,0.30695539712905884,-4.7303924560546875,-13.509721755981445
3265552,-0.5938066840171814,0.801756739616394,1.3808696269989014,0.4315681755542755,-4.695703983306885,-12.70040225982666
3265592,-0.6012945175170898,0.7826433777809143,1.3803887367248535,0.2075129747390747,-4.712153911590576,-11.719697952270508
3265632,-0.6106753945350647,0.7604494690895081,1.3796839714050293,0.16323800384998322,-4.83750057220459,-10.980985641479492
3265672,-0.6157477498054504,0.7478299140930176,1.3792892694473267,-0.21955955028533936,-4.924693584442139,-10.53640079498291
3265714,-0.6241293549537659,0.7251773476600647,1.3794300556182861,-0.6040447950363159,-4.584807395935059,-10.266467094421387
3265752,-0.6303427815437317,0.7147814035415649,1.3789122104644775,-0.9587026834487915,-4.704782962799072,-9.906005859375
3265792,-0.6368680596351624,0.6979362368583679,1.3780325651168823,-0.6221783757209778,-4.269667625427246,-9.523062705993652
3265832,-0.6429890990257263,0.6822714805603027,1.3778107166290283,-0.25780245661735535,-3.902848482131958,-9.486352920532227
3265872,-0.6470375657081604,0.6663787364959717,1.3800315856933594,-0.7775067090988159,-4.034830570220947,-9.048383712768555
3265912,-0.6510331630706787,0.6498400568962097,1.3825911283493042,-1.264192819595337,-4.359203815460205,-8.785587310791016
3265952,-0.6549347043037415,0.63286292552948,1.3836296796798706,-1.6055392026901245,-4.290903091430664,-8.304295539855957
3265992,-0.6595302820205688,0.6130324602127075,1.3841946125030518,-1.5143331289291382,-3.9897689819335938,-7.888160228729248
3266032,-0.6644769906997681,0.5944134593009949,1.384814977645874,-1.19117271900177,-3.7768096923828125,-7.342861175537109
3266072,-0.6695349216461182,0.578685998916626,1.386757254600525,-1.3798444271087646,-4.029616355895996,-6.9641828536987305
3266115,-0.6745017766952515,0.56297367811203,1.3884422779083252,-1.4512476921081543,-3.8594791889190674,-6.610377311706543
3266152,-0.6796686053276062,0.5456879734992981,1.3898450136184692,-1.44290030002594,-3.8527514934539795,-6.179663181304932
3266192,-0.6851765513420105,0.5279175639152527,1.3908816576004028,-1.5399078130722046,-3.6440038681030273,-5.9663543701171875
3266232,-0.6916221976280212,0.511573851108551,1.3907917737960815,-1.764383316040039,-3.3958024978637695,-5.780429363250732
3266272,-0.6975584626197815,0.4934273064136505,1.3902702331542969,-1.6081295013427734,-3.2618751525878906,-5.385140419006348
3266312,-0.7040688395500183,0.47680115699768066,1.388732671737671,-1.6483581066131592,-3.1801743507385254,-4.871158599853516
3266352,-0.7106778025627136,0.4579470157623291,1.3875740766525269,-1.3838320970535278,-2.864562511444092,-4.063798904418945
3266392,-0.7175376415252686,0.43683674931526184,1.3887989521026611,-1.7443366050720215,-3.1376752853393555,-3.709810972213745
3266432,-0.725682258605957,0.4179551899433136,1.3899548053741455,-2.2671430110931396,-3.3204801082611084,-3.380178451538086
3266472,-0.7332183122634888,0.39706456661224365,1.3909727334976196,-2.925323009490967,-3.3222744464874268,-3.1522579193115234
3266515,-0.7418598532676697,0.3796912729740143,1.3896656036376953,-3.2020959854125977,-3.097299575805664,-2.7599844932556152
3266552,-0.7489151358604431,0.3575483560562134,1.3900357484817505,-3.1562306880950928,-3.2638700008392334,-2.0674028396606445
3266592,-0.754497766494751,0.33270692825317383,1.3914366960525513,-2.9476125240325928,-3.348360538482666,-1.2823681831359863
3266632,-0.7604758739471436,0.30907103419303894,1.3931504487991333,-3.2935521602630615,-3.6990280151367188,-0.6253890991210938
3266672,-0.7656273245811462,0.28535211086273193,1.394431233406067,-3.3299081325531006,-3.904181957244873,0.15458756685256958
3266712,-0.7707753777503967,0.2627691626548767,1.3945213556289673,-3.5246949195861816,-4.216407299041748,0.924892008304596
3266752,-0.7719321846961975,0.2278926521539688,1.3950450420379639,-2.968355178833008,-4.196551322937012,2.087463617324829
3266792,-0.777302086353302,0.20757551491260529,1.3916927576065063,-2.8529250621795654,-4.277683734893799,3.3470442295074463
3266832,-0.7802708745002747,0.18316003680229187,1.3900129795074463,-3.012056827545166,-4.413046836853027,4.328721523284912
3266872,-0.7821701765060425,0.15708352625370026,1.3877308368682861,-2.865115165710449,-4.366928577423096,5.546629905700684
3266912,-0.7839295268058777,0.13260526955127716,1.3849389553070068,-2.9660701751708984,-4.14483642578125,6.636196136474609
3266952,-0.785291850566864,0.10876373946666718,1.38198721408844,-2.7988760471343994,-3.84562087059021,7.6383538246154785
3266992,-0.786101222038269,0.08668375760316849,1.379276990890503,-2.886258363723755,-3.834254503250122,8.764457702636719
3267033,-0.7846606373786926,0.060309089720249176,1.3768717050552368,-2.7119598388671875,-3.539522409439087,9.819840431213379
3267072,-0.7824524641036987,0.03565582260489464,1.3749860525131226,-2.52777361869812,-3.482612371444702,11.20433521270752
3267112,-0.7786069512367249,0.010713854804635048,1.3739463090896606,-2.4413139820098877,-3.5600953102111816,12.385276794433594
3267152,-0.7733864784240723,-0.013227181509137154,1.3739585876464844,-2.8819775581359863,-3.951200246810913,13.3709716796875
3267192,-0.766111433506012,-0.0371088944375515,1.373841643333435,-3.0606093406677246,-4.090075492858887,14.467031478881836
3267232,-0.7571139335632324,-0.06257713586091995,1.3726365566253662,-2.995331048965454,-4.2692694664001465,15.564535140991211
3267272,-0.7482845187187195,-0.08537556976079941,1.3712583780288696,-3.0906150341033936,-4.486772060394287,16.3889102935791
3267312,-0.7359821200370789,-0.11101388931274414,1.3698614835739136,-2.4974892139434814,-4.61014986038208,17.58171844482422
3267352,-0.7242842316627502,-0.13356143236160278,1.3678098917007446,-2.211162567138672,-4.866055488586426,18.73539161682129
3267392,-0.7120476961135864,-0.15457411110401154,1.3661490678787231,-1.9832547903060913,-5.002316951751709,19.677709579467773
3267433,-0.7001791596412659,-0.172871932387352,1.3656147718429565,-1.9508378505706787,-5.279836177825928,20.4487247467041
3267472,-0.6804878115653992,-0.20059818029403687,1.3654870986938477,-2.2090518474578857,-5.727321624755859,21.833383560180664
3267512,-0.663966953754425,-0.22248803079128265,1.3644016981124878,-2.0268867015838623,-6.331697940826416,22.346982955932617
3267552,-0.6482841372489929,-0.24265623092651367,1.3619149923324585,-1.8598992824554443,-6.417256832122803,22.42934226989746
3267592,-0.6331164836883545,-0.2610917389392853,1.3589494228363037,-1.617256760597229,-6.4424591064453125,22.67596435546875
3267633,-0.6192547678947449,-0.2776820957660675,1.357372760772705,-1.49407958984375,-6.616169452667236,22.86115837097168
3267672,-0.597598671913147,-0.30260300636291504,1.3548896312713623,-2.081594705581665,-6.249314785003662,22.94005584716797
3267712,-0.579822838306427,-0.32449012994766235,1.3530477285385132,-2.2327752113342285,-6.23429012298584,22.940814971923828
3267752,-0.5614755153656006,-0.34877151250839233,1.3516261577606201,-1.9534634351730347,-5.997822284698486,22.968505859375
3267792,-0.5451560020446777,-0.3700421452522278,1.3498151302337646,-1.9763178825378418,-5.780659198760986,23.144140243530273
3267833,-0.5272589325904846,-0.39301490783691406,1.3507424592971802,-1.6956151723861694,-5.771544456481934,23.47726058959961
3267872,-0.5086091160774231,-0.4145399332046509,1.3509137630462646,-1.997902750968933,-6.0053277015686035,24.34023094177246
3267912,-0.48682305216789246,-0.4392082989215851,1.352632999420166,-2.3530609607696533,-6.4384307861328125,25.03061294555664
3267952,-0.46486225724220276,-0.46384358406066895,1.354013442993164,-2.629190444946289,-6.182512283325195,26.212451934814453
3267992,-0.44305434823036194,-0.4873063862323761,1.354432225227356,-2.391231060028076,-6.390000820159912,27.44051170349121
3268033,-0.42341387271881104,-0.506675660610199,1.3539789915084839,-2.3358864784240723,-6.271238803863525,28.93449592590332
3268072,-0.4022356867790222,-0.5267655253410339,1.3551701307296753,-2.991187810897827,-6.30316162109375,29.82176971435547
3268112,-0.38030946254730225,-0.5472469925880432,1.3560017347335815,-3.5038177967071533,-6.116602897644043,30.613859176635742
3268152,-0.35867130756378174,-0.5673323273658752,1.3558529615402222,-3.4327850341796875,-5.7090888023376465,31.792667388916016
3268192,-0.338076651096344,-0.5857048034667969,1.3564902544021606,-4.0879807472229,-5.628961563110352,32.81314468383789
3268233,-0.31718340516090393,-0.6042941808700562,1.3578296899795532,-4.273774147033691,-5.209125995635986,33.6702880859375
3268272,-0.2974402606487274,-0.6201509833335876,1.3588812351226807,-4.967852592468262,-5.261674404144287,34.6170654296875
3268312,-0.2733999490737915,-0.6392765045166016,1.3611422777175903,-4.543156623840332,-5.001502513885498,36.00718688964844
3268352,-0.24997255206108093,-0.6560437679290771,1.3640406131744385,-4.420047760009766,-5.112011432647705,37.755977630615234
3268392,-0.22629483044147491,-0.671874463558197,1.368058443069458,-4.0769362449646,-5.319197654724121,39.710750579833984
3268434,-0.20530587434768677,-0.6848783493041992,1.3718520402908325,-4.920576095581055,-5.546912670135498,40.97419738769531
3268472,-0.18232251703739166,-0.6994774341583252,1.3750449419021606,-4.809432029724121,-5.5491485595703125,42.40565872192383
3268512,-0.1572391390800476,-0.7149991393089294,1.3781644105911255,-4.380381107330322,-5.978731632232666,44.4262809753418
3268552,-0.13363249599933624,-0.7289056777954102,1.38046133518219,-4.474046230316162,-6.1655683517456055,45.75871276855469
3268592,-0.10934402048587799,-0.7433322668075562,1.3834010362625122,-4.676359176635742,-6.400683403015137,47.35776138305664
3268634,-0.08574533462524414,-0.7570233345031738,1.3851877450942993,-4.277771472930908,-6.5111002922058105,49.11699295043945
3268672,-0.06308238208293915,-0.7702890038490295,1.3869538307189941,-4.046091556549072,-6.810675621032715,50.60487365722656
3268712,-0.04320767894387245,-0.7807174324989319,1.3872846364974976,-4.544776439666748,-6.736377239227295,51.938446044921875
3268752,-0.021647348999977112,-0.7937058806419373,1.3892815113067627,-5.071551322937012,-6.843310832977295,53.079017639160156
3268792,0.0007402496412396431,-0.8087092638015747,1.3916269540786743,-5.174173355102539,-6.7713727951049805,54.22996520996094
3268834,0.02197735197842121,-0.8230648040771484,1.392640471458435,-5.128124713897705,-6.713291168212891,55.253684997558594
3268872,0.043210357427597046,-0.8374049067497253,1.3936394453048706,-5.116690158843994,-6.649341583251953,56.1473503112793
3268912,0.06286634504795074,-0.8482959866523743,1.393120527267456,-5.680288314819336,-6.897966384887695,57.12346649169922
3268952,0.08509673178195953,-0.8609464764595032,1.3931745290756226,-6.4744062423706055,-7.28922176361084,58.08208084106445
3268992,0.10940530151128769,-0.8759865164756775,1.3925749063491821,-5.94748067855835,-6.689513683319092,59.213619232177734
3269034,0.1327192783355713,-0.8860509991645813,1.3884118795394897,-5.886890411376953,-6.403719902038574,59.988121032714844
3269072,0.15619978308677673,-0.8942759037017822,1.3855472803115845,-6.617649078369141,-6.163385391235352,60.77592086791992
3269112,0.17700448632240295,-0.9022786617279053,1.3836476802825928,-6.926685333251953,-6.122885704040527,62.10649108886719
3269152,0.20264530181884766,-0.9085006713867188,1.3781726360321045,-6.188146591186523,-6.336354732513428,63.67414855957031
3269192,0.2294798046350479,-0.9133610129356384,1.3722398281097412,-6.176168441772461,-6.5356316566467285,64.64813995361328
3269234,0.25507742166519165,-0.9169299602508545,1.3672335147857666,-6.5729594230651855,-6.788552761077881,65.8350601196289
3269272,0.28274837136268616,-0.918975293636322,1.359950304031372,-6.027383327484131,-6.144771099090576,67.49185180664062
3269312,0.3097149133682251,-0.9186559319496155,1.3534079790115356,-5.690110206604004,-5.863562107086182,68.90511322021484
3269352,0.3345244526863098,-0.9178985953330994,1.3489404916763306,-5.2644853591918945,-5.449173450469971,69.51488494873047
3269392,0.35435399413108826,-0.9149125218391418,1.3463752269744873,-5.5521063804626465,-5.513895034790039,70.41338348388672
3269435,0.378908634185791,-0.9095573425292969,1.3446537256240845,-5.969403266906738,-5.695518493652344,71.12213134765625
3269472,0.39871838688850403,-0.906028687953949,1.3437424898147583,-5.933367729187012,-5.3907647132873535,71.56591033935547
3269512,0.4230182468891144,-0.898162305355072,1.340865135192871,-5.75327730178833,-5.226280212402344,71.9774169921875
3269552,0.4415738582611084,-0.8890369534492493,1.3385252952575684,-5.945069789886475,-4.988210678100586,71.88761901855469
3269592,0.4655342102050781,-0.8784725069999695,1.3380682468414307,-6.219623565673828,-4.785679817199707,71.66303253173828
3269635,0.48889830708503723,-0.8654826879501343,1.3366799354553223,-6.061788082122803,-4.4922966957092285,71.34864044189453
3269672,0.5131478905677795,-0.8541132211685181,1.3384287357330322,-5.496012210845947,-4.514914035797119,71.04590606689453
3269712,0.5340728759765625,-0.8475741744041443,1.3480583429336548,-4.751762390136719,-4.270389080047607,70.73817443847656
3269752,0.5554571747779846,-0.8345159888267517,1.349711537361145,-4.844359874725342,-3.9807920455932617,70.80582427978516
3269792,0.5789355635643005,-0.8252379298210144,1.3562740087509155,-4.873593330383301,-3.4828896522521973,70.83301544189453
3269835,0.6032372117042542,-0.8138384222984314,1.36051607131958,-4.918054580688477,-3.165045738220215,70.89452362060547
3269872,0.6273831725120544,-0.801360547542572,1.3622162342071533,-5.232022762298584,-2.9949700832366943,70.89002227783203
3269912,0.6528744697570801,-0.7886026501655579,1.3636038303375244,-5.136923789978027,-2.7605810165405273,71.3204116821289
3269952,0.6795991659164429,-0.7763750553131104,1.3675050735473633,-4.347777366638184,-2.687258243560791,72.23319244384766
3269992,0.7057614922523499,-0.7603040933609009,1.3671759366989136,-4.062474727630615,-2.6108052730560303,72.94474029541016
3270032,0.7313270568847656,-0.7427053451538086,1.3680365085601807,-4.3769450187683105,-2.9121131896972656,74.56620788574219
3270072,0.7568259835243225,-0.7258366942405701,1.3721705675125122,-5.346105098724365,-3.398561716079712,75.63153839111328
3270112,0.7818546891212463,-0.7104219794273376,1.377112865447998,-5.237119197845459,-3.2818148136138916,76.95215606689453
3270152,0.8073840737342834,-0.693290650844574,1.3806160688400269,-5.265113830566406,-3.481963634490967,78.72007751464844
3270192,0.831359326839447,-0.6760022640228271,1.3833634853363037,-4.879345893859863,-3.5973994731903076,80.29722595214844
3270232,0.8535698056221008,-0.6572752594947815,1.385802149772644,-4.823031425476074,-4.0169196128845215,81.65133666992188
3270272,0.8751708269119263,-0.6377394795417786,1.3908544778823853,-5.337742805480957,-4.525902271270752,82.8637466430664
3270312,0.8965844511985779,-0.6167141199111938,1.3952796459197998,-5.421670436859131,-4.866104602813721,84.56012725830078
3270352,0.9167337417602539,-0.5942684412002563,1.3980402946472168,-5.6684675216674805,-5.35385274887085,85.99690246582031
3270392,0.9360816478729248,-0.5707744359970093,1.3994966745376587,-4.961909294128418,-5.60373592376709,87.60185241699219
3270432,0.9537297487258911,-0.5464195609092712,1.4006175994873047,-4.809875011444092,-6.114925384521484,89.09073638916016
3270472,0.970740020275116,-0.5204195976257324,1.4024585485458374,-4.427365303039551,-6.492149829864502,90.44683074951172
3270512,0.986217737197876,-0.4942767024040222,1.4055289030075073,-4.708716869354248,-7.077560901641846,91.57720947265625
3270553,1.001208782196045,-0.46870774030685425,1.4061572551727295,-4.749316692352295,-7.036206245422363,92.64407348632812
3270592,1.0164049863815308,-0.4425502121448517,1.4059184789657593,-4.788568019866943,-7.197200298309326,93.43683624267578
3270632,1.031491994857788,-0.416933536529541,1.4046320915222168,-4.466243743896484,-6.896579265594482,94.47531127929688
3270672,1.0467650890350342,-0.39110326766967773,1.405081033706665,-4.1478071212768555,-6.7726263999938965,96.01292419433594
3270712,1.0606392621994019,-0.365036278963089,1.4061753749847412,-4.106330871582031,-6.483240604400635,96.88956451416016
3270752,1.073872447013855,-0.3393881022930145,1.4070265293121338,-4.0028581619262695,-6.2550249099731445,97.44623565673828
3270792,1.0852766036987305,-0.31539440155029297,1.409733533859253,-3.824998378753662,-6.0984110832214355,98.44216918945312
3270832,1.0956324338912964,-0.29123374819755554,1.4114574193954468,-4.206001281738281,-6.13174295425415,98.95614624023438
3270872,1.1044175624847412,-0.268841415643692,1.4135507345199585,-3.7479820251464844,-6.0463643074035645,100.11420440673828
3270912,1.1138033866882324,-0.24350830912590027,1.4126296043395996,-3.1948049068450928,-5.543375015258789,100.86065673828125
3270953,1.1216806173324585,-0.21919302642345428,1.411507487297058,-3.040968179702759,-5.089958667755127,100.90728759765625
3270992,1.1281514167785645,-0.19561439752578735,1.4109114408493042,-2.8195793628692627,-4.492369651794434,101.26337432861328
3271032,1.133689284324646,-0.17204362154006958,1.4097970724105835,-3.255521535873413,-4.516190052032471,101.43254852294922
3271072,1.1374669075012207,-0.14990092813968658,1.4074119329452515,-3.2808029651641846,-3.417245388031006,101.57717895507812
3271112,1.142942190170288,-0.12389225512742996,1.401862621307373,-3.124376058578491,-2.1245994567871094,101.66741180419922
3271154,1.1485742330551147,-0.09788432717323303,1.3969045877456665,-2.898092031478882,-1.165353775024414,101.92288208007812
3271192,1.1553864479064941,-0.06878621131181717,1.391163945198059,-2.6641910076141357,-1.1277248859405518,102.4354248046875
3271232,1.1596816778182983,-0.042889099568128586,1.3855326175689697,-1.78501296043396,-1.2204161882400513,103.14179992675781
3271272,1.1616891622543335,-0.01816021278500557,1.3798695802688599,-1.6219780445098877,-1.0859010219573975,103.5927505493164
3271312,1.161505937576294,0.005645465571433306,1.373787760734558,-1.6296848058700562,-0.6652184128761292,103.74034881591797
3271353,1.160254955291748,0.02814307063817978,1.368013858795166,-1.7340750694274902,-0.5770391821861267,103.73426818847656
3271392,1.1580582857131958,0.04922846332192421,1.3623137474060059,-1.506803274154663,-0.27604204416275024,104.20613098144531
3271432,1.1553136110305786,0.0682445615530014,1.3569480180740356,-1.4129254817962646,-0.36741581559181213,104.11363220214844
3271472,1.1514967679977417,0.08559305220842361,1.3516132831573486,-1.281755805015564,-0.11927977204322815,103.93087768554688
3271512,1.1485110521316528,0.10353849083185196,1.3462296724319458,-1.0138914585113525,-0.05127212405204773,104.46202087402344
3271554,1.1456122398376465,0.12000488489866257,1.3412518501281738,-0.744648277759552,-0.26222890615463257,104.64803314208984
3271592,1.1420259475708008,0.1345715969800949,1.3370068073272705,-0.24895736575126648,-0.34866154193878174,104.81253814697266
3271632,1.1389694213867188,0.14647938311100006,1.3342266082763672,-0.18296995759010315,-0.40388479828834534,104.87642669677734
3271672,1.1362742185592651,0.1563863456249237,1.33243989944458,0.1356273889541626,-0.7005636096000671,105.40953826904297
3271712,1.1343885660171509,0.16506743431091309,1.3305461406707764,0.31217607855796814,-0.44909247756004333,105.50674438476562
3271753,1.133196234703064,0.1735619306564331,1.3292611837387085,0.6413605213165283,-0.5041801333427429,106.11676025390625
3271792,1.1309996843338013,0.1793307662010193,1.3297497034072876,0.8677254319190979,-0.4997427761554718,106.27608489990234
3271832,1.1288272142410278,0.1854049414396286,1.3305273056030273,0.6977453827857971,-0.1584033966064453,105.6510238647461
3271872,1.1261836290359497,0.19056467711925507,1.3330165147781372,0.453594446182251,-0.5682399868965149,106.13395690917969
3271912,1.1239373683929443,0.19289182126522064,1.3344939947128296,0.17349906265735626,-0.5622751712799072,106.23614501953125
3271952,1.1213322877883911,0.19756843149662018,1.3349865674972534,-0.10467801243066788,-0.7893875241279602,106.43307495117188
3271992,1.1179804801940918,0.19995522499084473,1.3345824480056763,-0.24410665035247803,-0.4166755974292755,106.32366943359375
3272032,1.114324927330017,0.20390009880065918,1.3331807851791382,-0.276516854763031,-0.044308096170425415,106.386962890625
3272072,1.112889289855957,0.2075740098953247,1.3328251838684082,-0.45039182901382446,-0.03212030604481697,106.3001480102539
3272112,1.1114639043807983,0.2128436118364334,1.3321377038955688,-0.8768909573554993,0.09547241032123566,106.68891906738281
3272155,1.110033392906189,0.21906989812850952,1.3313482999801636,-0.8508308529853821,-0.23735393583774567,106.98308563232422
3272192,1.1090651750564575,0.2214495688676834,1.3311359882354736,-0.871650755405426,-0.3416482210159302,106.98754119873047
3272232,1.1076868772506714,0.22396092116832733,1.3311705589294434,-1.1068545579910278,-0.5831027626991272,107.0633544921875
3272273,1.104853868484497,0.22287744283676147,1.3321160078048706,-1.492588758468628,-0.6038095951080322,106.8005142211914
3272312,1.1036914587020874,0.22180595993995667,1.3323911428451538,-1.4330676794052124,-0.4581417441368103,106.93192291259766
3272352,1.103399395942688,0.22179017961025238,1.3321831226348877,-1.5098000764846802,-0.5481149554252625,107.13654327392578
3272392,1.103826880455017,0.2223462611436844,1.3315246105194092,-1.390517234802246,-0.5036742091178894,107.13773345947266
3272432,1.1043858528137207,0.2228151261806488,1.3311164379119873,-1.499244213104248,-0.5236982107162476,107.26997375488281
3272472,1.1046369075775146,0.22265057265758514,1.3307369947433472,-1.688598871231079,-0.6223632097244263,106.9835433959961
3272512,1.104440689086914,0.22148652374744415,1.330868124961853,-1.8395271301269531,-0.41334038972854614,107.07250213623047
3272555,1.104543924331665,0.220990851521492,1.3310675621032715,-2.3023667335510254,-0.39077264070510864,107.26036834716797
3272592,1.105239987373352,0.22153998911380768,1.3305045366287231,-2.5353376865386963,-0.35668572783470154,107.2933120727539
3272632,1.1059627532958984,0.2219572216272354,1.3293566703796387,-2.5851118564605713,-0.3145585060119629,107.25083923339844
3272672,1.106328010559082,0.2210848480463028,1.32843816280365,-2.6789710521698,-0.22731484472751617,107.30663299560547
3272712,1.107101321220398,0.22128061950206757,1.326956033706665,-2.743361234664917,-0.12290728837251663,107.09571838378906
3272752,1.1076420545578003,0.2212299406528473,1.3256862163543701,-2.917762517929077,-0.05650945380330086,107.13329315185547
3272792,1.1088529825210571,0.22298049926757812,1.3238229751586914,-3.134758949279785,0.04825817421078682,106.92098236083984
