Timestamp,stateEstimate.x,stateEstimate.y,stateEstimate.z,stateEstimate.roll,stateEstimate.pitch,stateEstimate.yaw
801833,-0.2959732115268707,-0.08082063496112823,0.8321731686592102,-5.811971664428711,-2.5164849758148193,-3.3135406970977783
801873,-0.2957693934440613,-0.0807286947965622,0.832204282283783,-5.883316516876221,-2.795513868331909,-3.578659772872925
801913,-0.29570773243904114,-0.08039292693138123,0.8311236500740051,-5.79262113571167,-2.3855860233306885,-3.7563140392303467
801953,-0.2957010865211487,-0.08046412467956543,0.8300352096557617,-5.595658779144287,-2.185180902481079,-4.001508712768555
801993,-0.2953047454357147,-0.08159252256155014,0.8301273584365845,-5.301102161407471,-2.100386381149292,-3.485607862472534
802033,-0.2951507568359375,-0.08150511980056763,0.8306952118873596,-5.380726337432861,-2.366048574447632,-3.5177292823791504
802073,-0.2949759364128113,-0.08199470490217209,0.8321481943130493,-5.347319602966309,-2.3979716300964355,-3.4401512145996094
802114,-0.2947872281074524,-0.08203811198472977,0.8337693810462952,-5.50239372253418,-2.8480851650238037,-3.348114013671875
802153,-0.2945595681667328,-0.08159346878528595,0.8337693810462952,-5.395442485809326,-2.8044662475585938,-3.7430920600891113
802193,-0.2939564287662506,-0.0823032408952713,0.8333404660224915,-4.907689571380615,-2.476485252380371,-3.8490021228790283
802233,-0.29297176003456116,-0.08260466158390045,0.8341518640518188,-5.055169582366943,-3.053126573562622,-3.0911927223205566
802273,-0.2923317849636078,-0.08301583677530289,0.8349061608314514,-5.172312259674072,-3.1340067386627197,-3.399526357650757
802314,-0.2917064130306244,-0.08382876217365265,0.8348968029022217,-5.2907562255859375,-3.2885990142822266,-3.668095350265503
802353,-0.2906748056411743,-0.08515898883342743,0.8337545990943909,-5.060594081878662,-3.040480852127075,-3.289881467819214
802393,-0.28970208764076233,-0.08608800172805786,0.8323819637298584,-4.981188774108887,-2.699815273284912,-2.7209932804107666
802433,-0.28920307755470276,-0.08599760383367538,0.832019567489624,-5.197470188140869,-2.864081382751465,-2.859355926513672
802473,-0.28878140449523926,-0.0861361175775528,0.8318789601325989,-5.161606311798096,-2.7008285522460938,-2.957653284072876
802515,-0.2884090542793274,-0.08609984815120697,0.8322929739952087,-5.214200496673584,-2.951176881790161,-2.936546564102173
802553,-0.2880472242832184,-0.08616746217012405,0.8325751423835754,-5.3237080574035645,-3.176614761352539,-2.879305601119995
802593,-0.2878951132297516,-0.08594360202550888,0.8318930268287659,-5.150186061859131,-2.9424827098846436,-3.229686975479126
802633,-0.2876006066799164,-0.085953488945961,0.8313432335853577,-4.958543300628662,-2.9544005393981934,-3.1765544414520264
802673,-0.28742825984954834,-0.08579500019550323,0.8315305113792419,-5.079777240753174,-3.211756706237793,-2.6462602615356445
802715,-0.28774788975715637,-0.08564668893814087,0.8317016363143921,-5.073014736175537,-2.945936441421509,-3.1224241256713867
802753,-0.28824180364608765,-0.08542836457490921,0.832148015499115,-5.013255596160889,-3.0419299602508545,-3.0869293212890625
802793,-0.2885173559188843,-0.08590169250965118,0.8330771923065186,-4.915137767791748,-3.0665597915649414,-3.1598081588745117
802833,-0.28874513506889343,-0.08664637804031372,0.8335229158401489,-4.805035591125488,-3.3632211685180664,-3.1906967163085938
802873,-0.28880277276039124,-0.0884372889995575,0.8338874578475952,-4.588051795959473,-3.173964500427246,-2.883601665496826
802914,-0.2882786691188812,-0.09092139452695847,0.8350706696510315,-4.640279769897461,-3.746992826461792,-2.3919646739959717
802953,-0.28758394718170166,-0.0922846570611,0.8349880576133728,-4.489685535430908,-3.915299415588379,-1.9797978401184082
802993,-0.2872353196144104,-0.09313509613275528,0.8350464701652527,-4.513756275177002,-3.89692759513855,-1.7198890447616577
803033,-0.2872973680496216,-0.09296983480453491,0.835898220539093,-4.4145121574401855,-4.231342315673828,-2.153315305709839
803073,-0.2869589924812317,-0.09313344210386276,0.8369582891464233,-4.449366092681885,-4.581744194030762,-1.344788670539856
803115,-0.28757551312446594,-0.09230391681194305,0.8375272750854492,-4.338265895843506,-4.514159679412842,-1.8090617656707764
803153,-0.2884802520275116,-0.09114351868629456,0.8380476832389832,-4.175499439239502,-4.6608662605285645,-2.337026834487915
803193,-0.28849759697914124,-0.09107498079538345,0.8380942940711975,-4.407846927642822,-5.151282787322998,-2.0412757396698
803233,-0.28836873173713684,-0.09066618978977203,0.8351749777793884,-3.834218740463257,-4.553295612335205,-2.0140814781188965
803273,-0.28827399015426636,-0.09119309484958649,0.8333642482757568,-3.576634407043457,-4.270381927490234,-1.7611503601074219
803315,-0.2881283760070801,-0.09144899249076843,0.8336517214775085,-3.618806838989258,-4.536293029785156,-1.5433032512664795
803353,-0.2881860136985779,-0.09210316091775894,0.8341286778450012,-3.305935859680176,-4.595289707183838,-1.6719768047332764
803393,-0.2879016697406769,-0.09352046251296997,0.8349482417106628,-3.176908254623413,-4.801701545715332,-1.324294090270996
803433,-0.2875034213066101,-0.09499014914035797,0.8353070616722107,-2.952634572982788,-4.687459468841553,-1.0152684450149536
803473,-0.28730806708335876,-0.09633389860391617,0.8366443514823914,-2.830077648162842,-4.949617862701416,-0.7252355217933655
803513,-0.2872663736343384,-0.09717073291540146,0.8382405042648315,-2.8367722034454346,-5.105859279632568,-0.5658045411109924
803553,-0.28741756081581116,-0.09775125980377197,0.8399214148521423,-2.8889200687408447,-5.290536403656006,-0.7804508209228516
803593,-0.2874826490879059,-0.09800244122743607,0.8410906195640564,-2.851569652557373,-5.344905376434326,-0.5755759477615356
803633,-0.28753459453582764,-0.09787409007549286,0.8417830467224121,-2.87039852142334,-5.432219505310059,-0.5668054819107056
803673,-0.28790387511253357,-0.09702517092227936,0.842721164226532,-2.930483341217041,-5.531044006347656,-0.9065828323364258
803715,-0.2880086898803711,-0.09668467193841934,0.8433772325515747,-2.95963454246521,-5.65546989440918,-0.9058797359466553
803753,-0.2880721092224121,-0.09616287052631378,0.8434395790100098,-2.948148250579834,-5.755485534667969,-0.9428935050964355
803793,-0.2882406711578369,-0.0956793799996376,0.8436332941055298,-2.9100258350372314,-5.728662967681885,-1.0170766115188599
803833,-0.28831812739372253,-0.09542648494243622,0.8437665104866028,-3.0946836471557617,-5.967089653015137,-1.256666898727417
803873,-0.288238525390625,-0.09520608931779861,0.8427359461784363,-2.8714559078216553,-5.729288101196289,-1.1927447319030762
803913,-0.2878948748111725,-0.09566734731197357,0.8422306776046753,-3.00891375541687,-5.788788318634033,-0.8799898028373718
803953,-0.28798913955688477,-0.09476596862077713,0.8413737416267395,-3.021256685256958,-5.629083633422852,-1.1260441541671753
803993,-0.28786543011665344,-0.09477560222148895,0.8412386775016785,-3.1947078704833984,-5.734344482421875,-1.2804453372955322
804033,-0.2874901294708252,-0.0947912186384201,0.8402866125106812,-3.0421788692474365,-5.525628089904785,-1.1467320919036865
804073,-0.28622502088546753,-0.09394964575767517,0.8383975625038147,-2.935459613800049,-5.298707008361816,-1.0740962028503418
804115,-0.2852267026901245,-0.09323439002037048,0.8370471000671387,-2.445791482925415,-4.988203048706055,-1.107913851737976
804153,-0.2842738926410675,-0.09202022105455399,0.8357978463172913,-2.5215561389923096,-5.485824108123779,-1.2381261587142944
804193,-0.28282564878463745,-0.09332051128149033,0.8330441117286682,-0.5599688291549683,-4.9192070960998535,-0.8911929130554199
804233,-0.28114697337150574,-0.09453095495700836,0.8310784101486206,-0.47029024362564087,-5.295413017272949,0.16385550796985626
804273,-0.2796151638031006,-0.09541308134794235,0.8274458646774292,1.239074468612671,-5.310155868530273,0.6821283102035522
804313,-0.27891620993614197,-0.09643028676509857,0.8250588178634644,2.0838935375213623,-4.88592004776001,1.6102046966552734
804353,-0.27992382645606995,-0.09393958747386932,0.8246056437492371,0.7357347011566162,-4.509587287902832,1.7398850917816162
804393,-0.28240665793418884,-0.0918060690164566,0.8248389959335327,0.751363217830658,-4.068722724914551,-1.5141218900680542
804433,-0.2832518219947815,-0.09271348267793655,0.8253868222236633,-0.05321349576115608,-3.8491170406341553,-2.0572915077209473
804473,-0.2812750041484833,-0.0966104194521904,0.825502872467041,0.6532196998596191,-3.4330170154571533,0.8109906911849976
804513,-0.28032436966896057,-0.09611930698156357,0.8267310261726379,-0.5693646669387817,-3.3093912601470947,2.254560708999634
804553,-0.2813522517681122,-0.09263456612825394,0.8303924798965454,-1.7576392889022827,-3.5711915493011475,-0.6945273280143738
804593,-0.28152650594711304,-0.091649129986763,0.8323237299919128,-2.0675160884857178,-3.4570062160491943,-2.4754598140716553
804634,-0.279482364654541,-0.09291867911815643,0.8334419131278992,-1.7428359985351562,-3.381903886795044,-0.4256882667541504
804673,-0.27718785405158997,-0.09046269953250885,0.8365773558616638,-1.485262155532837,-3.433013677597046,1.1526188850402832
804713,-0.27720215916633606,-0.08558979630470276,0.840149998664856,-2.108402967453003,-2.954796314239502,-1.2061882019042969
804753,-0.27632036805152893,-0.07949230819940567,0.8446502685546875,-1.880289912223816,-2.790127992630005,-3.0412371158599854
804793,-0.2732005715370178,-0.07426829636096954,0.8505755662918091,-1.9709769487380981,-3.2450106143951416,-2.410092353820801
804834,-0.2695547342300415,-0.06941037625074387,0.8551636338233948,-1.5853403806686401,-2.718456745147705,-2.5954670906066895
804873,-0.26551011204719543,-0.06269795447587967,0.8600069880485535,-1.0396170616149902,-2.270911693572998,-2.7551324367523193
804913,-0.26049238443374634,-0.0553179532289505,0.8666252493858337,-1.8947803974151611,-2.526165008544922,-3.626450777053833
804953,-0.2548540234565735,-0.047666434198617935,0.870806097984314,-1.4057209491729736,-1.200918197631836,-4.276484489440918
804993,-0.24808131158351898,-0.039802778512239456,0.8773629069328308,-1.5439852476119995,-1.7164490222930908,-4.481359481811523
805034,-0.24036139249801636,-0.031808167695999146,0.8828361630439758,-1.240342140197754,-1.728226900100708,-4.567030429840088
805073,-0.2324550598859787,-0.02267199568450451,0.886702835559845,-1.042595386505127,-1.4680564403533936,-4.614500045776367
805113,-0.22269079089164734,-0.014162140898406506,0.8908475637435913,-0.9511284232139587,-1.1234787702560425,-4.522487163543701
805153,-0.2135240137577057,-0.0038842447102069855,0.8936978578567505,-0.6493704319000244,-0.5424350500106812,-3.903813600540161
805193,-0.2046680748462677,0.006518583744764328,0.8980738520622253,-0.8814034461975098,-0.5598271489143372,-4.559531211853027
805234,-0.19582116603851318,0.01674511656165123,0.9010382890701294,-1.1120352745056152,-0.1739816665649414,-4.904580593109131
805273,-0.1857243925333023,0.026179306209087372,0.9037198424339294,-0.966474175453186,0.2736451327800751,-4.957431316375732
805313,-0.1751461625099182,0.03589171916246414,0.90697181224823,-1.136106014251709,0.6736127734184265,-4.568198204040527
805353,-0.16512607038021088,0.04674233868718147,0.9101933836936951,-1.071070671081543,0.6546976566314697,-4.8707194328308105
805393,-0.1552400141954422,0.05770463868975639,0.9133496284484863,-1.0367645025253296,1.2018786668777466,-5.257789134979248
805435,-0.14593371748924255,0.0696713998913765,0.9158856868743896,-1.2604351043701172,1.4177755117416382,-5.876454830169678
805473,-0.13567736744880676,0.08190014213323593,0.9176719188690186,-1.1123154163360596,1.8264719247817993,-6.000207424163818
805513,-0.12479020655155182,0.09393487125635147,0.9198516011238098,-0.9365835785865784,1.7151342630386353,-6.243593215942383
805553,-0.1140633225440979,0.10633734613656998,0.9207239151000977,-0.3958633244037628,2.6870474815368652,-6.358996868133545
805593,-0.10339847207069397,0.11926218122243881,0.9241710305213928,-0.9476724863052368,2.355860710144043,-6.817723751068115
805635,-0.09392574429512024,0.1316690891981125,0.9260837435722351,-0.9645132422447205,2.883227825164795,-7.473092079162598
805673,-0.08383163064718246,0.14394965767860413,0.9282057881355286,-1.0532045364379883,2.4722588062286377,-7.620573997497559
805713,-0.07371603697538376,0.15596555173397064,0.9300621747970581,-0.9083350896835327,2.9499144554138184,-8.009207725524902
805753,-0.06414707750082016,0.16830521821975708,0.9321709871292114,-1.109082818031311,2.864574670791626,-8.644547462463379
805793,-0.05443570390343666,0.18026156723499298,0.9345261454582214,-1.3817826509475708,2.9930622577667236,-8.815394401550293
805835,-0.04563933610916138,0.19234830141067505,0.9364323019981384,-1.2010703086853027,2.950711250305176,-9.100337028503418
805873,-0.03675571456551552,0.20479334890842438,0.9386730194091797,-0.9706411957740784,3.167374849319458,-8.985566139221191
805913,-0.028825273737311363,0.21941182017326355,0.9418400526046753,-0.6621475219726562,3.1506240367889404,-8.940030097961426
805953,-0.022310301661491394,0.23494881391525269,0.9459878206253052,-0.7786498665809631,2.928196430206299,-9.510732650756836
805993,-0.016070988029241562,0.2510714530944824,0.9493423700332642,-0.7739025950431824,3.512688159942627,-10.334785461425781
806035,-0.010259091854095459,0.2664787471294403,0.9536710977554321,-1.4574718475341797,3.396955966949463,-11.260931968688965
806073,-0.0034468751400709152,0.2814878821372986,0.9571674466133118,-0.8574258089065552,3.8028345108032227,-12.033524513244629
806113,0.003935814369469881,0.29635655879974365,0.9627506732940674,-1.7473437786102295,3.5779311656951904,-12.179171562194824
806153,0.012112190946936607,0.3100815415382385,0.9684568047523499,-2.5366122722625732,3.3074190616607666,-12.747259140014648
806193,0.020950473845005035,0.32293903827667236,0.9731457829475403,-1.8917930126190186,3.4323580265045166,-12.066879272460938
806233,0.029108621180057526,0.33851081132888794,0.9789881706237793,-3.071324586868286,2.433676242828369,-12.279986381530762
806273,0.037020936608314514,0.35573795437812805,0.9828441143035889,-1.4701663255691528,2.702008008956909,-13.287335395812988
806313,0.04555623233318329,0.37360337376594543,0.9890545010566711,-2.373664379119873,2.340204954147339,-13.024798393249512
806353,0.053622014820575714,0.3927256762981415,0.9949277639389038,-1.5414263010025024,2.2246742248535156,-13.985328674316406
806393,0.062247730791568756,0.41142186522483826,1.0021703243255615,-2.2841010093688965,1.9853147268295288,-13.952823638916016
806435,0.07084843516349792,0.43050405383110046,1.0088711977005005,-2.395394802093506,2.0197994709014893,-14.76896858215332
806473,0.08048749715089798,0.4488442838191986,1.0171340703964233,-3.253927230834961,1.825642466545105,-14.98224925994873
806513,0.09152018278837204,0.4678786098957062,1.0247442722320557,-3.5921645164489746,1.5971996784210205,-16.216644287109375
806553,0.10343758761882782,0.48455360531806946,1.030985713005066,-3.2454895973205566,1.3980458974838257,-15.891402244567871
806593,0.11586172133684158,0.5013151168823242,1.0368173122406006,-3.924170970916748,0.7693209648132324,-16.668607711791992
806633,0.126990407705307,0.5123910903930664,1.0411229133605957,-2.9624617099761963,1.7013320922851562,-16.518123626708984
806673,0.14052996039390564,0.5291932821273804,1.047034502029419,-3.729886293411255,0.4575056731700897,-16.731464385986328
806713,0.15509678423404694,0.544806718826294,1.052506685256958,-3.3636739253997803,0.24491405487060547,-17.985870361328125
806753,0.17032204568386078,0.5579188466072083,1.0576138496398926,-3.791304111480713,-0.16852787137031555,-17.52556800842285
806793,0.18569548428058624,0.5725193619728088,1.0627131462097168,-3.486048460006714,-0.47147735953330994,-18.704395294189453
806833,0.20134033262729645,0.5855890512466431,1.0671818256378174,-3.9177322387695312,-0.7647638916969299,-18.781339645385742
806873,0.21638734638690948,0.5996514558792114,1.0708425045013428,-4.006854057312012,-1.177558422088623,-20.30722427368164
806913,0.22809292376041412,0.6076802611351013,1.0742778778076172,-3.2435078620910645,-1.0158981084823608,-19.749216079711914
806953,0.24019493162631989,0.6184974908828735,1.076913833618164,-3.524320363998413,-1.5579111576080322,-19.669824600219727
806993,0.2575417757034302,0.6336572170257568,1.0804784297943115,-3.448878765106201,-1.6745617389678955,-21.60320281982422
807033,0.272890567779541,0.6439239978790283,1.0811262130737305,-2.9623420238494873,-1.211429476737976,-20.343608856201172
807073,0.286926805973053,0.6571733355522156,1.0836654901504517,-3.534536361694336,-1.6046613454818726,-21.568565368652344
807113,0.2991214394569397,0.6683762669563293,1.084216594696045,-3.6074819564819336,-1.2868709564208984,-22.89171028137207
807153,0.3142543435096741,0.6769364476203918,1.084043025970459,-3.134455919265747,-1.2224448919296265,-22.5954647064209
807193,0.3280138671398163,0.6868716478347778,1.0838335752487183,-3.5519208908081055,-1.1724344491958618,-24.105697631835938
807233,0.3417464792728424,0.6951744556427002,1.0825104713439941,-3.5881693363189697,-0.8518089652061462,-25.641361236572266
807273,0.3560834527015686,0.7021937370300293,1.079901099205017,-3.2980096340179443,-0.5918264389038086,-25.326669692993164
807313,0.3695654273033142,0.7139652371406555,1.0770670175552368,-3.392082452774048,-0.6014384627342224,-26.577350616455078
807354,0.38360267877578735,0.7244962453842163,1.07534921169281,-3.6675150394439697,-0.69840407371521,-27.556781768798828
807393,0.3973841369152069,0.7355368137359619,1.0723940134048462,-3.571500062942505,-0.5699178576469421,-28.61461067199707
807433,0.410235732793808,0.7457360625267029,1.0692532062530518,-3.4024972915649414,-0.6182432174682617,-29.683195114135742
807473,0.4228341579437256,0.7550967931747437,1.0651071071624756,-2.732135057449341,-0.5384763479232788,-30.018150329589844
807513,0.43453681468963623,0.7641949653625488,1.0616192817687988,-2.2213516235351562,-0.6797634363174438,-30.07990837097168
807554,0.4463285207748413,0.7752764225006104,1.0580334663391113,-2.1642537117004395,-0.8225602507591248,-31.49223518371582
807593,0.4577776789665222,0.784819483757019,1.0536590814590454,-1.6249393224716187,-0.5288665294647217,-31.771169662475586
807633,0.4684580862522125,0.7957029342651367,1.0502713918685913,-1.8056855201721191,-1.0338388681411743,-32.6252326965332
807673,0.47851258516311646,0.8048617839813232,1.0463699102401733,-1.422105073928833,-0.7712892293930054,-34.1367301940918
807713,0.4883061945438385,0.8126259446144104,1.0430241823196411,-1.148589015007019,-0.665373682975769,-33.99873352050781
807754,0.4960814416408539,0.8184892535209656,1.0417718887329102,-1.2907073497772217,-0.9494738578796387,-34.424163818359375
807793,0.5083269476890564,0.8289859890937805,1.0392605066299438,-1.128723382949829,-0.8025526404380798,-35.86330032348633
807833,0.5173898935317993,0.8353227972984314,1.0371558666229248,-1.160156011581421,-0.7895880341529846,-36.49414825439453
807873,0.5261338353157043,0.8413940072059631,1.0350608825683594,-0.9272341132164001,-0.6816383600234985,-36.986236572265625
807913,0.5341856479644775,0.8477290272712708,1.0334104299545288,-1.1619071960449219,-1.1591986417770386,-37.91203308105469
807954,0.5424527525901794,0.8530402183532715,1.0300472974777222,-0.8290055990219116,-0.7402547001838684,-38.72148132324219
807993,0.5504860877990723,0.8576099276542664,1.026479721069336,-0.44502484798431396,-0.8437911868095398,-38.72312545776367
808033,0.5584562420845032,0.8629442453384399,1.0229322910308838,-0.13825370371341705,-0.595960795879364,-39.22837448120117
808073,0.566545844078064,0.8678591251373291,1.0204607248306274,-0.06632493436336517,-0.830345094203949,-39.710479736328125
808113,0.5740267634391785,0.8739412426948547,1.0175395011901855,0.15117144584655762,-0.5059621334075928,-41.0102653503418
808155,0.5817352533340454,0.8797105550765991,1.0149550437927246,0.43751755356788635,-0.40315818786621094,-41.69099426269531
808193,0.5886532068252563,0.8851723074913025,1.0132476091384888,0.26878514885902405,-0.421421080827713,-42.479610443115234
808233,0.593316376209259,0.8884027004241943,1.0119972229003906,0.37609463930130005,-0.6044129133224487,-43.0383186340332
808273,0.5984948873519897,0.8888693451881409,1.0105410814285278,0.7810821533203125,-0.7225700616836548,-43.114044189453125
808313,0.6031365990638733,0.8908955454826355,1.0082775354385376,1.0579955577850342,-0.8036734461784363,-43.38679122924805
808355,0.6072468161582947,0.8929682970046997,1.0058432817459106,0.9629272818565369,-0.7637144327163696,-43.53881072998047
808393,0.6110528707504272,0.8958253264427185,1.0039561986923218,0.8817588090896606,-1.0130130052566528,-44.24488830566406
808433,0.6142891049385071,0.8964973092079163,1.0029611587524414,0.962675929069519,-1.487083911895752,-44.5415153503418
808473,0.6180607676506042,0.8963173031806946,1.0002483129501343,1.2724848985671997,-1.635927677154541,-43.99828338623047
808513,0.620740532875061,0.8972241282463074,0.9980050325393677,1.4691144227981567,-1.5813950300216675,-43.93632888793945
808555,0.622636079788208,0.8977460265159607,0.9971336126327515,1.089677095413208,-1.681732416152954,-44.43224334716797
808593,0.6242404580116272,0.8988771438598633,0.995061993598938,1.3322354555130005,-1.385817050933838,-44.7987174987793
808633,0.6252198219299316,0.8990269899368286,0.9939122796058655,1.2747645378112793,-1.3946094512939453,-44.34684371948242
808673,0.6254459023475647,0.8989195227622986,0.9941015839576721,1.5253177881240845,-1.5302071571350098,-44.40028762817383
808713,0.6255360841751099,0.8995726704597473,0.9946206212043762,1.3818647861480713,-1.8394793272018433,-44.41878890991211
808755,0.6255772709846497,0.9006331562995911,0.9940102100372314,1.4666264057159424,-1.8050912618637085,-44.447975158691406
808793,0.6257159113883972,0.9014556407928467,0.9933215975761414,1.3916622400283813,-1.870894193649292,-44.36686706542969
808833,0.6258863210678101,0.9025619626045227,0.9921069741249084,1.5993632078170776,-1.7644996643066406,-44.496089935302734
808873,0.6261771321296692,0.903409481048584,0.9910219311714172,1.700446367263794,-1.6941863298416138,-44.73910140991211
808913,0.6264131665229797,0.9037432074546814,0.9903342723846436,1.8321622610092163,-1.5047861337661743,-44.697994232177734
808955,0.6265702843666077,0.9038085341453552,0.9907816052436829,1.7727192640304565,-1.577455997467041,-44.695987701416016
808993,0.626884400844574,0.904661238193512,0.9914386868476868,1.658937931060791,-1.7025610208511353,-45.18186569213867
809033,0.6269317269325256,0.905036211013794,0.9918375015258789,1.6347118616104126,-1.8092832565307617,-45.03523635864258
809073,0.6270995140075684,0.9057929515838623,0.9914805293083191,1.7072721719741821,-1.8787059783935547,-45.064674377441406
809113,0.6270309686660767,0.9060759544372559,0.9908891916275024,1.8934049606323242,-1.721691608428955,-45.01664352416992
809153,0.6269271373748779,0.9065461754798889,0.9905008673667908,2.106050729751587,-1.6766691207885742,-44.98563766479492
809193,0.6265919208526611,0.9064899682998657,0.9903849959373474,2.339292049407959,-1.5978834629058838,-44.811927795410156
809233,0.6259680390357971,0.9062108993530273,0.990338921546936,2.3785178661346436,-1.5691334009170532,-44.6894645690918
809273,0.6252965331077576,0.9065696001052856,0.99021315574646,2.3632733821868896,-1.6249209642410278,-44.834205627441406
809313,0.6241642832756042,0.9061385989189148,0.989791989326477,2.4757559299468994,-1.4941754341125488,-44.579254150390625
809355,0.6229077577590942,0.9051820039749146,0.9897105693817139,2.5967330932617188,-1.441039800643921,-44.34410858154297
809393,0.6216939091682434,0.9045361280441284,0.9894722104072571,2.6644392013549805,-1.3732268810272217,-43.83322525024414
809433,0.6208699345588684,0.9043759107589722,0.9898853302001953,2.601440668106079,-1.429059386253357,-43.8560791015625
809473,0.6199730634689331,0.9046756625175476,0.9902297258377075,2.6330406665802,-1.3069695234298706,-43.903114318847656
809513,0.6188346743583679,0.905617892742157,0.990146279335022,2.7328226566314697,-1.1650007963180542,-43.78446960449219
809553,0.6173098087310791,0.9056551456451416,0.9914170503616333,2.756253719329834,-1.3480747938156128,-43.72665786743164
809593,0.6158996820449829,0.9077799916267395,0.9914827346801758,2.9213831424713135,-1.2674803733825684,-43.66872024536133
809633,0.6143912672996521,0.9083136320114136,0.992286741733551,2.878760576248169,-1.4050836563110352,-43.447078704833984
809673,0.612660825252533,0.908511221408844,0.9931207895278931,2.9553332328796387,-1.4429761171340942,-43.67701721191406
809713,0.6110163331031799,0.907377302646637,0.9937519431114197,2.969658851623535,-1.499226689338684,-43.37595748901367
809753,0.6096339225769043,0.9061041474342346,0.993923544883728,3.0628886222839355,-1.4789752960205078,-43.19118881225586
809793,0.6082289814949036,0.9049555063247681,0.9935528039932251,3.120962619781494,-1.3331592082977295,-43.180912017822266
809833,0.6068677306175232,0.9037082195281982,0.9933241009712219,3.166637420654297,-1.3114372491836548,-42.81863784790039
809873,0.6057121753692627,0.9023155570030212,0.993071436882019,3.243013381958008,-1.227141261100769,-42.769100189208984
809913,0.6030280590057373,0.8985271453857422,0.992255449295044,3.4718706607818604,-0.8830935955047607,-42.278690338134766
809953,0.600258469581604,0.894553542137146,0.9922916293144226,3.6480681896209717,-0.7080479860305786,-41.709720611572266
809993,0.5964726209640503,0.8888031244277954,0.9928184151649475,3.858201265335083,-0.5027084350585938,-41.33383560180664
810033,0.5935972332954407,0.8852459788322449,0.993681013584137,3.8760323524475098,-0.5480926036834717,-40.9614372253418
810074,0.5890390276908875,0.877828061580658,0.9956498742103577,3.6529035568237305,-0.6102879643440247,-40.22415542602539
810113,0.5833703875541687,0.868319034576416,0.9974875450134277,3.759425640106201,-0.5745446681976318,-39.243133544921875
810153,0.5767974257469177,0.8579698801040649,0.9998636245727539,3.6454885005950928,-0.7835469245910645,-38.5914421081543
810193,0.5697514414787292,0.8460401296615601,1.0019330978393555,3.664437770843506,-0.7634631991386414,-37.862300872802734
810233,0.5623449683189392,0.8327794075012207,1.0045783519744873,3.590639591217041,-1.150095820426941,-36.760990142822266
810274,0.5554901361465454,0.820003092288971,1.0068448781967163,3.5064730644226074,-1.5021264553070068,-36.196659088134766
810313,0.5484482049942017,0.8048626780509949,1.008372187614441,3.2716522216796875,-1.7804440259933472,-35.18267822265625
810353,0.5413271188735962,0.7870650887489319,1.0096349716186523,3.218437433242798,-1.6809155941009521,-34.575355529785156
810393,0.5345678925514221,0.7676781415939331,1.0107940435409546,3.2493696212768555,-1.725464105606079,-33.255008697509766
810433,0.5275575518608093,0.7473735809326172,1.012245535850525,2.961496353149414,-1.6296769380569458,-32.004398345947266
810474,0.5211620330810547,0.7290187478065491,1.0134767293930054,2.5471742153167725,-1.6424503326416016,-31.469575881958008
810513,0.51438307762146,0.7084526419639587,1.0148086547851562,2.3965930938720703,-1.708847999572754,-30.631404876708984
810553,0.5078409314155579,0.6870550513267517,1.0165927410125732,1.966829538345337,-1.8331046104431152,-30.089181900024414
810593,0.5015959739685059,0.6657664775848389,1.0178909301757812,1.6362861394882202,-1.6270122528076172,-29.417089462280273
810633,0.4957490861415863,0.6456630229949951,1.0189235210418701,1.1844168901443481,-1.5287973880767822,-28.64318084716797
810673,0.49054524302482605,0.6274515986442566,1.0192443132400513,0.8574389815330505,-1.5927519798278809,-28.124792098999023
810713,0.4851363003253937,0.6044905781745911,1.0188442468643188,1.038297176361084,-1.145041823387146,-27.408802032470703
810753,0.4813280403614044,0.5876301527023315,1.0176440477371216,0.5708373188972473,-0.774754524230957,-26.396669387817383
810793,0.4771256148815155,0.5679380893707275,1.017094373703003,0.6972360014915466,-0.5379388928413391,-25.25148582458496
810833,0.47254014015197754,0.5484033823013306,1.0167009830474854,0.4150766432285309,-0.3965231478214264,-24.18866729736328
810874,0.4682404696941376,0.5304867625236511,1.0152287483215332,0.3239628076553345,-0.09166588634252548,-23.579330444335938
810913,0.46369504928588867,0.5109545588493347,1.012986660003662,0.883181095123291,0.28006139397621155,-22.431419372558594
810953,0.45966166257858276,0.49530696868896484,1.0097095966339111,1.1431406736373901,0.3468903601169586,-21.048988342285156
810993,0.4538642466068268,0.47257325053215027,1.0077427625656128,1.318691611289978,0.3792339265346527,-20.11347007751465
811033,0.4496225118637085,0.45868945121765137,1.003860592842102,1.4279075860977173,0.47866693139076233,-19.067935943603516
811075,0.4445948302745819,0.44223394989967346,1.0008925199508667,1.417830467224121,0.5052574276924133,-18.281259536743164
811113,0.43891045451164246,0.4241916835308075,0.9975062608718872,1.3834038972854614,0.5626159310340881,-17.140575408935547
811153,0.43306463956832886,0.407126247882843,0.9939484596252441,1.3739099502563477,0.624112069606781,-16.413713455200195
811193,0.4270128011703491,0.39055484533309937,0.990963339805603,1.1567797660827637,0.4454317092895508,-15.522099494934082
811233,0.42107996344566345,0.37632429599761963,0.9880460500717163,0.712490975856781,0.2497025728225708,-15.322097778320312
811275,0.41439568996429443,0.3586447834968567,0.9845537543296814,0.7630006074905396,0.5246678590774536,-15.071605682373047
811313,0.40811440348625183,0.3406312167644501,0.9813246726989746,1.1454797983169556,0.5609439015388489,-14.043960571289062
811353,0.40152838826179504,0.3234403133392334,0.9783042073249817,1.182842493057251,0.5282573699951172,-13.610427856445312
811393,0.3945697546005249,0.30618026852607727,0.975544810295105,1.176356554031372,0.5562846064567566,-13.364577293395996
811433,0.3899762034416199,0.2944696843624115,0.9732486009597778,1.2498364448547363,0.5180287957191467,-12.82248592376709
811475,0.3827458918094635,0.2755328416824341,0.9713754653930664,1.4200174808502197,0.7569690942764282,-12.016849517822266
811513,0.3748043179512024,0.2580339312553406,0.9712058305740356,1.1062676906585693,0.6932665705680847,-12.077184677124023
811553,0.36639025807380676,0.24087561666965485,0.9710525870323181,0.9181199669837952,0.5567026734352112,-11.924333572387695
811593,0.35549986362457275,0.21733398735523224,0.9709686040878296,0.9558911919593811,0.9621956944465637,-11.169573783874512
811633,0.3491661250591278,0.20543764531612396,0.9707364439964294,1.0228781700134277,0.9300010800361633,-10.919909477233887
811675,0.3403155505657196,0.18608875572681427,0.9722086787223816,0.7713183164596558,0.8378471732139587,-10.333465576171875
811713,0.33228355646133423,0.16599950194358826,0.9737643599510193,0.6774929165840149,1.0083825588226318,-9.475630760192871
811753,0.32286137342453003,0.14315053820610046,0.9747605919837952,0.3045879900455475,0.8554004430770874,-8.595353126525879
811793,0.3177535831928253,0.12900111079216003,0.975642740726471,0.1625155806541443,0.8109341859817505,-8.12982177734375
811833,0.3116913139820099,0.11368663609027863,0.9750721454620361,-0.07355673611164093,0.7250791192054749,-7.359445571899414
811875,0.30510640144348145,0.09471848607063293,0.9757070541381836,-0.0615294948220253,0.9913197159767151,-7.049668788909912
811913,0.299879252910614,0.07718613743782043,0.976345419883728,-0.1416279375553131,0.9839683175086975,-6.158006191253662
811953,0.2943827509880066,0.060361094772815704,0.976861834526062,-0.17258530855178833,1.009814739227295,-5.684651851654053
811993,0.2885626554489136,0.039598047733306885,0.9770230054855347,-0.0026457260828465223,1.2552696466445923,-5.095322608947754
812033,0.28589802980422974,0.028605567291378975,0.9771168828010559,-0.12558814883232117,1.1421724557876587,-4.763158321380615
812075,0.28225091099739075,0.010392572730779648,0.9785578846931458,-0.01754603162407875,1.1417491436004639,-4.336980819702148
812113,0.27939701080322266,-0.007284238003194332,0.9803116917610168,-0.07024864107370377,0.9814748764038086,-3.538635492324829
812153,0.27705854177474976,-0.02553800493478775,0.9814270734786987,-0.010334983468055725,0.9346875548362732,-3.3590874671936035
812193,0.2750619947910309,-0.04220665991306305,0.9820258021354675,0.09907127916812897,1.0180978775024414,-2.9807307720184326
812233,0.27348390221595764,-0.059488654136657715,0.9830719232559204,0.06137264147400856,0.8100975155830383,-2.7874529361724854
812276,0.27249443531036377,-0.07555469125509262,0.9838244318962097,-0.0009290759917348623,0.69660884141922,-2.67389178276062
812313,0.2717345356941223,-0.09485794603824615,0.9854133129119873,-0.02945980429649353,0.5343973636627197,-2.5256941318511963
812353,0.27182114124298096,-0.11691827327013016,0.9875553250312805,-0.01709771901369095,0.3304520547389984,-2.3130946159362793
812393,0.2716188132762909,-0.13822877407073975,0.989309549331665,0.051787421107292175,0.6170232892036438,-2.2181200981140137
812433,0.271438866853714,-0.15867047011852264,0.9917912483215332,-0.4303673505783081,0.36985260248184204,-2.189005136489868
812476,0.2699558138847351,-0.180659219622612,0.9958699345588684,-0.786117434501648,0.18686062097549438,-1.979698657989502
812513,0.26871567964553833,-0.20065711438655853,0.9998942017555237,-1.161260724067688,-0.393277108669281,-2.1661908626556396
812553,0.26760873198509216,-0.22260352969169617,1.0044320821762085,-1.3498451709747314,-0.5446678996086121,-2.3674473762512207
812593,0.2667973041534424,-0.2431006282567978,1.0087800025939941,-1.5511493682861328,-0.9047033190727234,-2.2647268772125244
812633,0.2664108872413635,-0.2639656364917755,1.0136593580245972,-1.5942211151123047,-0.9436580538749695,-2.353940963745117
812673,0.26605305075645447,-0.2830744981765747,1.0183179378509521,-1.7720885276794434,-1.3271760940551758,-2.0217411518096924
812713,0.2654884457588196,-0.30407294631004333,1.0236268043518066,-1.7698174715042114,-1.5580873489379883,-1.5371818542480469
812753,0.26498302817344666,-0.3246997892856598,1.0282013416290283,-1.9510374069213867,-2.0041399002075195,-1.487282156944275
812793,0.26465606689453125,-0.34455087780952454,1.0308750867843628,-1.6835930347442627,-1.9237700700759888,-1.164074182510376
812833,0.2637929618358612,-0.36287999153137207,1.0326451063156128,-1.8371555805206299,-2.132707357406616,-1.0944677591323853
812875,0.263368159532547,-0.3803306221961975,1.0333436727523804,-1.77608060836792,-2.0135068893432617,-0.6920568943023682
812913,0.26334473490715027,-0.398193895816803,1.0337897539138794,-2.085084915161133,-2.0915439128875732,-0.15162979066371918
812953,0.2635774314403534,-0.4178538918495178,1.0347068309783936,-1.927164077758789,-1.7813767194747925,0.2950487434864044
812993,0.26374006271362305,-0.43531107902526855,1.034698486328125,-2.0717432498931885,-1.706229329109192,0.9832179546356201
813033,0.2625183165073395,-0.4531562328338623,1.0346604585647583,-1.857446551322937,-1.3783981800079346,1.6176484823226929
813073,0.26122671365737915,-0.4678209722042084,1.0326247215270996,-1.9139572381973267,-1.0913029909133911,2.3415470123291016
813113,0.2590685784816742,-0.48461535573005676,1.0315303802490234,-1.804037094116211,-0.6566103100776672,3.1217734813690186
813153,0.25644397735595703,-0.5023796558380127,1.0315372943878174,-1.731737732887268,-0.5966612100601196,3.9024558067321777
813193,0.2534787654876709,-0.5189301371574402,1.0313876867294312,-1.7251428365707397,-0.4549981355667114,4.779014587402344
813233,0.25042420625686646,-0.5344605445861816,1.0309816598892212,-1.6853786706924438,-0.3303847014904022,5.593003749847412
813273,0.24744996428489685,-0.5478071570396423,1.030341386795044,-1.6835167407989502,-0.31133803725242615,6.504469871520996
813313,0.243183434009552,-0.5618617534637451,1.0308990478515625,-1.9015045166015625,-0.43434783816337585,7.153079032897949
813353,0.23867028951644897,-0.5758479833602905,1.0319302082061768,-1.7855244874954224,-0.504334568977356,7.971681594848633
813393,0.23389862477779388,-0.5878653526306152,1.0323657989501953,-1.8813400268554688,-0.6284224987030029,8.250346183776855
813433,0.22995266318321228,-0.5987010598182678,1.0321204662322998,-1.8650665283203125,-0.7433733940124512,9.386817932128906
813473,0.22661179304122925,-0.6073244214057922,1.0300668478012085,-1.587920069694519,-1.0450129508972168,11.068498611450195
813513,0.2210734486579895,-0.6151546239852905,1.0282080173492432,-1.5077120065689087,-0.6576741337776184,10.921503067016602
813553,0.21489748358726501,-0.6226903796195984,1.027238130569458,-1.8240407705307007,-0.7959302663803101,10.460175514221191
813593,0.20979399979114532,-0.6297584176063538,1.025248408317566,-1.1768274307250977,-0.7931539416313171,11.096548080444336
813633,0.205301433801651,-0.6339929103851318,1.0227906703948975,-1.407578468322754,-1.4095927476882935,11.833453178405762
813673,0.2015649527311325,-0.6363934278488159,1.0200086832046509,-1.0544507503509521,-1.4751014709472656,12.492828369140625
813713,0.19671544432640076,-0.6389617919921875,1.0187621116638184,-1.2249668836593628,-1.3891618251800537,12.997310638427734
813753,0.19230498373508453,-0.6410402655601501,1.017338514328003,-1.2482315301895142,-1.415789246559143,13.99280071258545
813794,0.18821321427822113,-0.6422774791717529,1.0155274868011475,-0.8740571737289429,-1.5932643413543701,14.679730415344238
813833,0.18493086099624634,-0.6417142748832703,1.0128066539764404,-0.4416210651397705,-1.424259066581726,15.207294464111328
813873,0.18301966786384583,-0.640897274017334,1.0112659931182861,-0.5300590991973877,-1.1648379564285278,15.809926986694336
813913,0.1811038851737976,-0.6404402256011963,1.010611653327942,-0.5752739906311035,-1.6142385005950928,16.09092140197754
813953,0.18056300282478333,-0.6406996846199036,1.0095305442810059,-0.13143283128738403,-1.6255160570144653,17.049074172973633
813993,0.18049253523349762,-0.6404588222503662,1.0081422328948975,-0.42759567499160767,-1.674120306968689,17.559762954711914
814033,0.18079251050949097,-0.6402463316917419,1.0054519176483154,-0.043570999056100845,-1.4780712127685547,18.507225036621094
814073,0.18165946006774902,-0.639612078666687,1.0023654699325562,-0.07991959899663925,-1.14216148853302,19.233646392822266
814113,0.18236207962036133,-0.6392192244529724,0.999451220035553,0.1048622578382492,-0.28309839963912964,19.95930290222168
814153,0.1835438311100006,-0.6382750868797302,0.9982320666313171,-0.07459346204996109,-0.741041362285614,20.74614715576172
814194,0.18437308073043823,-0.6380069255828857,0.9978352785110474,0.06689216196537018,-0.9116010665893555,21.239273071289062
814233,0.18448595702648163,-0.6380156874656677,0.9978073835372925,0.056403953582048416,-1.423612356185913,21.638689041137695
814273,0.18546468019485474,-0.6380935907363892,0.9970549941062927,0.06529727578163147,-1.7590874433517456,22.0834903717041
814313,0.18676193058490753,-0.6381787061691284,0.9954668879508972,0.20091424882411957,-2.0295569896698,22.510894775390625
814353,0.18838869035243988,-0.6381216645240784,0.9943987727165222,-0.25109148025512695,-2.126316785812378,22.839324951171875
814395,0.1912454068660736,-0.6374668478965759,0.9930160641670227,-0.7577100396156311,-2.5840260982513428,22.689760208129883
814433,0.1962815225124359,-0.6385977864265442,0.9902780652046204,-0.26027727127075195,-2.8374087810516357,23.813947677612305
814473,0.2030154913663864,-0.6386838555335999,0.9862273931503296,-0.07852952182292938,-3.1098334789276123,24.769790649414062
814513,0.20913833379745483,-0.6377331614494324,0.9800141453742981,0.22147324681282043,-2.263529062271118,25.191360473632812
814553,0.21374596655368805,-0.637499988079071,0.9756221175193787,0.295718252658844,-2.712233066558838,25.737503051757812
814594,0.2199125587940216,-0.6377642154693604,0.9707508087158203,0.38103172183036804,-2.7352943420410156,26.14313316345215
814633,0.22586467862129211,-0.6386120319366455,0.9670251607894897,0.5772824287414551,-3.1687374114990234,27.382413864135742
814673,0.2307780385017395,-0.6383386254310608,0.9630337357521057,0.5027660131454468,-3.1989636421203613,27.189796447753906
814713,0.23495641350746155,-0.6384193301200867,0.9589106440544128,0.3048587739467621,-3.0881428718566895,27.388530731201172
814753,0.23744799196720123,-0.6386016607284546,0.9566569924354553,-0.008711523376405239,-3.043466329574585,27.42177963256836
814795,0.2419213354587555,-0.6397622227668762,0.9528557658195496,-0.27256539463996887,-3.054590940475464,26.998790740966797
814833,0.24571175873279572,-0.6408765316009521,0.9504550099372864,-0.5060392618179321,-3.0560874938964844,27.3956298828125
814873,0.2502391040325165,-0.6418971419334412,0.9473789930343628,-1.102320909500122,-2.9128835201263428,27.330610275268555
814913,0.25474342703819275,-0.6434473395347595,0.9438008069992065,-1.5908544063568115,-2.7580699920654297,27.44275665283203
814953,0.2572987675666809,-0.644656777381897,0.9411529898643494,-2.0673184394836426,-2.484236478805542,27.426876068115234
814995,0.25978270173072815,-0.6453189849853516,0.9377208948135376,-2.324795961380005,-2.208632707595825,26.944473266601562
815033,0.2623802423477173,-0.6460255980491638,0.9351963400840759,-2.305917739868164,-1.8008089065551758,26.966564178466797
815073,0.26569050550460815,-0.6459865570068359,0.932479977607727,-2.386791467666626,-1.8907759189605713,27.201210021972656
815113,0.2681620419025421,-0.6466715335845947,0.931032657623291,-2.2273261547088623,-1.6450358629226685,27.082015991210938
815153,0.26966503262519836,-0.6468638181686401,0.9302100539207458,-2.4315185546875,-1.7892744541168213,27.09572982788086
815195,0.27107247710227966,-0.6473310589790344,0.9294224977493286,-2.2620389461517334,-1.562583327293396,26.82146453857422
815233,0.27212730050086975,-0.6478046774864197,0.9287446737289429,-2.1384449005126953,-1.5245335102081299,26.905668258666992
815273,0.2727490961551666,-0.6473885774612427,0.9281339049339294,-1.834545373916626,-1.3249070644378662,26.719196319580078
815313,0.2729923725128174,-0.6470212340354919,0.9290429949760437,-2.0504403114318848,-1.645409345626831,26.595687866210938
815353,0.27308666706085205,-0.6460359692573547,0.9289547801017761,-2.034912109375,-1.528164029121399,26.301666259765625
815395,0.27332767844200134,-0.6449390649795532,0.9279130697250366,-1.822325348854065,-1.1766711473464966,26.071115493774414
815433,0.2733080983161926,-0.6442248225212097,0.9276164770126343,-1.7685515880584717,-1.1318633556365967,26.020986557006836
815473,0.27281874418258667,-0.6435443758964539,0.927620530128479,-1.3335622549057007,-0.8322976231575012,25.834335327148438
815513,0.2715306580066681,-0.6426384449005127,0.9289463758468628,-1.3026604652404785,-0.9233363270759583,25.835947036743164
815553,0.26991355419158936,-0.6420365571975708,0.9304870367050171,-1.2397127151489258,-0.8227629065513611,25.341835021972656
815593,0.26865556836128235,-0.6420002579689026,0.9320049285888672,-1.1959662437438965,-0.8696258664131165,25.327091217041016
815633,0.26753684878349304,-0.6423419713973999,0.9334186315536499,-1.0294127464294434,-0.7301965951919556,25.35931968688965
815673,0.2670791447162628,-0.6425238251686096,0.9336698651313782,-0.6512753367424011,-0.5617097616195679,25.432613372802734
815713,0.26693013310432434,-0.6427038311958313,0.9335326552391052,-0.01233925111591816,-0.42674386501312256,26.16339683532715
815753,0.26564252376556396,-0.6426469087600708,0.9340192079544067,-0.22638487815856934,-0.43081146478652954,25.780467987060547
815796,0.26386308670043945,-0.6429357528686523,0.9339269399642944,-0.20413614809513092,-0.0837964117527008,25.047000885009766
815833,0.2642110288143158,-0.6434890627861023,0.9326817989349365,0.10818172246217728,0.3431225121021271,25.40385627746582
815873,0.2655899226665497,-0.643988311290741,0.9312055706977844,0.3315160870552063,0.8065449595451355,26.09336280822754
815913,0.2661980092525482,-0.6443223357200623,0.9299594163894653,0.44729065895080566,1.286378264427185,26.283447265625
815953,0.26648443937301636,-0.6459008455276489,0.9294551610946655,1.0546448230743408,2.0692710876464844,26.66813087463379
815996,0.26555806398391724,-0.647471010684967,0.9312871098518372,1.4184858798980713,2.449434518814087,27.016305923461914
816033,0.26297712326049805,-0.6494366526603699,0.9360112547874451,1.5339239835739136,2.4606270790100098,27.00879669189453
816073,0.2592832148075104,-0.6525086164474487,0.9422943592071533,1.548222303390503,1.9575668573379517,27.096940994262695
816113,0.25559356808662415,-0.6565262079238892,0.9483975172042847,1.2568840980529785,1.6695826053619385,27.045629501342773
816153,0.25333818793296814,-0.6604200005531311,0.9533085823059082,1.1819336414337158,1.244327425956726,27.230712890625
816193,0.2522569000720978,-0.6633080840110779,0.9574325084686279,0.3688592314720154,0.9933253526687622,27.776601791381836
816233,0.2504575252532959,-0.6641373634338379,0.9611350297927856,-0.9515675902366638,0.9595404863357544,27.406604766845703
816273,0.2492910772562027,-0.664395272731781,0.9647122025489807,-1.6517976522445679,0.6197887659072876,27.0938777923584
816313,0.249699667096138,-0.6635627150535583,0.9668247103691101,-1.7712409496307373,0.6356403827667236,27.558618545532227
816353,0.25024518370628357,-0.6611372232437134,0.967963457107544,-1.9379751682281494,0.4965759515762329,27.413511276245117
816393,0.25157415866851807,-0.6581968069076538,0.967914879322052,-1.6131702661514282,0.7235695719718933,27.477079391479492
816433,0.2534361183643341,-0.653852105140686,0.966908872127533,-1.5076953172683716,0.6052802205085754,27.582862854003906
816473,0.2555080056190491,-0.6493481993675232,0.9650100469589233,-1.0947110652923584,0.9325259923934937,27.41836166381836
816514,0.25777027010917664,-0.6449258327484131,0.9631782174110413,-0.7180988192558289,0.849822461605072,27.41449546813965
816553,0.25970256328582764,-0.6408876776695251,0.9617183208465576,-0.3303149342536926,0.8170164227485657,27.492578506469727
816593,0.2610791325569153,-0.6378675103187561,0.9617924094200134,-0.33927056193351746,0.47005540132522583,27.479785919189453
816633,0.2622520327568054,-0.634983479976654,0.96158367395401,-0.34448152780532837,0.19774045050144196,27.31153678894043
816673,0.26311928033828735,-0.6324192881584167,0.9616189002990723,-0.2557028830051422,0.005639979615807533,27.362760543823242
816714,0.26351216435432434,-0.6300967335700989,0.9622365236282349,-0.2907487750053406,-0.3499714434146881,27.211334228515625
816753,0.26379773020744324,-0.6278539896011353,0.9629502296447754,-0.6970943808555603,-0.6262881755828857,26.798614501953125
816793,0.264874666929245,-0.6259312033653259,0.9632807374000549,-0.9734398126602173,-0.8475666046142578,26.836069107055664
816833,0.2664198577404022,-0.623539388179779,0.9621763229370117,-1.263296127319336,-0.6344338655471802,26.508296966552734
816873,0.26881927251815796,-0.6208820343017578,0.9595547914505005,-0.9127071499824524,0.11705269664525986,26.54109001159668
816914,0.2723136842250824,-0.6177007555961609,0.9564394354820251,-0.6728883385658264,0.4449584484100342,26.90500831604004
816953,0.2748120427131653,-0.6150351166725159,0.9532113075256348,-0.00103633978869766,1.2541749477386475,27.175182342529297
816993,0.2763078510761261,-0.6127784848213196,0.95149165391922,0.3102412521839142,1.923827886581421,26.99612808227539
817033,0.2767329514026642,-0.6112305521965027,0.9515025615692139,0.7162824273109436,2.483748197555542,26.791532516479492
817073,0.27695244550704956,-0.610879123210907,0.9534839987754822,0.8717284798622131,2.60949444770813,26.94697380065918
817114,0.2772841453552246,-0.611661970615387,0.9568785429000854,0.9213324785232544,2.6069231033325195,26.94639778137207
817153,0.27829569578170776,-0.6130834817886353,0.9607166647911072,1.167898178100586,2.605391025543213,27.518186569213867
817193,0.2792580723762512,-0.6146237254142761,0.965567946434021,0.6943550705909729,1.9458109140396118,27.89048957824707
817233,0.2804652452468872,-0.6161321401596069,0.9697136282920837,0.4663037657737732,1.8778600692749023,27.766080856323242
817273,0.28215888142585754,-0.618222177028656,0.9737092852592468,0.4329279363155365,1.6447935104370117,28.549299240112305
817314,0.2841549515724182,-0.6183251738548279,0.9761312007904053,0.09146319329738617,1.2762784957885742,29.06491470336914
817353,0.2866065502166748,-0.6176974177360535,0.9793059229850769,0.19051460921764374,1.2859375476837158,29.355966567993164
817393,0.28808772563934326,-0.6166834235191345,0.9817976355552673,0.33849582076072693,0.9286006689071655,30.18768310546875
817433,0.28714799880981445,-0.6153780817985535,0.9846097230911255,0.42808452248573303,0.37020590901374817,30.13759994506836
817473,0.2857716679573059,-0.6138980388641357,0.9863003492355347,0.7202176451683044,0.09385722875595093,29.83769989013672
817514,0.28402581810951233,-0.6116176843643188,0.987637460231781,1.048608422279358,-0.09279001504182816,29.72074317932129
817553,0.2826565206050873,-0.608306884765625,0.9898779392242432,1.178146481513977,-0.17193551361560822,29.702861785888672
817593,0.2813584506511688,-0.6043799519538879,0.9932816028594971,0.955941379070282,-0.5533980131149292,29.44194793701172
817633,0.279694527387619,-0.6010134816169739,0.9956161975860596,1.1858540773391724,-0.7153536081314087,29.515512466430664
817673,0.2774789035320282,-0.5978193879127502,0.9968158006668091,1.1329342126846313,-0.846455991268158,29.09332847595215
