Timestamp,stateEstimate.x,stateEstimate.y,stateEstimate.z,stateEstimate.roll,stateEstimate.pitch,stateEstimate.yaw
717473,0.3900752067565918,0.26759597659111023,0.037926748394966125,-1.2948389053344727,-0.1805027276277542,3.3497281074523926
717513,0.39013344049453735,0.26760032773017883,0.03803486004471779,-1.2989227771759033,-0.19045455753803253,3.349923610687256
717553,0.3900558054447174,0.2673744857311249,0.038208816200494766,-1.2952895164489746,-0.1887650042772293,3.3368563652038574
717593,0.38998305797576904,0.2668265402317047,0.03857272118330002,-1.2857810258865356,-0.19064268469810486,3.349508047103882
717635,0.39018797874450684,0.26699820160865784,0.038502562791109085,-1.294850468635559,-0.21122735738754272,3.3436312675476074
717673,0.39010342955589294,0.2668636441230774,0.038417890667915344,-1.305423617362976,-0.2070029079914093,3.3396315574645996
717713,0.39006683230400085,0.26689061522483826,0.03849644586443901,-1.3178783655166626,-0.20066411793231964,3.3438303470611572
717753,0.3900860846042633,0.2669227719306946,0.038509391248226166,-1.3160481452941895,-0.1958402842283249,3.331592082977295
717793,0.3900408446788788,0.26684966683387756,0.03855782374739647,-1.3180184364318848,-0.19155892729759216,3.328915596008301
717833,0.39014723896980286,0.2672206163406372,0.038291122764348984,-1.3245054483413696,-0.19790415465831757,3.338906764984131
717873,0.39021095633506775,0.2673831880092621,0.03821546956896782,-1.3308496475219727,-0.19642169773578644,3.3407602310180664
717913,0.3901159465312958,0.2674085795879364,0.038243912160396576,-1.333205223083496,-0.1858980357646942,3.337240695953369
717953,0.39011508226394653,0.2673804759979248,0.03825213387608528,-1.3305397033691406,-0.19146724045276642,3.3489389419555664
717993,0.3900856673717499,0.2673788368701935,0.03825218603014946,-1.3260670900344849,-0.1897086501121521,3.3340635299682617
718033,0.39012420177459717,0.2673703134059906,0.03821658343076706,-1.3192840814590454,-0.18728958070278168,3.3298416137695312
718073,0.39015182852745056,0.2672973573207855,0.03825471177697182,-1.3111258745193481,-0.1918289214372635,3.338160991668701
718113,0.390146940946579,0.2673030495643616,0.038046855479478836,-1.3082869052886963,-0.18267133831977844,3.3261003494262695
718153,0.39017096161842346,0.2675849199295044,0.03774382919073105,-1.3109045028686523,-0.18107275664806366,3.3363003730773926
718193,0.39019230008125305,0.2676275372505188,0.03784865513443947,-1.3108422756195068,-0.18128441274166107,3.3432655334472656
718233,0.39015552401542664,0.26771944761276245,0.037716981023550034,-1.305457353591919,-0.17890173196792603,3.348520278930664
718273,0.39011892676353455,0.26807594299316406,0.0374336764216423,-1.3056509494781494,-0.17663075029850006,3.3490915298461914
718313,0.39013922214508057,0.26821327209472656,0.037275154143571854,-1.2965677976608276,-0.17565065622329712,3.345280885696411
718353,0.39009442925453186,0.2681911289691925,0.0373009517788887,-1.296000599861145,-0.1668110489845276,3.3312795162200928
718393,0.39009547233581543,0.26829957962036133,0.037134598940610886,-1.2884823083877563,-0.1634017676115036,3.333120107650757
718433,0.39005711674690247,0.26827552914619446,0.037162501364946365,-1.2939594984054565,-0.16351284086704254,3.3245418071746826
718473,0.3902141749858856,0.2683574855327606,0.037092890590429306,-1.2908217906951904,-0.1871878206729889,3.3236684799194336
718513,0.3902054727077484,0.2679140567779541,0.037339795380830765,-1.274774432182312,-0.18354986608028412,3.3351669311523438
718554,0.390238493680954,0.2681099474430084,0.03729570657014847,-1.2737408876419067,-0.17794817686080933,3.3332066535949707
718593,0.3902287781238556,0.2679639160633087,0.03733043000102043,-1.2601133584976196,-0.175852969288826,3.352564811706543
718633,0.3902188837528229,0.2680494785308838,0.03735613450407982,-1.260399341583252,-0.1703425794839859,3.353240966796875
718673,0.3901847004890442,0.26861220598220825,0.036928556859493256,-1.2670048475265503,-0.1660710573196411,3.3815488815307617
718713,0.3901665508747101,0.26842448115348816,0.03712477535009384,-1.2579536437988281,-0.16800391674041748,3.384089946746826
718753,0.39015334844589233,0.26820772886276245,0.03730137273669243,-1.2491402626037598,-0.16732589900493622,3.3725366592407227
718793,0.3901446759700775,0.2678990960121155,0.037507735192775726,-1.240878939628601,-0.16922307014465332,3.3743293285369873
718833,0.39016860723495483,0.26810476183891296,0.037316687405109406,-1.2421181201934814,-0.1708969622850418,3.3831751346588135
718873,0.3902183175086975,0.2683551013469696,0.03708493709564209,-1.2388046979904175,-0.16940946877002716,3.37742280960083
718913,0.3902147710323334,0.2682361900806427,0.03723469749093056,-1.2383708953857422,-0.16894520819187164,3.387199640274048
718954,0.39018014073371887,0.26830992102622986,0.037206169217824936,-1.2386640310287476,-0.15977808833122253,3.387014865875244
718993,0.39024415612220764,0.26854756474494934,0.03692396730184555,-1.2323124408721924,-0.16183440387248993,3.3984198570251465
719033,0.3901815116405487,0.26853325963020325,0.036963917315006256,-1.228325366973877,-0.15932342410087585,3.383284568786621
719073,0.3902817368507385,0.2685791254043579,0.03689588978886604,-1.2251206636428833,-0.16791048645973206,3.377107858657837
719113,0.39023396372795105,0.2685331702232361,0.03704480454325676,-1.2282544374465942,-0.1622525304555893,3.3807971477508545
719154,0.39024507999420166,0.2687642574310303,0.036880094558000565,-1.2327858209609985,-0.16360190510749817,3.3787341117858887
719193,0.39013004302978516,0.2683507800102234,0.03711532801389694,-1.2317935228347778,-0.15789444744586945,3.382840871810913
719233,0.39011916518211365,0.2683435082435608,0.03708139806985855,-1.234832763671875,-0.16057322919368744,3.379331588745117
719273,0.39021554589271545,0.2684252858161926,0.03696395084261894,-1.2345794439315796,-0.17332980036735535,3.3858659267425537
719313,0.3902006149291992,0.26860466599464417,0.03686745464801788,-1.2387832403182983,-0.16081573069095612,3.39113187789917
719355,0.3901851773262024,0.26840946078300476,0.03705647215247154,-1.237082839012146,-0.1605057418346405,3.374925374984741
719393,0.3902183473110199,0.26848340034484863,0.037065356969833374,-1.2416291236877441,-0.15836338698863983,3.382894277572632
719433,0.3901803493499756,0.26823216676712036,0.037339672446250916,-1.2362335920333862,-0.1486259549856186,3.3735971450805664
719473,0.3901233971118927,0.26830238103866577,0.037308964878320694,-1.2294347286224365,-0.14116816222667694,3.3793346881866455
719513,0.3900940418243408,0.2683696150779724,0.03727022185921669,-1.227341890335083,-0.14168614149093628,3.365168571472168
719554,0.3901091516017914,0.2680775821208954,0.0374685674905777,-1.2207297086715698,-0.14831575751304626,3.359689712524414
719593,0.39015448093414307,0.2678888440132141,0.0375659316778183,-1.2207651138305664,-0.15160979330539703,3.363701343536377
719633,0.39019104838371277,0.2677917182445526,0.037745919078588486,-1.2242239713668823,-0.15220408141613007,3.350992202758789
719673,0.3901654779911041,0.2679320275783539,0.03759469836950302,-1.2200323343276978,-0.14879873394966125,3.3452577590942383
719713,0.3900919258594513,0.26793456077575684,0.03762943670153618,-1.218217372894287,-0.14560310542583466,3.330306053161621
719754,0.3901352286338806,0.2680617570877075,0.037479061633348465,-1.2141757011413574,-0.14455267786979675,3.3166255950927734
719793,0.39017555117607117,0.2681753635406494,0.037319328635931015,-1.2128775119781494,-0.15010319650173187,3.319359540939331
719833,0.3901456594467163,0.26808103919029236,0.0373607836663723,-1.2113056182861328,-0.1457929015159607,3.3151748180389404
719873,0.3901948034763336,0.26821380853652954,0.03730667755007744,-1.212836742401123,-0.15041138231754303,3.3260927200317383
719913,0.3901795446872711,0.2681015133857727,0.03754129633307457,-1.2149488925933838,-0.14906615018844604,3.311821937561035
719955,0.3902820944786072,0.2676900327205658,0.03782479092478752,-1.2075119018554688,-0.16384319961071014,3.3214240074157715
719993,0.3901570439338684,0.2678312659263611,0.037693947553634644,-1.2151509523391724,-0.14918763935565948,3.328340768814087
720033,0.39010801911354065,0.26781579852104187,0.037649258971214294,-1.2183867692947388,-0.1501191258430481,3.3268051147460938
720073,0.3901735842227936,0.2679959833621979,0.03733258694410324,-1.223752498626709,-0.15640351176261902,3.330101251602173
720113,0.39012855291366577,0.26802515983581543,0.03737583011388779,-1.2302500009536743,-0.15485671162605286,3.331427574157715
720156,0.39014312624931335,0.2680623233318329,0.03748016431927681,-1.239681363105774,-0.16048790514469147,3.338608980178833
720193,0.39014720916748047,0.2680921256542206,0.03741541504859924,-1.2382069826126099,-0.16918323934078217,3.3499155044555664
720233,0.39016640186309814,0.2678529620170593,0.03761698678135872,-1.2328848838806152,-0.17302562296390533,3.353943109512329
720273,0.39020267128944397,0.2680981755256653,0.037473615258932114,-1.2348527908325195,-0.17079897224903107,3.3608241081237793
720313,0.3901824951171875,0.26786547899246216,0.037776727229356766,-1.2350356578826904,-0.170676127076149,3.351527452468872
720353,0.3902905285358429,0.26742830872535706,0.03813605383038521,-1.2235525846481323,-0.18499571084976196,3.350208282470703
720393,0.3901212811470032,0.2672443985939026,0.038209326565265656,-1.2232937812805176,-0.16602055728435516,3.36525297164917
720433,0.3901004493236542,0.2674914002418518,0.03813248127698898,-1.2330296039581299,-0.16783978044986725,3.3821964263916016
720473,0.3901378810405731,0.2673386037349701,0.03805392235517502,-1.2290021181106567,-0.17616544663906097,3.406587839126587
720513,0.3901563882827759,0.26725125312805176,0.038138847798109055,-1.236473560333252,-0.18432268500328064,3.3972625732421875
720555,0.3900914192199707,0.266886830329895,0.0385192409157753,-1.2444623708724976,-0.17985837161540985,3.396655559539795
720593,0.39003410935401917,0.26681119203567505,0.038594722747802734,-1.2600935697555542,-0.1875123679637909,3.3997433185577393
720633,0.3894349932670593,0.2680123746395111,0.03872406482696533,-1.4620214700698853,0.4554559886455536,3.895198106765747
720673,0.3897927701473236,0.2671346366405487,0.03918038308620453,-1.4414716958999634,0.5649582743644714,3.74360990524292
720713,0.3890422284603119,0.2686287760734558,0.04116039723157883,-2.786128282546997,3.6251800060272217,4.570840358734131
720753,0.38466084003448486,0.2708585262298584,0.050176236778497696,-7.859194278717041,10.83542537689209,5.029284954071045
720793,0.3769417405128479,0.2716420590877533,0.06774861365556717,-4.948793411254883,10.972356796264648,2.6003408432006836
720833,0.3691766560077667,0.2729928195476532,0.09417333453893661,-5.0345234870910645,8.761527061462402,3.2317824363708496
720873,0.36157405376434326,0.2787560522556305,0.11993560194969177,-5.8649139404296875,8.217175483703613,3.1408607959747314
720913,0.35314106941223145,0.28664395213127136,0.14739826321601868,-5.6654462814331055,8.061074256896973,3.232487440109253
720953,0.344195157289505,0.3020942211151123,0.1713363379240036,-5.752931118011475,8.192397117614746,3.2028236389160156
720993,0.3322362005710602,0.31842854619026184,0.20124904811382294,-5.950514793395996,9.01425552368164,2.8601269721984863
721033,0.31668344140052795,0.3307490348815918,0.2420559525489807,-6.0859293937683105,9.2454195022583,2.3905861377716064
721073,0.2987162172794342,0.3531239628791809,0.2756443917751312,-5.867867469787598,10.244397163391113,1.745638370513916
721113,0.2773946523666382,0.3831539750099182,0.3036321997642517,-6.060985088348389,10.507981300354004,0.21185828745365143
721153,0.25664472579956055,0.4234509766101837,0.32113805413246155,-6.383305072784424,10.155653953552246,-0.9726089835166931
721193,0.22935843467712402,0.45039963722229004,0.3498772382736206,-5.791576862335205,10.27103042602539,-1.5078901052474976
721233,0.19586633145809174,0.4758460819721222,0.385069340467453,-5.57484245300293,8.479307174682617,-2.5819320678710938
721273,0.16164147853851318,0.5034591555595398,0.41276779770851135,-5.576783180236816,7.767667293548584,-3.146624803543091
721313,0.1296023577451706,0.5344498753547668,0.4338647425174713,-5.265656471252441,7.239935398101807,-3.3126935958862305
721353,0.10008048266172409,0.570338249206543,0.4491203725337982,-4.927646636962891,6.77249002456665,-3.6169440746307373
721393,0.06501182913780212,0.6008070111274719,0.4708525538444519,-4.97853422164917,6.549269676208496,-4.2998433113098145
721433,0.029746785759925842,0.6231587529182434,0.49885717034339905,-4.1881608963012695,5.715795516967773,-3.8367152214050293
721474,-0.0029594721272587776,0.6489676237106323,0.5223343372344971,-3.5668299198150635,5.207032203674316,-3.4474310874938965
721513,-0.03418227285146713,0.6741382479667664,0.5448241829872131,-2.777512311935425,4.049416542053223,-3.29498028755188
721553,-0.06331940740346909,0.6958054900169373,0.5650971531867981,-2.28462553024292,3.357520580291748,-3.9933228492736816
721593,-0.09169508516788483,0.7149131298065186,0.585730791091919,-1.1119565963745117,2.3789665699005127,-4.28614616394043
721633,-0.1201401948928833,0.7344849705696106,0.6060748100280762,-0.9378926157951355,1.892175555229187,-5.290637969970703
721673,-0.14639690518379211,0.7497056126594543,0.6260654330253601,-0.3785306513309479,1.1622908115386963,-5.643508434295654
721713,-0.1726461946964264,0.7630282640457153,0.6459223031997681,-0.1633283495903015,0.6109418869018555,-6.05540657043457
721753,-0.19885793328285217,0.7745492458343506,0.6657319664955139,-0.12807992100715637,-0.02103174291551113,-6.744295120239258
721793,-0.228488489985466,0.7770629525184631,0.6937962770462036,-0.12285374104976654,-0.24809913337230682,-6.71958589553833
721833,-0.2557324469089508,0.7869070768356323,0.7108563780784607,0.23182588815689087,-1.0286909341812134,-6.301704406738281
721875,-0.2846037745475769,0.7947319746017456,0.7295347452163696,0.6744474768638611,-1.4453680515289307,-6.167929649353027
721913,-0.3144681453704834,0.7973623275756836,0.7520084977149963,0.39154207706451416,-1.8074092864990234,-6.338250160217285
721953,-0.3454122245311737,0.7983764410018921,0.7740782499313354,1.122597575187683,-1.726048469543457,-6.489093780517578
721993,-0.3771185874938965,0.7955872416496277,0.8006463646888733,0.5689476132392883,-2.4662599563598633,-7.340274333953857
722033,-0.40817001461982727,0.7977063059806824,0.8202943801879883,0.826809823513031,-3.120657444000244,-6.668532848358154
722075,-0.4377191364765167,0.7850989103317261,0.8470616340637207,1.413509726524353,-3.5807628631591797,-6.110763072967529
722113,-0.4616629183292389,0.7805720567703247,0.8646096587181091,1.1058326959609985,-4.160703659057617,-6.303532123565674
722153,-0.4924929738044739,0.7719080448150635,0.8856036067008972,0.6740775108337402,-3.6090750694274902,-6.3085455894470215
722193,-0.5235987901687622,0.7587913870811462,0.9081985950469971,1.19402277469635,-4.115717887878418,-5.582575798034668
722233,-0.5549205541610718,0.7288646697998047,0.939617931842804,0.6879233717918396,-4.105450630187988,-5.265705585479736
722275,-0.5944423079490662,0.7071076035499573,0.9620549082756042,1.85041344165802,-4.326207160949707,-3.5415942668914795
722313,-0.6183995008468628,0.6982365846633911,0.9718220233917236,1.7057164907455444,-4.330678462982178,-2.512946844100952
722353,-0.6482994556427002,0.6691910028457642,0.9941952228546143,0.9815731644630432,-4.482974052429199,-1.5321307182312012
722393,-0.6783660650253296,0.6431732177734375,1.0119987726211548,0.8098480105400085,-4.261704444885254,-0.3284413814544678
722433,-0.7063389420509338,0.6086634993553162,1.0327303409576416,0.8093451857566833,-4.3132147789001465,1.2639743089675903
722476,-0.7318583726882935,0.5793522000312805,1.0491650104522705,1.0692455768585205,-4.851612091064453,3.047576427459717
722513,-0.7544105648994446,0.5422870516777039,1.0680094957351685,1.5303512811660767,-4.958012104034424,4.840600490570068
722553,-0.7743586897850037,0.5018230676651001,1.0880703926086426,1.560858130455017,-5.48592472076416,5.799704074859619
722593,-0.7893911600112915,0.45865902304649353,1.1042824983596802,2.0562543869018555,-5.456398963928223,7.366976737976074
722633,-0.7999918460845947,0.40950852632522583,1.1183549165725708,3.5453789234161377,-5.507102966308594,9.977843284606934
722675,-0.8088853359222412,0.36714938282966614,1.1296063661575317,3.737715721130371,-5.89689302444458,11.526866912841797
722713,-0.8136014938354492,0.32294827699661255,1.139946460723877,3.4901087284088135,-5.931053161621094,12.69758129119873
722753,-0.8143311142921448,0.27873384952545166,1.1486157178878784,3.4188835620880127,-6.162533760070801,14.104900360107422
722793,-0.8126754760742188,0.23428280651569366,1.157265067100525,2.8412814140319824,-6.273604393005371,15.174159049987793
722833,-0.8075929284095764,0.18724806606769562,1.1664220094680786,2.8598639965057373,-6.417645454406738,16.604524612426758
722873,-0.7995973825454712,0.14186011254787445,1.1769816875457764,2.4275405406951904,-6.61046028137207,17.390146255493164
722913,-0.7896263003349304,0.09757912904024124,1.1879605054855347,2.595912218093872,-6.589450359344482,18.307416915893555
722953,-0.7786151170730591,0.054560836404561996,1.1995588541030884,2.121398448944092,-6.690345764160156,19.032503128051758
722993,-0.7680789828300476,0.011650887317955494,1.2108606100082397,2.3827974796295166,-6.474556922912598,19.27448272705078
723033,-0.755509078502655,-0.03229600936174393,1.223484754562378,0.3278535306453705,-6.222201824188232,19.225618362426758
723075,-0.7405991554260254,-0.07884934544563293,1.2346090078353882,0.25880154967308044,-5.706572532653809,20.46390724182129
723113,-0.7252407670021057,-0.12482570856809616,1.2450461387634277,-0.33717596530914307,-4.818453311920166,21.264171600341797
723153,-0.710547149181366,-0.16533604264259338,1.2537496089935303,-1.1972914934158325,-4.621433734893799,22.68950653076172
723193,-0.6927804946899414,-0.20882466435432434,1.2612481117248535,-1.8969383239746094,-3.4587228298187256,24.284900665283203
723233,-0.6742761135101318,-0.24942313134670258,1.267419457435608,-1.9619420766830444,-2.2745466232299805,26.317893981933594
723273,-0.6565194725990295,-0.2864686846733093,1.2738335132598877,-1.7812683582305908,-1.8722362518310547,27.900421142578125
723313,-0.6366046667098999,-0.3233768045902252,1.2804899215698242,-1.8232486248016357,-0.7835449576377869,29.758575439453125
723353,-0.6181215643882751,-0.35479736328125,1.285912036895752,-1.7563446760177612,-0.9188430905342102,31.759777069091797
723393,-0.5988938212394714,-0.3853728771209717,1.290605902671814,-0.06462043523788452,-1.2519021034240723,32.820804595947266
723433,-0.5785360336303711,-0.4145472049713135,1.2959084510803223,0.29008975625038147,-1.5158265829086304,33.0826530456543
723476,-0.5575308799743652,-0.4406782388687134,1.2991122007369995,1.885939598083496,-1.7217375040054321,33.885032653808594
723513,-0.5366870164871216,-0.4640405476093292,1.3018077611923218,2.7327733039855957,-2.0651731491088867,34.51066207885742
723553,-0.5166457295417786,-0.4834318161010742,1.3042420148849487,1.795018196105957,-2.43503475189209,34.62709045410156
723593,-0.4926445484161377,-0.5012418627738953,1.3047314882278442,1.0079619884490967,-2.532778739929199,35.4182243347168
723633,-0.46161964535713196,-0.5216752886772156,1.307299017906189,-0.25454890727996826,-2.6926419734954834,35.9824333190918
723676,-0.4293409585952759,-0.5378299951553345,1.3066824674606323,-0.8961628079414368,-2.5776312351226807,37.268978118896484
723713,-0.39731788635253906,-0.5523370504379272,1.3047761917114258,-0.5592379570007324,-2.113673686981201,38.1893424987793
723753,-0.3687132000923157,-0.5586414337158203,1.3022878170013428,-2.1856939792633057,-2.2008090019226074,38.25912094116211
723793,-0.33840319514274597,-0.5707887411117554,1.3062958717346191,-3.4329495429992676,-2.4596245288848877,39.06760025024414
723833,-0.2938653826713562,-0.5823241472244263,1.3072501420974731,-4.394472122192383,-2.4325006008148193,39.89938735961914
723873,-0.2568276822566986,-0.5916699767112732,1.3080018758773804,-3.286465883255005,-2.341848850250244,41.0396614074707
723913,-0.22072595357894897,-0.5974339246749878,1.310442328453064,-3.463836669921875,-2.799621820449829,41.62176513671875
723953,-0.18766921758651733,-0.5970768928527832,1.3082005977630615,-2.7211105823516846,-2.4367318153381348,42.60895919799805
723993,-0.15736991167068481,-0.6040778756141663,1.3150568008422852,-3.3817684650421143,-2.9468464851379395,42.70400619506836
724033,-0.11336488276720047,-0.6031388640403748,1.3154871463775635,-2.4429774284362793,-2.58186674118042,43.28237533569336
724073,-0.081821970641613,-0.6082988381385803,1.3207746744155884,-1.4146827459335327,-2.3349223136901855,43.63850784301758
724113,-0.04813665896654129,-0.6019419431686401,1.3207497596740723,-1.1521081924438477,-1.9181662797927856,44.104583740234375
724153,-0.014653177931904793,-0.5948473811149597,1.32427978515625,-3.237053394317627,-1.9778615236282349,43.906986236572266
724194,0.014464988373219967,-0.5820468068122864,1.3207255601882935,-4.393046855926514,-1.1668930053710938,44.065086364746094
724233,0.04639258608222008,-0.5774201154708862,1.3245264291763306,-4.939408779144287,-0.7899588942527771,44.28480911254883
724273,0.07990428060293198,-0.5640866160392761,1.3249719142913818,-5.872766017913818,-0.6326417922973633,43.94325637817383
724313,0.1112152487039566,-0.551466703414917,1.3252662420272827,-5.276034355163574,-0.583206832408905,44.11445999145508
724353,0.14503127336502075,-0.5345538258552551,1.3269016742706299,-5.967226982116699,-0.7207400798797607,44.23256301879883
724393,0.1779010146856308,-0.5169713497161865,1.3273428678512573,-5.872888565063477,-0.8477818369865417,44.397544860839844
724433,0.20841848850250244,-0.4992314279079437,1.3284260034561157,-5.995663642883301,-1.051992416381836,44.89918899536133
724473,0.23234158754348755,-0.4813718795776367,1.3289231061935425,-5.720903396606445,-1.3741958141326904,44.967002868652344
724513,0.26105108857154846,-0.45925289392471313,1.327426791191101,-5.7024993896484375,-1.5412485599517822,45.60545349121094
724553,0.2885284721851349,-0.43365272879600525,1.3243783712387085,-5.092064380645752,-1.4185805320739746,45.82156753540039
724594,0.31427812576293945,-0.4069003760814667,1.3222874402999878,-5.075137138366699,-1.5668258666992188,46.27674102783203
724633,0.3369910418987274,-0.3799338936805725,1.3213703632354736,-4.682607173919678,-1.5638988018035889,46.63743591308594
724673,0.3556949198246002,-0.34647807478904724,1.3163508176803589,-4.311439514160156,-1.4648979902267456,47.19607925415039
724713,0.37491410970687866,-0.3245706856250763,1.3214234113693237,-3.6453866958618164,-1.1688833236694336,47.10261154174805
724753,0.3942978084087372,-0.2953295409679413,1.3244233131408691,-2.5999553203582764,-0.9935740232467651,47.23524475097656
724795,0.41244375705718994,-0.2598128914833069,1.3259693384170532,-1.9281601905822754,-0.9078893065452576,47.29261779785156
724833,0.4287814795970917,-0.22324351966381073,1.3299485445022583,-1.1546404361724854,-1.1488826274871826,47.392459869384766
724873,0.44415149092674255,-0.18237416446208954,1.33265221118927,-2.0291316509246826,-1.0056114196777344,47.267723083496094
724913,0.45647919178009033,-0.14407512545585632,1.3371943235397339,-1.8619087934494019,-0.7908709049224854,47.14501953125
724953,0.46679797768592834,-0.10343136638402939,1.3406590223312378,-1.9300954341888428,-0.15997183322906494,46.67356872558594
724995,0.47465112805366516,-0.06492641568183899,1.3442645072937012,-2.0739259719848633,0.3326053321361542,45.91410827636719
725033,0.4805932343006134,-0.029133446514606476,1.3494236469268799,-2.510796546936035,0.3540402352809906,45.173667907714844
725073,0.4854748249053955,0.005573952570557594,1.3536911010742188,-2.4021072387695312,0.2656039297580719,44.380680084228516
725113,0.48791223764419556,0.04006890580058098,1.3594679832458496,-2.5470874309539795,-0.2395796775817871,42.827125549316406
725153,0.4891751706600189,0.07383017241954803,1.3646924495697021,-2.2763874530792236,-0.35219743847846985,41.178245544433594
725194,0.4906165301799774,0.10630679875612259,1.3683702945709229,-2.4424068927764893,-0.2592812776565552,39.59662628173828
725233,0.4906764030456543,0.13624948263168335,1.3716065883636475,-2.1090543270111084,-0.4971134662628174,37.75089645385742
725273,0.4903823435306549,0.16446453332901,1.3736129999160767,-1.3138883113861084,-0.6022527813911438,35.88294982910156
725313,0.48976731300354004,0.19267487525939941,1.3762887716293335,-1.647650957107544,-0.6082426905632019,34.08344650268555
725353,0.48861241340637207,0.2198689728975296,1.3774044513702393,-1.072675108909607,-0.5187110304832458,32.2393798828125
725393,0.4869593679904938,0.24696296453475952,1.3791197538375854,-0.46400007605552673,-0.5829604864120483,30.341686248779297
725433,0.48515066504478455,0.2723345458507538,1.3804466724395752,-0.3342406451702118,-0.8778980374336243,28.514463424682617
725473,0.48227033019065857,0.29567286372184753,1.3807134628295898,0.4447944760322571,-0.8070715069770813,26.631996154785156
725513,0.4789535701274872,0.31853270530700684,1.3806008100509644,0.8023947477340698,-0.7407117486000061,25.039445877075195
725553,0.47503015398979187,0.3395170569419861,1.3805296421051025,0.9029085636138916,-0.5369598865509033,23.507394790649414
725596,0.4702383875846863,0.35766783356666565,1.3808865547180176,0.9834553003311157,-0.32520511746406555,21.972789764404297
725633,0.4668467044830322,0.3702830970287323,1.3806136846542358,1.1818537712097168,-0.08810674399137497,21.10450553894043
725673,0.46253377199172974,0.3840009868144989,1.3799619674682617,1.27536940574646,0.15229696035385132,19.819564819335938
725713,0.4592432677745819,0.39673489332199097,1.3789143562316895,1.2950117588043213,0.6066318154335022,19.061214447021484
725753,0.4580219089984894,0.40231066942214966,1.3789561986923218,0.9445199370384216,0.6979804039001465,18.890695571899414
725795,0.45617154240608215,0.4081501364707947,1.3794611692428589,0.5757200717926025,0.8061398863792419,18.640228271484375
725833,0.45459461212158203,0.4122982323169708,1.3800770044326782,0.3803264796733856,0.5892171263694763,18.472597122192383
725873,0.4530859589576721,0.41495218873023987,1.3799601793289185,0.5153605937957764,0.5985197424888611,18.376615524291992
725913,0.45153528451919556,0.41717028617858887,1.3798229694366455,0.5131392478942871,0.4373619258403778,18.306909561157227
725953,0.45022788643836975,0.41989511251449585,1.3794499635696411,0.45024433732032776,0.34286829829216003,18.366640090942383
725996,0.4483465552330017,0.4204172194004059,1.3799216747283936,0.24298210442066193,0.2700938284397125,18.32842445373535
726033,0.446866512298584,0.4214756190776825,1.3798402547836304,0.3553955852985382,0.2976209223270416,18.4124813079834
726073,0.4454222619533539,0.42119523882865906,1.3803229331970215,0.2573707103729248,0.2543458938598633,18.505321502685547
726113,0.4441487193107605,0.4208602011203766,1.3808947801589966,0.14830733835697174,0.19886945188045502,18.57783317565918
726153,0.4430449306964874,0.4204951226711273,1.3813903331756592,0.18286502361297607,0.1197461485862732,18.715593338012695
726193,0.4417440593242645,0.41926589608192444,1.3821550607681274,0.19178040325641632,-0.04682625085115433,18.690593719482422
726233,0.4409944713115692,0.4184982478618622,1.3818738460540771,0.47422048449516296,-0.08531948924064636,18.75069808959961
726273,0.44035038352012634,0.417071670293808,1.3820483684539795,0.41298985481262207,-0.1089363768696785,18.87226676940918
726313,0.4397445023059845,0.4161129891872406,1.381856083869934,0.6277453899383545,0.006032319273799658,18.836111068725586
726353,0.43934905529022217,0.4151585102081299,1.3817384243011475,0.5855574607849121,0.07978744059801102,18.831573486328125
726393,0.4392625689506531,0.41340988874435425,1.3818191289901733,0.7353583574295044,0.10881572961807251,18.89569664001465
726433,0.43945151567459106,0.41173556447029114,1.3821346759796143,0.8251967430114746,0.04927320033311844,19.066740036010742
726473,0.43968820571899414,0.40988245606422424,1.382493019104004,0.9999379515647888,-0.04035787284374237,19.102811813354492
726513,0.4399821162223816,0.4096907377243042,1.3828016519546509,1.0770024061203003,-0.14719626307487488,19.133441925048828
726553,0.4397810995578766,0.4090239107608795,1.3829487562179565,0.9528195261955261,-0.17115774750709534,19.0010986328125
726593,0.439721941947937,0.4081439673900604,1.382838249206543,0.9627811908721924,-0.08328838646411896,18.892189025878906
726633,0.44009533524513245,0.40782198309898376,1.3828052282333374,0.9355945587158203,-0.0778939425945282,18.912540435791016
726673,0.44079020619392395,0.4065476357936859,1.3832303285598755,1.0319015979766846,-0.12169211357831955,19.00238609313965
726714,0.4413506090641022,0.4052985906600952,1.3842802047729492,0.8867568969726562,-0.24987679719924927,19.106565475463867
726753,0.44180119037628174,0.40440407395362854,1.3849756717681885,0.7742791771888733,-0.4094198942184448,19.214628219604492
726793,0.44198864698410034,0.40358373522758484,1.385205626487732,0.6881418824195862,-0.48075324296951294,19.23734474182129
726833,0.44228824973106384,0.40301695466041565,1.384441614151001,0.6793262958526611,-0.35002338886260986,19.31780433654785
726873,0.44239771366119385,0.4022682011127472,1.3835177421569824,0.6075499653816223,-0.37313756346702576,19.31988525390625
726913,0.44236287474632263,0.40148910880088806,1.3821508884429932,0.6302025318145752,-0.24653717875480652,19.323532104492188
726953,0.44228196144104004,0.4019119441509247,1.3801349401474,0.5680714249610901,-0.2888164818286896,19.33795928955078
726993,0.4416566789150238,0.4004092216491699,1.3775207996368408,0.5640063285827637,-0.2248322069644928,19.370542526245117
727033,0.4407850205898285,0.4004482328891754,1.3734411001205444,0.5125159621238708,-0.3213604688644409,19.367956161499023
727073,0.43926307559013367,0.3992556631565094,1.3674216270446777,0.3270437717437744,-0.22389473021030426,19.39243507385254
727114,0.43789932131767273,0.4000836908817291,1.358738660812378,-0.14014571905136108,-0.09377327561378479,19.488779067993164
727153,0.43508413434028625,0.40110576152801514,1.3471542596817017,-0.7263969779014587,0.20796707272529602,19.215330123901367
727193,0.4302872121334076,0.3989406228065491,1.33400297164917,-0.8834053874015808,0.13513398170471191,18.552719116210938
727233,0.4253106713294983,0.40026330947875977,1.317497968673706,-0.8548532128334045,-0.07930183410644531,17.873502731323242
727273,0.4195999801158905,0.4001671373844147,1.299110770225525,-1.4960945844650269,-0.18046267330646515,17.04506492614746
727313,0.4143695831298828,0.4052772521972656,1.2764822244644165,-1.9146617650985718,-0.4429720640182495,16.668455123901367
727353,0.40696653723716736,0.40770334005355835,1.250840663909912,-1.7981575727462769,-0.8544816374778748,16.076257705688477
727393,0.39737850427627563,0.4021204113960266,1.2248363494873047,-1.7657033205032349,-1.0913335084915161,15.459813117980957
727433,0.3882274627685547,0.40442007780075073,1.1939423084259033,-2.016984701156616,-1.582214117050171,14.915045738220215
727473,0.3781958818435669,0.40451884269714355,1.1607426404953003,-2.3654589653015137,-1.9742627143859863,14.51068115234375
727514,0.3694913387298584,0.4164240062236786,1.1209075450897217,-2.1138172149658203,-2.637371301651001,14.084725379943848
727553,0.3598470389842987,0.4205491244792938,1.080609917640686,-2.664201259613037,-2.6512186527252197,13.219817161560059
727593,0.34999898076057434,0.42111504077911377,1.0387896299362183,-3.9336295127868652,-2.7255024909973145,12.317208290100098
727633,0.3413514494895935,0.4237716794013977,0.9947790503501892,-4.523205280303955,-2.1865925788879395,11.217159271240234
727673,0.3333403766155243,0.42319855093955994,0.9490476846694946,-4.183823585510254,-1.976283073425293,10.432692527770996
727714,0.3279956579208374,0.4371896982192993,0.8957468867301941,-4.725665092468262,-1.6660667657852173,9.875370025634766
727753,0.321823388338089,0.4401308596134186,0.8461381793022156,-5.69251012802124,-1.6532484292984009,9.043086051940918
727793,0.31594526767730713,0.4339020848274231,0.797700822353363,-5.287877559661865,-1.0988105535507202,8.291894912719727
727833,0.3133014440536499,0.43520697951316833,0.7447623014450073,-4.408786296844482,-1.2604831457138062,8.368358612060547
727873,0.3116011619567871,0.43639785051345825,0.6917914152145386,-5.158078193664551,-1.2433394193649292,7.765175819396973
727913,0.3124178349971771,0.44671303033828735,0.6327155828475952,-5.2076311111450195,-1.1364811658859253,7.6534929275512695
727953,0.3124585747718811,0.42963871359825134,0.5840179324150085,-5.645298004150391,-0.909904956817627,6.248798847198486
727993,0.3145237863063812,0.4418359696865082,0.5258949995040894,-7.061615943908691,-1.145929217338562,4.747823715209961
728033,0.3162193298339844,0.44379952549934387,0.47370079159736633,-7.37653923034668,-1.9613196849822998,3.129828453063965
728073,0.31818243861198425,0.44083911180496216,0.42265698313713074,-7.640218257904053,-1.1851212978363037,1.9011640548706055
728114,0.3201412260532379,0.4435235261917114,0.37418505549430847,-7.859388828277588,-1.7300162315368652,0.8048520684242249
728153,0.3227476477622986,0.44091594219207764,0.3296007513999939,-6.702785968780518,-1.6004717350006104,0.5835661292076111
728193,0.3238879442214966,0.4456626772880554,0.28688785433769226,-7.457077980041504,-2.0265231132507324,-1.136132836341858
728233,0.32519519329071045,0.443470299243927,0.24731431901454926,-6.323742866516113,-2.2275867462158203,-0.699826717376709
728273,0.32727694511413574,0.4384932219982147,0.21058496832847595,-5.281014919281006,-2.5492146015167236,0.00904027745127678
728314,0.3295876979827881,0.4373514950275421,0.1733841747045517,-4.721208572387695,-1.9582661390304565,0.44234099984169006
728353,0.33269327878952026,0.4381982386112213,0.13866083323955536,-3.133150339126587,-1.641991138458252,1.1256684064865112
728393,0.3353478014469147,0.44187867641448975,0.10863965004682541,-2.373950958251953,-0.949998140335083,0.9910610318183899
728433,0.33647504448890686,0.44520679116249084,0.08507898449897766,-2.321894884109497,-0.03804059699177742,-0.74980229139328
728473,0.33899301290512085,0.44819560647010803,0.06550060212612152,-1.8126267194747925,0.09722275286912918,-1.6449098587036133
728515,0.34252387285232544,0.4504627585411072,0.04920371249318123,-1.1712290048599243,0.2889244854450226,-2.2726380825042725
728553,0.3471074104309082,0.45162302255630493,0.03447038680315018,-0.6045507788658142,1.5752499103546143,-2.8570926189422607
728593,0.3484155833721161,0.45534181594848633,0.0328376479446888,-3.4793918132781982,-1.0135082006454468,-2.822247266769409
728633,0.34800538420677185,0.4559610188007355,0.032590340822935104,-2.877653121948242,-0.8675448298454285,-2.7350471019744873
728673,0.34909316897392273,0.4555017352104187,0.03376641497015953,-2.788844108581543,-1.1597814559936523,-2.2704904079437256
728714,0.34944722056388855,0.45335692167282104,0.03394525498151779,-0.7168140411376953,0.07639866322278976,-1.836781620979309
728753,0.34880530834198,0.4514825940132141,0.03490421921014786,-0.6924607753753662,0.08301239460706711,-2.005066156387329
728793,0.3486122488975525,0.451366126537323,0.03472504764795303,-0.6630449891090393,0.09750501811504364,-2.0308473110198975
728833,0.34858036041259766,0.4526030719280243,0.03348885476589203,-0.6820012331008911,0.07564199715852737,-2.0682575702667236
728873,0.34845444560050964,0.4528566896915436,0.03309658542275429,-0.6922035217285156,0.04880229011178017,-2.074694871902466
728915,0.3484219014644623,0.4531291723251343,0.032703906297683716,-0.7072523832321167,0.012758102267980576,-2.074678897857666
728953,0.34856829047203064,0.4536701738834381,0.03236542269587517,-0.7290236949920654,-0.02938338927924633,-2.0775225162506104
728993,0.3485216796398163,0.4537132680416107,0.032237738370895386,-0.732833981513977,-0.05444222688674927,-2.078444719314575
729033,0.3487117290496826,0.4540305733680725,0.03212156891822815,-0.743529736995697,-0.09391145408153534,-2.086906671524048
729073,0.34872081875801086,0.45369502902030945,0.03242729231715202,-0.7487337589263916,-0.12370026856660843,-2.075955629348755
729116,0.3486565351486206,0.4532279372215271,0.03292509913444519,-0.7590847015380859,-0.14052361249923706,-2.0695149898529053
729153,0.3486870527267456,0.45309045910835266,0.03316402807831764,-0.7746878266334534,-0.1611764132976532,-2.075380325317383
729193,0.34857890009880066,0.45274853706359863,0.033424656838178635,-0.7757060527801514,-0.17196975648403168,-2.0633432865142822
729233,0.3485203683376312,0.45233598351478577,0.03361435607075691,-0.7757118940353394,-0.1960330605506897,-2.0576751232147217
729273,0.34862959384918213,0.45248010754585266,0.033559396862983704,-0.8011854290962219,-0.23096369206905365,-2.0446767807006836
729313,0.34879070520401,0.4520972967147827,0.03380553051829338,-0.8110339045524597,-0.2636644244194031,-2.0319087505340576
729353,0.3487476408481598,0.45183005928993225,0.03415433689951897,-0.8237144947052002,-0.2737725079059601,-2.01605224609375
729393,0.3486681878566742,0.45137616991996765,0.03461648151278496,-0.8323419094085693,-0.2738392651081085,-2.008363723754883
729433,0.3486427962779999,0.4515867233276367,0.03467893600463867,-0.8483880162239075,-0.2773193120956421,-1.9987168312072754
729473,0.34852686524391174,0.45104292035102844,0.035133372992277145,-0.8421856760978699,-0.2713242173194885,-1.9911829233169556
729513,0.3485442101955414,0.4504444897174835,0.035753898322582245,-0.8531762957572937,-0.28947216272354126,-1.9868276119232178
729553,0.34848856925964355,0.4498837888240814,0.03628072515130043,-0.8646017909049988,-0.2993190288543701,-1.9770244359970093
729593,0.348417192697525,0.4491337239742279,0.0369698703289032,-0.8675638437271118,-0.30641502141952515,-1.9725741147994995
729633,0.34836605191230774,0.44833582639694214,0.037626419216394424,-0.8695027828216553,-0.3124680519104004,-1.9649827480316162
729673,0.3484172224998474,0.44823572039604187,0.03768070042133331,-0.8798589110374451,-0.32372593879699707,-1.953725814819336
729715,0.34841808676719666,0.4479341208934784,0.03795890882611275,-0.8895536661148071,-0.3270031213760376,-1.9434585571289062
729753,0.34848782420158386,0.4481019675731659,0.03779283165931702,-0.8918251991271973,-0.34040963649749756,-1.9386543035507202
729793,0.3484613597393036,0.44765692949295044,0.03823085129261017,-0.9014090299606323,-0.34463346004486084,-1.928260326385498
729833,0.34842026233673096,0.4475230276584625,0.03850356861948967,-0.9189030528068542,-0.34358689188957214,-1.9254498481750488
729873,0.3484474718570709,0.4470932185649872,0.03908441215753555,-0.9292819499969482,-0.355721116065979,-1.9231444597244263
729913,0.34830155968666077,0.44646310806274414,0.03968217223882675,-0.9270487427711487,-0.3532749116420746,-1.9198049306869507
729953,0.34830087423324585,0.4461537003517151,0.040079955011606216,-0.9367331862449646,-0.36676284670829773,-1.9145712852478027
729993,0.3481917977333069,0.44540107250213623,0.04056835174560547,-0.9318409562110901,-0.36980271339416504,-1.9086296558380127
730033,0.3481821119785309,0.44457828998565674,0.041339606046676636,-0.9372804760932922,-0.383758544921875,-1.9013625383377075
730073,0.34820491075515747,0.44433778524398804,0.041547007858753204,-0.9440850019454956,-0.3921451270580292,-1.881561040878296
730113,0.3481571078300476,0.4435279667377472,0.04211752861738205,-0.9428198337554932,-0.3970393240451813,-1.8699043989181519
730153,0.34817826747894287,0.44388023018836975,0.041935063898563385,-0.9591289162635803,-0.4012228846549988,-1.859328031539917
730193,0.3481856882572174,0.4437853991985321,0.042164165526628494,-0.9772213697433472,-0.4053942859172821,-1.8516366481781006
730234,0.34811902046203613,0.44337698817253113,0.042518552392721176,-0.9797618985176086,-0.3985596299171448,-1.8436720371246338
730273,0.34813156723976135,0.44337427616119385,0.042547885328531265,-0.9870394468307495,-0.4019290506839752,-1.8492991924285889
730313,0.3480941951274872,0.44342726469039917,0.042603425681591034,-0.9938008785247803,-0.3998313546180725,-1.8435653448104858
730353,0.34817400574684143,0.4433993697166443,0.04259033873677254,-0.999739408493042,-0.4134872257709503,-1.8560289144515991
730393,0.34808599948883057,0.4431149959564209,0.04279545694589615,-1.0059078931808472,-0.4072806239128113,-1.854514241218567
730434,0.34811240434646606,0.4431140720844269,0.04269516095519066,-1.0123893022537231,-0.4137173593044281,-1.857108473777771
730473,0.34818920493125916,0.4434641897678375,0.04253017157316208,-1.0307743549346924,-0.4126737415790558,-1.8557872772216797
730513,0.34813448786735535,0.44290947914123535,0.04302274435758591,-1.0302166938781738,-0.4079672694206238,-1.849256157875061
730553,0.34812992811203003,0.443146675825119,0.04273837432265282,-1.0416826009750366,-0.40429461002349854,-1.8433793783187866
730593,0.34809818863868713,0.44329172372817993,0.04263672977685928,-1.0490652322769165,-0.4033510386943817,-1.8413777351379395
730634,0.3481501638889313,0.4430891275405884,0.04283648729324341,-1.0566059350967407,-0.41212478280067444,-1.8409100770950317
730673,0.34812483191490173,0.4429517984390259,0.043121520429849625,-1.0689018964767456,-0.4099944829940796,-1.8432106971740723
730713,0.3480550944805145,0.44292187690734863,0.04310983791947365,-1.065920114517212,-0.40519270300865173,-1.8342602252960205
730753,0.3480994999408722,0.44290396571159363,0.04311780259013176,-1.0647701025009155,-0.4024495780467987,-1.825961947441101
730793,0.34809088706970215,0.44286051392555237,0.04295586422085762,-1.053530216217041,-0.40334945917129517,-1.8176922798156738
730834,0.3481123149394989,0.44364356994628906,0.042286183685064316,-1.0653712749481201,-0.4015011191368103,-1.8221778869628906
730873,0.3481413424015045,0.44337210059165955,0.04244549944996834,-1.0661191940307617,-0.40637579560279846,-1.8154181241989136
730913,0.34813210368156433,0.4430807828903198,0.04269222915172577,-1.0645686388015747,-0.39968523383140564,-1.8072476387023926
730953,0.3481775224208832,0.44372981786727905,0.04226953908801079,-1.0828675031661987,-0.40363430976867676,-1.8081386089324951
730993,0.3481385111808777,0.44367074966430664,0.04239501431584358,-1.0875160694122314,-0.4048176109790802,-1.8134264945983887
731035,0.3481884002685547,0.4435059726238251,0.04260554537177086,-1.0901720523834229,-0.41377317905426025,-1.8113032579421997
731073,0.3481369614601135,0.4435492753982544,0.04260379448533058,-1.0880448818206787,-0.4117606580257416,-1.8116873502731323
731113,0.3481321930885315,0.44319188594818115,0.04277510195970535,-1.0873984098434448,-0.4139435887336731,-1.8097535371780396
731153,0.34829211235046387,0.4439132511615753,0.042084950953722,-1.0942063331604004,-0.4250304698944092,-1.8109681606292725
731193,0.3482273817062378,0.444072961807251,0.041951101273298264,-1.0977654457092285,-0.41381728649139404,-1.8101979494094849
731236,0.3482125699520111,0.4439714252948761,0.04201779514551163,-1.1084479093551636,-0.41124090552330017,-1.8113882541656494
731273,0.34822237491607666,0.44421035051345825,0.04172103852033615,-1.107741117477417,-0.41770878434181213,-1.8093560934066772
731313,0.34819456934928894,0.44394972920417786,0.041941724717617035,-1.113006830215454,-0.4145486056804657,-1.802649736404419
731353,0.3482172191143036,0.44427290558815,0.041646603494882584,-1.1158636808395386,-0.4222966432571411,-1.800603985786438
731393,0.3482474982738495,0.44412747025489807,0.041812628507614136,-1.1197971105575562,-0.4304678738117218,-1.8111851215362549
731435,0.3482266664505005,0.4438289999961853,0.04213476553559303,-1.1251327991485596,-0.4352371096611023,-1.8198258876800537
731473,0.3482134938240051,0.44435715675354004,0.04181478172540665,-1.133683443069458,-0.43814361095428467,-1.8255058526992798
731513,0.348172664642334,0.44413188099861145,0.041954174637794495,-1.131853461265564,-0.43575429916381836,-1.8183751106262207
731553,0.34820324182510376,0.44440051913261414,0.04172420874238014,-1.1244826316833496,-0.4294423460960388,-1.8124780654907227
731593,0.3482280671596527,0.44422072172164917,0.041932154446840286,-1.1269588470458984,-0.42239490151405334,-1.806290626525879
731634,0.34817707538604736,0.4442267119884491,0.04179496318101883,-1.1264151334762573,-0.4233369827270508,-1.8054084777832031
731673,0.3483017385005951,0.4446617066860199,0.04124646633863449,-1.1228299140930176,-0.4318137466907501,-1.8008228540420532
731713,0.34828296303749084,0.4445922076702118,0.041274912655353546,-1.1265041828155518,-0.43357405066490173,-1.7920970916748047
731753,0.34829598665237427,0.4452839195728302,0.040734365582466125,-1.1406176090240479,-0.4243640601634979,-1.7850291728973389
731793,0.34829404950141907,0.4451903700828552,0.04089800640940666,-1.1430671215057373,-0.42172184586524963,-1.785644769668579
731835,0.34840402007102966,0.4453563392162323,0.040828000754117966,-1.140710711479187,-0.4328162968158722,-1.7910900115966797
731873,0.34833917021751404,0.4451062083244324,0.04099363461136818,-1.1374831199645996,-0.42593133449554443,-1.791812777519226
731913,0.3482957184314728,0.4452112317085266,0.04085695371031761,-1.1360985040664673,-0.43051832914352417,-1.7916392087936401
731953,0.3483247458934784,0.4453018605709076,0.040825340896844864,-1.1413410902023315,-0.4363861382007599,-1.801289439201355
731993,0.34833571314811707,0.4455542266368866,0.04049280285835266,-1.138410210609436,-0.43554461002349854,-1.8042118549346924
732033,0.34833234548568726,0.4457426369190216,0.040206123143434525,-1.136194109916687,-0.4355786442756653,-1.796364426612854
732073,0.348360538482666,0.44620513916015625,0.03980764374136925,-1.1476573944091797,-0.4396221935749054,-1.7954941987991333
732113,0.34832629561424255,0.44621551036834717,0.039667703211307526,-1.1443417072296143,-0.43438929319381714,-1.7880942821502686
732153,0.3484082818031311,0.4470057189464569,0.0389816053211689,-1.152655839920044,-0.4306257665157318,-1.782571792602539
732193,0.3484753370285034,0.44735875725746155,0.0386698842048645,-1.1498067378997803,-0.4311906099319458,-1.791901707649231
732235,0.3484823405742645,0.4473114609718323,0.03875736519694328,-1.1440515518188477,-0.4276001751422882,-1.7863049507141113
732273,0.34862375259399414,0.4475398361682892,0.03847122564911842,-1.1418430805206299,-0.4408545196056366,-1.7844147682189941
732313,0.34858259558677673,0.4477737247943878,0.03835642710328102,-1.152214765548706,-0.42913809418678284,-1.783022403717041
732353,0.3485402762889862,0.44817110896110535,0.03818777576088905,-1.1650789976119995,-0.4205559492111206,-1.790748953819275
732393,0.3485391139984131,0.447955459356308,0.038233719766139984,-1.1572092771530151,-0.4259009063243866,-1.803043007850647
732433,0.34850192070007324,0.44775986671447754,0.03838494420051575,-1.1567480564117432,-0.4218485653400421,-1.8057301044464111
732473,0.3483634889125824,0.44760337471961975,0.03843710944056511,-1.1553388833999634,-0.416668176651001,-1.8069337606430054
732513,0.3484277129173279,0.44761887192726135,0.038420990109443665,-1.1599777936935425,-0.427426278591156,-1.8014209270477295
732553,0.34850823879241943,0.4480338990688324,0.03794104978442192,-1.1604732275009155,-0.42025455832481384,-1.8013427257537842
732593,0.34856587648391724,0.44814199209213257,0.03799373656511307,-1.1673998832702637,-0.4260522723197937,-1.808651328086853
732635,0.34839412569999695,0.44803252816200256,0.03819743171334267,-1.1656827926635742,-0.41307106614112854,-1.806668996810913
732673,0.34849002957344055,0.4482823312282562,0.03810665011405945,-1.1682990789413452,-0.42798471450805664,-1.8178904056549072
732713,0.34849265217781067,0.4476449191570282,0.03860708326101303,-1.1606143712997437,-0.4325466454029083,-1.82839035987854
732753,0.3484607934951782,0.44773849844932556,0.03852861747145653,-1.160015344619751,-0.42962366342544556,-1.8196767568588257
732793,0.3484881818294525,0.44799190759658813,0.038050878793001175,-1.1653032302856445,-0.43142762780189514,-1.812371850013733
732833,0.3484126329421997,0.44808629155158997,0.038061730563640594,-1.1728934049606323,-0.42601728439331055,-1.800544261932373
732873,0.3484209477901459,0.44868823885917664,0.03739882633090019,-1.1674084663391113,-0.4244603216648102,-1.7933642864227295
732913,0.3484852910041809,0.4485616087913513,0.03746303170919418,-1.1629514694213867,-0.4335220754146576,-1.7797856330871582
732953,0.34847572445869446,0.4490320384502411,0.036933574825525284,-1.1621015071868896,-0.43190833926200867,-1.7723220586776733
732993,0.3486473858356476,0.4492754340171814,0.03680574148893356,-1.1702467203140259,-0.4488750398159027,-1.7729339599609375
