Timestamp,stateEstimate.x,stateEstimate.y,stateEstimate.z,stateEstimate.roll,stateEstimate.pitch,stateEstimate.yaw
583922,1.0127105712890625,0.38770055770874023,0.06581523269414902,-0.26923510432243347,0.5299263000488281,-170.654541015625
583962,1.01286780834198,0.3876723051071167,0.06573839485645294,-0.27489036321640015,0.5329527258872986,-170.72235107421875
584002,1.0131245851516724,0.3878013491630554,0.06556839495897293,-0.26795947551727295,0.5304419994354248,-170.79800415039062
584042,1.0127476453781128,0.3877411484718323,0.06589578837156296,-0.26113685965538025,0.5241931080818176,-170.68667602539062
584082,1.0130276679992676,0.3878738582134247,0.06564316898584366,-0.26027369499206543,0.5236795544624329,-170.75221252441406
584122,1.012986183166504,0.387803316116333,0.06572209298610687,-0.26811686158180237,0.5264453887939453,-170.64024353027344
584162,1.013179898262024,0.3878558576107025,0.06558901816606522,-0.2684851884841919,0.528485119342804,-170.70474243164062
584202,1.0132416486740112,0.3877945840358734,0.06559436768293381,-0.2725757658481598,0.5322909951210022,-170.7775115966797
584242,1.013095498085022,0.3876575231552124,0.06575837731361389,-0.2764442265033722,0.531959593296051,-170.65444946289062
584282,1.0125203132629395,0.3876108229160309,0.06609665602445602,-0.2561908960342407,0.522530198097229,-170.73104858398438
584322,1.0114234685897827,0.38722386956214905,0.06674123555421829,-0.25689852237701416,0.5126722455024719,-170.60621643066406
584362,1.0114129781723022,0.3872581124305725,0.06681641936302185,-0.25359874963760376,0.5188026428222656,-170.6752471923828
584402,1.0115609169006348,0.3873060643672943,0.06675637513399124,-0.2568569481372833,0.5200120806694031,-170.7623748779297
584442,1.0113143920898438,0.3871763050556183,0.06697333604097366,-0.2625412940979004,0.5184123516082764,-170.6442108154297
584482,1.0114680528640747,0.3872799873352051,0.06695926934480667,-0.25864824652671814,0.5233080983161926,-170.71621704101562
584522,1.0110820531845093,0.38705968856811523,0.06724227964878082,-0.26810258626937866,0.5240919589996338,-170.5954132080078
584562,1.0107696056365967,0.38702166080474854,0.06741851568222046,-0.26082006096839905,0.5193352103233337,-170.66787719726562
584603,1.0107438564300537,0.3869178295135498,0.0674988403916359,-0.2686521112918854,0.5244127511978149,-170.73912048339844
584642,1.01064133644104,0.38692665100097656,0.06744801998138428,-0.26457828283309937,0.5171318650245667,-170.61923217773438
584682,1.0109806060791016,0.387018620967865,0.06724990904331207,-0.2679612636566162,0.524776041507721,-170.69725036621094
584722,1.0106500387191772,0.3868400752544403,0.06759459525346756,-0.2653307616710663,0.5267415046691895,-170.587646484375
584762,1.0107914209365845,0.38698285818099976,0.067517951130867,-0.255662202835083,0.522607147693634,-170.65049743652344
584803,1.0102578401565552,0.3866342306137085,0.0678631067276001,-0.2685593068599701,0.5156852006912231,-170.7295684814453
584842,1.0094199180603027,0.386433869600296,0.06843973696231842,-0.26034703850746155,0.5112414956092834,-170.60411071777344
584882,1.009770154953003,0.386616051197052,0.06826955825090408,-0.2534043788909912,0.5140964984893799,-170.67312622070312
584922,1.009503960609436,0.3865150809288025,0.06843817234039307,-0.25746768712997437,0.5079591870307922,-170.54830932617188
584962,1.009279489517212,0.3864109516143799,0.06856503337621689,-0.2640416622161865,0.5117705464363098,-170.60987854003906
585003,1.0096973180770874,0.38651230931282043,0.06836623698472977,-0.2671303451061249,0.5229239463806152,-170.6900177001953
585042,1.0093439817428589,0.3863773047924042,0.0685170367360115,-0.2666849195957184,0.5125126242637634,-170.57730102539062
585082,1.0094962120056152,0.38644498586654663,0.06832940876483917,-0.2621628940105438,0.5091349482536316,-170.64837646484375
585122,1.0092700719833374,0.38644975423812866,0.06848881393671036,-0.2499592900276184,0.5105791687965393,-170.53135681152344
585162,1.0094692707061768,0.3865292966365814,0.0683981329202652,-0.251489520072937,0.5174963474273682,-170.59471130371094
585203,1.0094887018203735,0.38650545477867126,0.06844949722290039,-0.2561543583869934,0.5206134915351868,-170.65994262695312
585242,1.0102535486221313,0.3867989182472229,0.06790607422590256,-0.2556267976760864,0.5226137638092041,-170.5325164794922
585282,1.0098381042480469,0.3866252899169922,0.06818016618490219,-0.25993865728378296,0.5204892754554749,-170.59559631347656
585322,1.0097600221633911,0.38671165704727173,0.06817720830440521,-0.2512458264827728,0.5174567103385925,-170.4594268798828
585362,1.009364366531372,0.3864292502403259,0.06841396540403366,-0.26709502935409546,0.5147507786750793,-170.51409912109375
585402,1.0095547437667847,0.3865772783756256,0.06820430606603622,-0.2586143910884857,0.5138899087905884,-170.5826873779297
585442,1.0096501111984253,0.38672563433647156,0.06824732571840286,-0.25343814492225647,0.5225592255592346,-170.4545135498047
585482,1.0100200176239014,0.38675040006637573,0.0680164098739624,-0.2636164724826813,0.5320426821708679,-170.52053833007812
585522,1.0089577436447144,0.3863619565963745,0.06855959445238113,-0.26155316829681396,0.5181874632835388,-170.40908813476562
585562,1.0093121528625488,0.38644513487815857,0.06843765079975128,-0.2620643377304077,0.5307212471961975,-170.50247192382812
585602,1.0097824335098267,0.38656139373779297,0.0682295709848404,-0.2637281119823456,0.5410751700401306,-170.6028594970703
585642,1.009535789489746,0.3864730894565582,0.06843458861112595,-0.2650258541107178,0.5378164052963257,-170.52691650390625
585682,1.0093740224838257,0.38638734817504883,0.06852927058935165,-0.2643417418003082,0.5326647758483887,-170.62405395507812
585722,1.0095540285110474,0.3865123391151428,0.06837274134159088,-0.25659000873565674,0.5283783078193665,-170.54867553710938
585762,1.00968599319458,0.38652941584587097,0.06834010034799576,-0.2586726248264313,0.5360077619552612,-170.6472625732422
585804,1.0084854364395142,0.38616400957107544,0.06905030459165573,-0.2524622678756714,0.5258327126502991,-170.58172607421875
585842,1.008834958076477,0.3862106502056122,0.06884624063968658,-0.25891315937042236,0.5355581641197205,-170.68167114257812
585882,1.0092288255691528,0.3863946795463562,0.0687408447265625,-0.2506049871444702,0.5471309423446655,-170.78219604492188
585922,1.009195327758789,0.38637587428092957,0.0686451643705368,-0.2539052963256836,0.537553071975708,-170.71237182617188
585962,1.009498953819275,0.3863569498062134,0.06833778321743011,-0.26085442304611206,0.5390443801879883,-170.8164825439453
586004,1.0101487636566162,0.3866829574108124,0.06790322810411453,-0.24605032801628113,0.5409491062164307,-170.7434844970703
586042,1.0104267597198486,0.3868577480316162,0.0677003264427185,-0.2387564480304718,0.5385134220123291,-170.8439483642578
586082,1.0100393295288086,0.386674165725708,0.0678873136639595,-0.2433728277683258,0.5388327240943909,-170.9416961669922
586122,1.0101498365402222,0.38676056265830994,0.06791532784700394,-0.23829269409179688,0.544965386390686,-170.85275268554688
586162,1.0106574296951294,0.3869301974773407,0.06750691682100296,-0.24119219183921814,0.5423601865768433,-170.93894958496094
586203,1.0116808414459229,0.3872673809528351,0.06677109003067017,-0.2441556304693222,0.5492602586746216,-171.03488159179688
586242,1.0123529434204102,0.3875559866428375,0.06627342104911804,-0.23925215005874634,0.5514314770698547,-170.94744873046875
586282,1.012701392173767,0.3875667452812195,0.06605657190084457,-0.2383793294429779,0.5612075328826904,-171.03636169433594
586322,1.0130770206451416,0.3877870440483093,0.06558772921562195,-0.24127042293548584,0.5465090870857239,-170.9423065185547
586362,1.0133378505706787,0.38790351152420044,0.06543762236833572,-0.21558067202568054,0.5748614072799683,-171.0318603515625
586403,1.0133042335510254,0.38806965947151184,0.06547405570745468,-0.18033699691295624,0.6019300818443298,-170.82342529296875
586442,1.0140725374221802,0.38864901661872864,0.06549400836229324,0.07623038440942764,0.8849834203720093,-170.36387634277344
586482,1.014171838760376,0.3887288272380829,0.06550769507884979,0.06298124045133591,0.8776452541351318,-170.422119140625
586522,1.013423204421997,0.3890061378479004,0.06602839380502701,0.0711049735546112,0.8666583895683289,-169.5830078125
586562,1.0131138563156128,0.39003387093544006,0.0663362517952919,0.15505973994731903,0.9085549116134644,-169.13218688964844
586604,1.012743592262268,0.3905533254146576,0.0664069801568985,0.23717473447322845,0.9282664060592651,-168.8711700439453
586642,1.0123792886734009,0.39090171456336975,0.0670468807220459,0.4847663640975952,0.9909864068031311,-168.15338134765625
586682,1.0131707191467285,0.39193689823150635,0.06719647347927094,0.8873973488807678,1.0907933712005615,-167.5306396484375
586722,1.0151194334030151,0.39438554644584656,0.06898272037506104,2.4101386070251465,4.1513848304748535,-167.7449493408203
586762,1.017551064491272,0.3964204788208008,0.07362782955169678,0.8707160353660583,5.7597503662109375,-168.26458740234375
586804,1.0196336507797241,0.39705657958984375,0.07925592362880707,1.9671223163604736,4.533036708831787,-168.00485229492188
586842,1.0214412212371826,0.397492378950119,0.08911909908056259,1.613067626953125,3.148871660232544,-166.58897399902344
586882,1.0219801664352417,0.3974960446357727,0.10127687454223633,1.2325242757797241,3.1398115158081055,-165.96270751953125
586922,1.0269159078598022,0.39958134293556213,0.12041768431663513,1.320194125175476,1.9826304912567139,-166.69374084472656
586962,1.0318583250045776,0.4007558822631836,0.13177455961704254,1.4995722770690918,1.8158175945281982,-166.36294555664062
587004,1.0320082902908325,0.3999532163143158,0.16215458512306213,0.7737423181533813,1.3796536922454834,-165.00990295410156
587042,1.0303065776824951,0.3989071547985077,0.18323098123073578,0.5477205514907837,1.3506323099136353,-164.20269775390625
587082,1.0301246643066406,0.39933791756629944,0.2120804339647293,1.1414457559585571,0.46760717034339905,-165.07180786132812
587122,1.0311590433120728,0.4008435606956482,0.2514394521713257,0.7494924068450928,0.8560990691184998,-166.30372619628906
587162,1.0387297868728638,0.4045488238334656,0.2688486576080322,1.1259618997573853,0.4298170208930969,-167.00607299804688
587204,1.0382330417633057,0.40692588686943054,0.3102516531944275,2.020442008972168,0.37343671917915344,-170.36581420898438
587242,1.040884256362915,0.4092291295528412,0.3309970200061798,2.4060471057891846,0.13621754944324493,-172.1690673828125
587282,1.044924259185791,0.41089341044425964,0.3567049503326416,3.3870418071746826,-0.005906290840357542,-172.87973022460938
587322,1.0500881671905518,0.41277605295181274,0.3866681158542633,3.972599983215332,0.6099099516868591,-172.78082275390625
587362,1.0507054328918457,0.4129985272884369,0.403393030166626,4.0261454582214355,0.4371814429759979,-172.83175659179688
587402,1.0559229850769043,0.4149361252784729,0.4231005311012268,4.3425140380859375,0.08181446045637131,-172.35848999023438
587442,1.0595529079437256,0.4166179299354553,0.44225946068763733,4.167917251586914,-0.2035648375749588,-171.7187957763672
587482,1.0642911195755005,0.4195672869682312,0.45937731862068176,4.128846645355225,-0.7232590913772583,-171.2984161376953
587522,1.0682615041732788,0.42299342155456543,0.4805825650691986,4.388923645019531,-1.2936264276504517,-171.7408447265625
587562,1.0694023370742798,0.42441895604133606,0.49266934394836426,4.3375325202941895,-1.8604528903961182,-171.89971923828125
587602,1.0732883214950562,0.4263005554676056,0.5084711909294128,4.386152744293213,-2.28647780418396,-171.26148986816406
587642,1.0743968486785889,0.4264267683029175,0.5259454250335693,4.552937984466553,-2.4019887447357178,-170.16436767578125
587682,1.0756813287734985,0.42657843232154846,0.5437255501747131,4.524098873138428,-2.3846795558929443,-170.0020294189453
587723,1.0773811340332031,0.4260276257991791,0.5608068704605103,3.992906093597412,-1.8611713647842407,-169.01927185058594
587762,1.0744158029556274,0.42301833629608154,0.5793623924255371,3.954084634780884,-2.002938985824585,-166.64137268066406
587802,1.0761082172393799,0.4230172634124756,0.5965583324432373,3.7470428943634033,-1.4221652746200562,-164.82342529296875
587842,1.0751363039016724,0.423695832490921,0.6146863698959351,3.3886044025421143,-1.083013653755188,-165.14950561523438
587882,1.0755703449249268,0.4242595136165619,0.6309612989425659,2.8863890171051025,-1.2237588167190552,-164.73428344726562
587922,1.0738563537597656,0.4225451648235321,0.6468474268913269,2.1122095584869385,-0.6692463755607605,-161.17723083496094
587962,1.0700794458389282,0.42069095373153687,0.6631547212600708,2.3126866817474365,-1.215323567390442,-158.67494201660156
588005,1.0703837871551514,0.4223656952381134,0.6790187358856201,1.5136666297912598,-0.901244044303894,-158.17147827148438
588042,1.064041018486023,0.42197543382644653,0.6950464844703674,1.3529945611953735,-0.6715430617332458,-157.92202758789062
588082,1.059345006942749,0.4201682209968567,0.7079596519470215,0.991500735282898,-0.8749005198478699,-156.63661193847656
588123,1.0505409240722656,0.4150526821613312,0.7206900119781494,0.16080564260482788,-0.050989650189876556,-153.40087890625
588162,1.041192650794983,0.41032129526138306,0.7307707667350769,0.02038966305553913,0.1081196665763855,-150.99810791015625
588202,1.0386831760406494,0.40901243686676025,0.7353726625442505,-0.2660951316356659,0.32135283946990967,-150.97425842285156
588242,1.0331366062164307,0.40632006525993347,0.738648533821106,0.11433056741952896,0.2831643521785736,-149.6398468017578
588282,1.030181884765625,0.40369072556495667,0.7404361963272095,0.3261092007160187,1.2393765449523926,-148.96249389648438
588323,1.0268833637237549,0.3996800482273102,0.7415328621864319,0.7879242300987244,1.890617847442627,-148.2128448486328
588362,1.017971396446228,0.3922502398490906,0.7440813183784485,0.9024285674095154,2.1626853942871094,-145.69342041015625
588402,1.0062921047210693,0.38404831290245056,0.7469621300697327,0.582327663898468,2.4330973625183105,-143.607421875
588442,0.9903119206428528,0.37575435638427734,0.7500113248825073,0.7686497569084167,1.9670190811157227,-142.98353576660156
588482,0.9760555028915405,0.36948031187057495,0.7515019178390503,0.5796343088150024,1.460615634918213,-142.3219757080078
588524,0.9615576267242432,0.3639529347419739,0.7532720565795898,0.28847435116767883,1.0212714672088623,-142.0353240966797
588562,0.9427006244659424,0.3567068874835968,0.7574084401130676,-0.402408242225647,0.8952019810676575,-141.86972045898438
588602,0.9223191738128662,0.3479720950126648,0.7620290517807007,-0.5135657787322998,0.3737294375896454,-141.10472106933594
588642,0.9007423520088196,0.3379102945327759,0.7680981159210205,-1.0484572649002075,0.3066667914390564,-140.52354431152344
588682,0.8791665434837341,0.32713520526885986,0.7733489871025085,-1.2713658809661865,0.09274056553840637,-140.23385620117188
588724,0.8594019412994385,0.31659621000289917,0.7772910594940186,-1.3055814504623413,0.08959182351827621,-139.22421264648438
588762,0.8385069966316223,0.3055395185947418,0.7809717655181885,-1.6083085536956787,0.22884628176689148,-139.00506591796875
588802,0.8149624466896057,0.29264989495277405,0.7849591374397278,-1.5415887832641602,-0.0497078001499176,-138.7022705078125
588842,0.7948183417320251,0.28035324811935425,0.7881399393081665,-2.129833221435547,0.42517513036727905,-137.6163330078125
588882,0.7732912302017212,0.26674050092697144,0.7907293438911438,-2.2697067260742188,0.41893258690834045,-137.15176391601562
588924,0.7559148073196411,0.2538577914237976,0.7914780974388123,-2.309030294418335,0.6767281293869019,-136.4721221923828
588962,0.7356978058815002,0.23891045153141022,0.7936718463897705,-2.5068440437316895,1.2487609386444092,-135.4589385986328
589002,0.7153953313827515,0.22311046719551086,0.7960613369941711,-2.5418057441711426,1.5830035209655762,-134.09262084960938
589042,0.6982972621917725,0.20901264250278473,0.7974316477775574,-2.710043430328369,1.8083943128585815,-132.48245239257812
589082,0.6790599822998047,0.19513489305973053,0.7989957332611084,-2.6284244060516357,1.8411085605621338,-131.46185302734375
589124,0.6624227166175842,0.1835682988166809,0.7997080087661743,-2.6680705547332764,2.281130075454712,-130.81829833984375
589162,0.6435545682907104,0.17177756130695343,0.8008164167404175,-2.602435350418091,2.2793099880218506,-130.14605712890625
589202,0.6234868168830872,0.16005951166152954,0.8026835918426514,-2.9410295486450195,2.762345314025879,-129.3015594482422
589242,0.6039597392082214,0.14952193200588226,0.8033204674720764,-3.0064127445220947,2.7589714527130127,-127.85225677490234
589282,0.5847363471984863,0.1405254453420639,0.8035365343093872,-3.3521342277526855,3.073087453842163,-126.9891357421875
589324,0.5664641857147217,0.13291271030902863,0.8024632334709167,-3.4080657958984375,2.9635095596313477,-126.73326873779297
589362,0.5471971035003662,0.12475720793008804,0.8004043102264404,-3.597163677215576,3.0743277072906494,-125.87779998779297
589402,0.5240323543548584,0.11452623456716537,0.7992210388183594,-3.5553438663482666,3.0408267974853516,-125.10026550292969
589442,0.5042417645454407,0.10436928272247314,0.7975109219551086,-3.6483941078186035,3.349118232727051,-123.93119049072266
589482,0.48459592461586,0.09359394758939743,0.7972974181175232,-3.4483768939971924,3.138897180557251,-121.98909759521484
589524,0.4660992920398712,0.08425914496183395,0.7993821501731873,-3.423952341079712,3.4820613861083984,-120.65035247802734
589562,0.44697290658950806,0.07574252039194107,0.8022465109825134,-3.472585916519165,4.041732311248779,-121.00904846191406
589602,0.42653149366378784,0.06621242314577103,0.8048580288887024,-3.2994778156280518,4.108675956726074,-121.30387878417969
589642,0.4067489206790924,0.05545184761285782,0.8057870864868164,-3.2498042583465576,3.925441026687622,-119.92289733886719
589682,0.3882894217967987,0.04481004178524017,0.804524302482605,-3.1748359203338623,3.5877552032470703,-118.4196548461914
589724,0.37500542402267456,0.036061473190784454,0.800203263759613,-3.1124520301818848,2.9110186100006104,-117.60735321044922
589762,0.36029255390167236,0.026803433895111084,0.7963913679122925,-2.4483706951141357,2.129971504211426,-116.63719177246094
589802,0.3444792628288269,0.017293518409132957,0.7940651178359985,-2.1508495807647705,1.6715433597564697,-116.87537384033203
589842,0.33121833205223083,0.008396820165216923,0.7905433773994446,-1.9132544994354248,1.560720682144165,-116.81542205810547
589882,0.31756097078323364,-0.0015963665209710598,0.7854548096656799,-1.3061021566390991,0.9631202220916748,-116.06320190429688
589922,0.30713093280792236,-0.010576851665973663,0.778566837310791,-0.8881596922874451,0.7441748380661011,-115.02618408203125
589962,0.29431968927383423,-0.019720783457159996,0.7716115117073059,-0.21134281158447266,0.06469333171844482,-114.65813446044922
590002,0.2786378860473633,-0.029008429497480392,0.7657747864723206,0.4239940941333771,-0.47399643063545227,-115.53306579589844
590042,0.26446864008903503,-0.03804326429963112,0.7590906620025635,1.1102367639541626,-0.4914613366127014,-116.43212127685547
590082,0.24846449494361877,-0.04843619465827942,0.7521694898605347,2.212454319000244,-1.2601512670516968,-116.55690002441406
590122,0.2377220094203949,-0.05780304595828056,0.7426785230636597,4.096092224121094,0.04492108151316643,-117.28841400146484
590162,0.22058157622814178,-0.0697055235505104,0.7360051274299622,5.136193752288818,-0.9180747270584106,-117.85334777832031
590202,0.20313945412635803,-0.08273086696863174,0.7319769859313965,6.320185661315918,-1.0071187019348145,-118.13159942626953
590242,0.1881796270608902,-0.09598585963249207,0.7310000061988831,6.191977500915527,-0.9113276600837708,-117.98042297363281
590282,0.1718672215938568,-0.1099107638001442,0.7308791875839233,6.006643772125244,-1.124779462814331,-117.87126922607422
590322,0.15710803866386414,-0.12285461276769638,0.7293223738670349,6.730466842651367,-1.8614996671676636,-117.42304992675781
590362,0.13989894092082977,-0.13610422611236572,0.7305316925048828,6.733694553375244,-1.8720237016677856,-118.1316909790039
590402,0.12205275893211365,-0.14961788058280945,0.7314085960388184,6.6257405281066895,-2.532869577407837,-119.39612579345703
590442,0.10434198379516602,-0.16352596879005432,0.7316226363182068,6.50359582901001,-2.935274362564087,-119.85540008544922
590482,0.08671325445175171,-0.17803740501403809,0.7309533357620239,6.643362045288086,-3.155791997909546,-119.3361587524414
590522,0.07344405353069305,-0.19062566757202148,0.7280563712120056,6.810183525085449,-2.938663959503174,-119.50609588623047
590562,0.0569046325981617,-0.2037697583436966,0.7273449897766113,7.163559436798096,-3.327258825302124,-120.32559204101562
590602,0.03954057767987251,-0.21712622046470642,0.7281968593597412,7.239904403686523,-3.5125343799591064,-121.79617309570312
590642,0.024012241512537003,-0.23063184320926666,0.7287838459014893,7.107303142547607,-3.551356315612793,-122.43509674072266
590682,0.009431877173483372,-0.24462085962295532,0.7282214164733887,7.227121829986572,-3.1785566806793213,-121.67268371582031
590722,-0.002618808299303055,-0.25742724537849426,0.7254467606544495,7.464696407318115,-2.5599477291107178,-121.28573608398438
590762,-0.018261132761836052,-0.27059653401374817,0.7236663699150085,7.795726299285889,-2.7920925617218018,-121.7182846069336
590802,-0.03603986278176308,-0.2836669683456421,0.722844660282135,7.740992546081543,-2.984009027481079,-122.6176528930664
590842,-0.05177167430520058,-0.29624271392822266,0.7206397652626038,7.792878150939941,-2.942859649658203,-122.67858123779297
590882,-0.06809563934803009,-0.3090193271636963,0.7180808186531067,7.9321160316467285,-3.0683610439300537,-122.52848815917969
590922,-0.082379050552845,-0.32063713669776917,0.7137954831123352,7.858401775360107,-3.0452446937561035,-122.51163482666016
590962,-0.0984978973865509,-0.33304563164711,0.7093323469161987,7.894894123077393,-3.059750556945801,-122.49969482421875
591002,-0.1162443608045578,-0.34633952379226685,0.7058212161064148,7.784682273864746,-2.9966580867767334,-123.18021392822266
591042,-0.13245877623558044,-0.36015260219573975,0.701159656047821,7.975708961486816,-2.963334083557129,-123.98464965820312
591082,-0.14738449454307556,-0.3741075098514557,0.6965034008026123,8.252043724060059,-2.5638175010681152,-123.43768310546875
591125,-0.1614222675561905,-0.38830432295799255,0.6936798691749573,8.580879211425781,-1.8383911848068237,-121.84991455078125
591162,-0.17631466686725616,-0.3988446295261383,0.693603515625,8.907365798950195,-1.5109065771102905,-121.2729263305664
591202,-0.19130878150463104,-0.41234853863716125,0.6935867667198181,9.06285285949707,-1.2921665906906128,-120.94046020507812
591242,-0.2039714753627777,-0.42639297246932983,0.6929268836975098,9.133103370666504,-0.9651286005973816,-119.98835754394531
591282,-0.21574924886226654,-0.4409302771091461,0.6914478540420532,9.115398406982422,-0.5289208889007568,-118.39765930175781
591325,-0.2279733270406723,-0.4552767276763916,0.6888464093208313,8.892784118652344,-0.23914475739002228,-116.90015411376953
591362,-0.23963536322116852,-0.4645906090736389,0.684877336025238,8.842602729797363,-0.06057383492588997,-116.11563873291016
591402,-0.2521684467792511,-0.47511136531829834,0.6806774139404297,9.152653694152832,-0.3685377538204193,-115.94615936279297
591442,-0.26292574405670166,-0.484314501285553,0.6778997778892517,9.203948020935059,-0.547418475151062,-116.44843292236328
591482,-0.2732612192630768,-0.4950525760650635,0.6773356795310974,8.616884231567383,0.0263371579349041,-117.09123992919922
591522,-0.2830224335193634,-0.5028164982795715,0.675959587097168,8.500628471374512,-0.012444287538528442,-116.52386474609375
591562,-0.2937058210372925,-0.5159609317779541,0.6734154224395752,8.593947410583496,0.03291283920407295,-115.20752716064453
591602,-0.30202943086624146,-0.5222612619400024,0.6695923209190369,8.533221244812012,-0.3282223045825958,-115.42533111572266
591642,-0.31204065680503845,-0.5327486991882324,0.667111873626709,8.419750213623047,-0.7170936465263367,-116.38356018066406
591682,-0.3219555616378784,-0.5416300296783447,0.665233850479126,8.400253295898438,-0.8338238000869751,-117.0636978149414
591722,-0.33078640699386597,-0.5521712899208069,0.6634267568588257,8.255897521972656,-0.5532371997833252,-117.15623474121094
591762,-0.34137803316116333,-0.5656571984291077,0.6633303761482239,7.903239727020264,-0.5985423922538757,-117.02495574951172
591802,-0.35128533840179443,-0.5752378106117249,0.6625910997390747,7.4426116943359375,-0.3574727773666382,-116.7667236328125
591843,-0.3626706600189209,-0.5893341898918152,0.6638422608375549,7.011170864105225,-0.42218008637428284,-116.49314880371094
591882,-0.3724121153354645,-0.5997180938720703,0.6663892865180969,6.721627235412598,-0.6594531536102295,-116.9085693359375
591922,-0.3812441825866699,-0.6100935339927673,0.671191394329071,6.278759956359863,-0.8569469451904297,-117.94657135009766
591962,-0.39166831970214844,-0.6229721903800964,0.6792447566986084,5.9740118980407715,-1.1567867994308472,-117.1683120727539
592002,-0.39966392517089844,-0.631502091884613,0.6849402189254761,6.4446024894714355,-1.4345930814743042,-115.32536315917969
592043,-0.41037437319755554,-0.6400390267372131,0.6944158673286438,6.43187952041626,-1.2687751054763794,-115.53638458251953
592082,-0.41893503069877625,-0.6448780298233032,0.7006086111068726,5.754750728607178,-1.0391780138015747,-118.41986083984375
592122,-0.4250567853450775,-0.6489776372909546,0.7033860087394714,5.743541240692139,-1.585237741470337,-120.23703002929688
592162,-0.42790687084198,-0.6528746485710144,0.7045808434486389,6.242503643035889,-2.0492141246795654,-120.07816314697266
592202,-0.4287388026714325,-0.6546043753623962,0.7060996294021606,6.025763511657715,-1.784171462059021,-119.83242797851562
592243,-0.42932891845703125,-0.6555301547050476,0.7073344588279724,6.366972923278809,-2.2746644020080566,-119.46833801269531
592282,-0.4297645390033722,-0.6543061137199402,0.7083401679992676,6.85420560836792,-2.7190983295440674,-119.92276000976562
592322,-0.4312402904033661,-0.6523802876472473,0.7108717560768127,6.196841239929199,-2.2590065002441406,-121.64356231689453
592362,-0.43221014738082886,-0.6524453163146973,0.7117589116096497,6.2001118659973145,-2.520346164703369,-121.59673309326172
592402,-0.43265512585639954,-0.6525378227233887,0.7116397619247437,6.146202087402344,-2.0782971382141113,-120.58112335205078
592443,-0.4334290325641632,-0.6521188020706177,0.7110214829444885,6.189432621002197,-1.8730195760726929,-120.30437469482422
592482,-0.4349571466445923,-0.6490140557289124,0.7101507186889648,6.580078601837158,-2.292163133621216,-121.16412353515625
592522,-0.43720218539237976,-0.6445620656013489,0.7111870646476746,6.402801036834717,-1.9695192575454712,-122.28850555419922
592562,-0.4398471415042877,-0.6407085061073303,0.7124214768409729,6.277867317199707,-1.7401930093765259,-122.81754302978516
592602,-0.4417610764503479,-0.636891782283783,0.7119830846786499,6.11892032623291,-1.5698362588882446,-123.01336669921875
592643,-0.4458855390548706,-0.6307433843612671,0.7125198841094971,6.163251876831055,-1.3714747428894043,-122.96238708496094
592682,-0.4503142535686493,-0.624561607837677,0.7131399512290955,5.914492130279541,-0.8137575387954712,-123.36038208007812
592722,-0.45656079053878784,-0.6151506900787354,0.7150534987449646,6.302027702331543,-1.1234785318374634,-124.49115753173828
592762,-0.46248674392700195,-0.6065866947174072,0.7174003720283508,5.871107578277588,-0.5338883399963379,-125.14248657226562
592802,-0.4675951898097992,-0.5984618067741394,0.7183363437652588,5.4523844718933105,-0.025428960099816322,-125.57039642333984
592843,-0.4751589596271515,-0.5860626697540283,0.7199093699455261,5.362953186035156,0.026537055149674416,-125.85893249511719
592882,-0.48175063729286194,-0.5748633742332458,0.7193165421485901,5.4071550369262695,0.17578764259815216,-125.92152404785156
592922,-0.4891524016857147,-0.5593974590301514,0.7196580171585083,5.5916032791137695,0.2763430178165436,-126.47929382324219
592962,-0.49544239044189453,-0.5452737808227539,0.7195184826850891,5.551352500915527,0.362949013710022,-127.01364135742188
593002,-0.4995819628238678,-0.5324764251708984,0.7180490493774414,5.479830265045166,0.39986589550971985,-127.02853393554688
593043,-0.5058289170265198,-0.5141058564186096,0.7191532254219055,5.314644813537598,0.6653029322624207,-126.24604034423828
593082,-0.5107937455177307,-0.4978333115577698,0.7186804413795471,5.595991134643555,0.5231788754463196,-125.20713806152344
593122,-0.5164697766304016,-0.47592201828956604,0.7194584608078003,5.695099830627441,0.35290127992630005,-125.03170013427734
593162,-0.5229572057723999,-0.456424355506897,0.7202109694480896,5.664433002471924,0.19750447571277618,-125.63673400878906
593202,-0.5267484188079834,-0.4388400614261627,0.7175283432006836,5.408504962921143,0.11807714402675629,-126.08849334716797
593243,-0.533627450466156,-0.4158615171909332,0.718174159526825,5.318887233734131,-0.09567645937204361,-125.05037689208984
593282,-0.5387948155403137,-0.39627182483673096,0.7188480496406555,5.297636032104492,-0.12196531891822815,-123.55057525634766
593322,-0.5459965467453003,-0.3718860149383545,0.7221537828445435,5.462560653686523,-0.2875611186027527,-123.61157989501953
593362,-0.5547624826431274,-0.35191163420677185,0.7266067266464233,5.027242183685303,-0.39596477150917053,-124.45793914794922
593402,-0.561484694480896,-0.3350425064563751,0.7284123301506042,4.975323677062988,-0.4292828440666199,-124.40269470214844
593443,-0.5716474056243896,-0.3128548860549927,0.7338802218437195,5.715938091278076,-0.5547551512718201,-123.57088470458984
593482,-0.5845504999160767,-0.2950570285320282,0.7438207864761353,5.5492143630981445,-0.10852573812007904,-124.09461212158203
593522,-0.5977217555046082,-0.2750336229801178,0.752007246017456,5.289224624633789,0.23340363800525665,-126.02149200439453
593562,-0.6122633218765259,-0.26044076681137085,0.7594908475875854,5.242374420166016,-0.2706344723701477,-126.93333435058594
593602,-0.6229555606842041,-0.2456774264574051,0.7614684104919434,5.042563438415527,0.12575554847717285,-127.2514419555664
593643,-0.6347553730010986,-0.22860592603683472,0.7627056837081909,5.298468589782715,0.37499719858169556,-128.25650024414062
593682,-0.6463871002197266,-0.21242676675319672,0.7647135257720947,5.153498649597168,0.7577139139175415,-129.61448669433594
593722,-0.6580268144607544,-0.19605696201324463,0.7659394145011902,5.261683464050293,1.1725267171859741,-131.1648406982422
593762,-0.6696892380714417,-0.18026648461818695,0.7659575939178467,5.311713218688965,1.241609811782837,-132.3455810546875
593802,-0.6793574690818787,-0.16471445560455322,0.763388454914093,5.0659871101379395,1.5631344318389893,-133.25877380371094
593845,-0.6932562589645386,-0.1485510915517807,0.7646951675415039,5.118467807769775,1.5864403247833252,-134.51736450195312
593882,-0.7061378955841064,-0.13304634392261505,0.7644126415252686,4.896571636199951,1.6700891256332397,-135.2400665283203
593922,-0.719973623752594,-0.11748547852039337,0.7650944590568542,4.4531331062316895,2.171421766281128,-135.9416046142578
593962,-0.7341111302375793,-0.10196340084075928,0.7656033635139465,4.250962734222412,2.0679516792297363,-136.80844116210938
594002,-0.7458115220069885,-0.08639834076166153,0.7653353810310364,3.7767574787139893,2.171388626098633,-137.68016052246094
594044,-0.7604065537452698,-0.0705799087882042,0.7705332636833191,3.851952314376831,1.9922200441360474,-138.8025360107422
594082,-0.7733333110809326,-0.05562477931380272,0.7749341130256653,3.4798059463500977,2.200634479522705,-139.45985412597656
594122,-0.7861067652702332,-0.04110770300030708,0.7783089876174927,3.808013916015625,1.7826844453811646,-139.50709533691406
594162,-0.7943684458732605,-0.030150283128023148,0.7797219157218933,3.6655280590057373,1.6560297012329102,-139.81224060058594
594202,-0.806977391242981,-0.013796580024063587,0.783431887626648,3.457881450653076,1.9482872486114502,-141.26266479492188
594245,-0.8217676877975464,0.001869428320787847,0.78862464427948,3.380157470703125,2.279043436050415,-142.90406799316406
594282,-0.8348873853683472,0.016235794872045517,0.7906895279884338,2.839245080947876,2.6124770641326904,-143.15480041503906
594322,-0.8474245071411133,0.030396005138754845,0.7922448515892029,2.5087034702301025,2.702009439468384,-142.67532348632812
594362,-0.8578867316246033,0.04520384594798088,0.7925705313682556,2.0309364795684814,3.0830395221710205,-143.11895751953125
594402,-0.8693215847015381,0.06093614175915718,0.7936245203018188,2.1177618503570557,2.734161615371704,-144.59645080566406
594445,-0.8808397054672241,0.07633505761623383,0.7948312163352966,2.05277943611145,2.681072950363159,-145.81326293945312
594482,-0.8909987211227417,0.09068407118320465,0.7937670350074768,2.204231023788452,2.6680994033813477,-145.70533752441406
594522,-0.9006708264350891,0.10429546236991882,0.793434202671051,1.884533405303955,3.1131508350372314,-145.68992614746094
594562,-0.9091137647628784,0.11698209494352341,0.7912132143974304,2.0506694316864014,2.8140175342559814,-145.5980224609375
594602,-0.9180015921592712,0.13045626878738403,0.7889328598976135,1.9484390020370483,2.97021484375,-144.8197021484375
594645,-0.9273633360862732,0.14443260431289673,0.7868106365203857,1.817164421081543,3.229783535003662,-144.365478515625
594682,-0.9363271594047546,0.1578066051006317,0.7834036350250244,1.991667628288269,2.916126012802124,-143.56103515625
594722,-0.9447086453437805,0.1716742068529129,0.7797622680664062,2.2244410514831543,2.683393955230713,-142.73211669921875
594762,-0.9517214298248291,0.18541273474693298,0.7765753865242004,2.3763537406921387,2.5354509353637695,-141.868408203125
594802,-0.9589477777481079,0.1995706558227539,0.7760321497917175,2.741731882095337,2.345252513885498,-140.3719024658203
594842,-0.9666284918785095,0.21424059569835663,0.7774263024330139,2.7712881565093994,2.681718349456787,-139.90313720703125
594882,-0.974362850189209,0.22729863226413727,0.7787209153175354,2.703476905822754,2.618807077407837,-138.51318359375
594922,-0.9811801910400391,0.24084703624248505,0.7791179418563843,2.9941160678863525,2.6210529804229736,-136.49026489257812
594962,-0.9868329167366028,0.25474298000335693,0.7798601388931274,3.2230350971221924,2.2874186038970947,-135.8768310546875
595002,-0.9929366707801819,0.26889553666114807,0.7830125689506531,2.9681193828582764,2.345221757888794,-136.3543701171875
595042,-0.9992386102676392,0.28195053339004517,0.7851597666740417,2.9175069332122803,2.2058815956115723,-136.16342163085938
595082,-1.005368947982788,0.29238012433052063,0.7864415645599365,2.879666328430176,2.378035306930542,-134.67889404296875
595122,-1.01051664352417,0.3025950789451599,0.7867669463157654,2.714909315109253,2.540597915649414,-133.7408447265625
595163,-1.0149548053741455,0.3121650516986847,0.7866352200508118,2.827167510986328,2.2825844287872314,-133.61868286132812
595202,-1.0196802616119385,0.32157355546951294,0.7874593734741211,2.7743980884552,2.3818585872650146,-134.20999145507812
595242,-1.024367332458496,0.3299553692340851,0.7875509262084961,2.7788374423980713,2.2530019283294678,-135.12342834472656
595282,-1.0284092426300049,0.33616718649864197,0.7872347831726074,2.545271396636963,2.4323649406433105,-134.92623901367188
595322,-1.0317543745040894,0.34076637029647827,0.7868022918701172,2.362605094909668,2.479351043701172,-134.63839721679688
595363,-1.0348421335220337,0.3441455662250519,0.7864086031913757,2.2014527320861816,2.3662710189819336,-134.97071838378906
595402,-1.0379503965377808,0.3463997542858124,0.786145031452179,1.9627572298049927,2.2275166511535645,-135.0769500732422
595442,-1.0403815507888794,0.3475973904132843,0.7856066823005676,1.7626553773880005,2.14202618598938,-134.78445434570312
595482,-1.0418932437896729,0.34801581501960754,0.785252571105957,1.5311048030853271,2.1258161067962646,-134.28811645507812
595522,-1.0425561666488647,0.3478761911392212,0.7850959300994873,1.4285273551940918,2.073892593383789,-133.71920776367188
595563,-1.0427817106246948,0.34735095500946045,0.7848242521286011,1.398356556892395,1.8019508123397827,-132.8228302001953
595602,-1.0430771112442017,0.3472747504711151,0.7840192317962646,1.091160774230957,1.9004250764846802,-132.29031372070312
595642,-1.0438722372055054,0.34726664423942566,0.7810621857643127,0.9793420433998108,1.8319816589355469,-132.0475311279297
595682,-1.0448036193847656,0.34687113761901855,0.7762648463249207,1.5266265869140625,1.0831810235977173,-132.37722778320312
595722,-1.0453075170516968,0.347114235162735,0.7698923945426941,2.0395071506500244,0.9160562753677368,-132.92337036132812
595763,-1.0454440116882324,0.34758415818214417,0.7624287009239197,2.3348958492279053,1.1078044176101685,-133.03578186035156
595802,-1.0459481477737427,0.34726908802986145,0.7534943222999573,3.076611280441284,1.057735800743103,-132.91525268554688
595842,-1.0461772680282593,0.3472294211387634,0.7424224615097046,3.567683696746826,0.900442361831665,-133.4326629638672
595882,-1.0460582971572876,0.34852999448776245,0.7286689281463623,4.01249361038208,1.0204355716705322,-133.476806640625
595922,-1.0451714992523193,0.35043397545814514,0.7124292254447937,4.24580192565918,0.8931001424789429,-133.5648651123047
595963,-1.0435136556625366,0.3539271652698517,0.6929826140403748,5.01912260055542,0.06601107120513916,-134.63656616210938
596002,-1.0433218479156494,0.3569531738758087,0.6717243790626526,4.888335227966309,0.2616950273513794,-135.7240753173828
596042,-1.0442900657653809,0.3576644957065582,0.6487142443656921,4.8048577308654785,-0.12076275050640106,-135.75210571289062
596082,-1.0453524589538574,0.36009201407432556,0.6223630905151367,4.86702299118042,0.30296409130096436,-135.75732421875
596122,-1.047194242477417,0.3627417981624603,0.5941295623779297,5.52468729019165,-0.6449609994888306,-137.01742553710938
596164,-1.0479553937911987,0.367261677980423,0.5653367042541504,5.001231670379639,-0.16263405978679657,-137.90391540527344
596202,-1.0484896898269653,0.36953118443489075,0.535766065120697,5.4376749992370605,-0.4792756736278534,-138.6515655517578
596242,-1.049085021018982,0.36962270736694336,0.5071137547492981,5.526002883911133,-1.0308244228363037,-139.03163146972656
596282,-1.0489505529403687,0.3699934780597687,0.47756752371788025,4.94288969039917,-0.8149645924568176,-140.04359436035156
596322,-1.0487698316574097,0.3681896924972534,0.4464279115200043,5.242213249206543,-1.9173569679260254,-140.38584899902344
596364,-1.0473473072052002,0.3680209219455719,0.4129169285297394,4.7684783935546875,-1.5577768087387085,-139.80059814453125
596402,-1.0463576316833496,0.36482685804367065,0.38091012835502625,5.5996246337890625,-2.4263548851013184,-139.4502410888672
596442,-1.0452826023101807,0.3611990809440613,0.3516428768634796,5.624403953552246,-2.6510050296783447,-139.7705535888672
596482,-1.0433162450790405,0.3594176471233368,0.3237064778804779,5.517673015594482,-2.6346747875213623,-140.2200927734375
596522,-1.0410858392715454,0.3575049936771393,0.29684704542160034,5.438925743103027,-2.590888023376465,-140.27586364746094
596564,-1.0381933450698853,0.3568665385246277,0.2700410783290863,5.305954456329346,-2.5704433917999268,-139.48110961914062
596602,-1.035441517829895,0.35568830370903015,0.24432273209095,5.261284351348877,-2.3755314350128174,-138.63804626464844
596642,-1.0324621200561523,0.35568714141845703,0.2174464911222458,5.2121782302856445,-2.8435919284820557,-138.8538818359375
596682,-1.0299253463745117,0.3562789857387543,0.19160723686218262,5.256574630737305,-3.6587204933166504,-139.21334838867188
596722,-1.0274989604949951,0.35690245032310486,0.16633780300617218,4.821229934692383,-3.474841594696045,-139.30982971191406
596764,-1.0249066352844238,0.3576034605503082,0.13596661388874054,5.030766487121582,-4.277476787567139,-138.9005126953125
596802,-1.0229915380477905,0.3573644757270813,0.11844729632139206,4.840505599975586,-4.177680492401123,-138.86798095703125
596842,-1.0211372375488281,0.356966108083725,0.09730234742164612,4.823994159698486,-4.250463485717773,-139.33201599121094
596882,-1.0194607973098755,0.35665610432624817,0.07788654416799545,4.744786262512207,-4.188718318939209,-139.6976318359375
596922,-1.0176692008972168,0.35613223910331726,0.059661753475666046,4.494040012359619,-3.929781913757324,-139.14190673828125
596964,-1.0157556533813477,0.3565323054790497,0.04248632490634918,4.451083660125732,-3.4526114463806152,-137.96090698242188
597002,-1.0138804912567139,0.35755953192710876,0.027773065492510796,3.595592737197876,-2.7451789379119873,-137.73367309570312
597042,-1.011508584022522,0.35916760563850403,0.012691231444478035,3.59328556060791,-3.4245316982269287,-138.91567993164062
597082,-1.0090596675872803,0.3607666790485382,-0.0013289207126945257,3.7295310497283936,-4.1385416984558105,-139.50132751464844
597122,-1.006366491317749,0.3626572787761688,-0.013203863054513931,3.0649266242980957,-4.137134552001953,-139.5037384033203
597162,-1.0034666061401367,0.3643196225166321,-0.023457415401935577,2.723759889602661,-4.557488441467285,-139.9376983642578
597202,-1.000555396080017,0.3655141592025757,-0.029017632827162743,0.30429407954216003,-0.035617485642433167,-139.6604766845703
597242,-1.0015068054199219,0.36609166860580444,-0.028987661004066467,0.1973438262939453,-0.04480890929698944,-140.35838317871094
597282,-1.0052491426467896,0.36473116278648376,-0.02663424238562584,0.19854608178138733,-0.1963655650615692,-141.53562927246094
597322,-1.006203055381775,0.3646402955055237,-0.02703186683356762,0.2633057236671448,-0.287826806306839,-141.9397735595703
597362,-1.0062123537063599,0.36539962887763977,-0.027399379760026932,0.23716802895069122,-0.333188533782959,-141.14010620117188
597402,-1.0063291788101196,0.36565104126930237,-0.027455728501081467,0.2610541582107544,-0.36240479350090027,-140.91798400878906
597442,-1.0063024759292603,0.3656538724899292,-0.027740858495235443,0.24631667137145996,-0.3864031732082367,-140.9661407470703
597482,-1.0064001083374023,0.3655478358268738,-0.02739494852721691,0.2557350695133209,-0.3865233063697815,-140.8131103515625
597522,-1.0063973665237427,0.3656333088874817,-0.027717072516679764,0.2481926530599594,-0.38127434253692627,-140.85911560058594
597562,-1.0064090490341187,0.36568841338157654,-0.027706507593393326,0.24876774847507477,-0.36841148138046265,-140.90391540527344
597602,-1.006506085395813,0.36544618010520935,-0.027518395334482193,0.2352408766746521,-0.3665969967842102,-140.75698852539062
597642,-1.0065264701843262,0.3653738796710968,-0.02743762917816639,0.23310716450214386,-0.35053056478500366,-140.8016815185547
597682,-1.0066051483154297,0.3651171624660492,-0.02663356624543667,0.23994648456573486,-0.32805418968200684,-140.65838623046875
597722,-1.0066807270050049,0.3650715947151184,-0.02641431987285614,0.24769695103168488,-0.318144291639328,-140.70648193359375
597764,-1.0067678689956665,0.3649187982082367,-0.026271957904100418,0.24743372201919556,-0.3097023069858551,-140.77090454101562
597802,-1.0067983865737915,0.3646896779537201,-0.02570085972547531,0.2454959750175476,-0.2807822823524475,-140.6736602783203
597842,-1.006787657737732,0.3646243214607239,-0.025723127648234367,0.24552412331104279,-0.26225346326828003,-140.75881958007812
597882,-1.006779670715332,0.36451855301856995,-0.025204848498106003,0.2515083849430084,-0.22705097496509552,-140.68287658691406
597922,-1.0068883895874023,0.3642905652523041,-0.024740025401115417,0.25790897011756897,-0.22805941104888916,-140.7811279296875
597965,-1.0070356130599976,0.3641481399536133,-0.024376239627599716,0.2657143473625183,-0.22209803760051727,-140.7137451171875
598002,-1.0071107149124146,0.36390361189842224,-0.023921171203255653,0.2576453983783722,-0.2047039419412613,-140.8068389892578
598042,-1.0071091651916504,0.36381667852401733,-0.023792417719960213,0.25529927015304565,-0.19441212713718414,-140.90261840820312
598082,-1.0071525573730469,0.36370888352394104,-0.023365678265690804,0.26365211606025696,-0.18039849400520325,-140.83094787597656
598122,-1.0072143077850342,0.3635956645011902,-0.023066898807883263,0.2669488191604614,-0.17203135788440704,-140.9305419921875
598164,-1.0072274208068848,0.36365967988967896,-0.022993499413132668,0.2730129063129425,-0.15952830016613007,-141.02481079101562
598202,-1.007277488708496,0.3635680079460144,-0.02301531471312046,0.2666293978691101,-0.15846028923988342,-140.95791625976562
598242,-1.0072866678237915,0.3633488118648529,-0.02267279475927353,0.2550312280654907,-0.14767634868621826,-141.05052185058594
598282,-1.0071862936019897,0.36334624886512756,-0.022562332451343536,0.2565966248512268,-0.12585388123989105,-140.97073364257812
598322,-1.0072810649871826,0.36313706636428833,-0.022117547690868378,0.2645648717880249,-0.12304865568876266,-141.06272888183594
598362,-1.007442831993103,0.3629334270954132,-0.021617326885461807,0.28143325448036194,-0.12420662492513657,-141.1461944580078
598402,-1.0075349807739258,0.36282095313072205,-0.021365048363804817,0.2854370176792145,-0.12240879982709885,-141.06356811523438
598442,-1.0074468851089478,0.3626544773578644,-0.02137572504580021,0.27071118354797363,-0.11759301275014877,-141.151611328125
598482,-1.0073232650756836,0.3628920912742615,-0.021782230585813522,0.2851253151893616,-0.10679376125335693,-141.24322509765625
598522,-1.0072988271713257,0.3631856441497803,-0.022118154913187027,0.31031739711761475,-0.10095063596963882,-141.15736389160156
598562,-1.0074392557144165,0.36319413781166077,-0.022160861641168594,0.3181792199611664,-0.10700484365224838,-141.2328338623047
598602,-1.0074381828308105,0.3632965683937073,-0.022313760593533516,0.32100534439086914,-0.09567005932331085,-141.13137817382812
598642,-1.0073132514953613,0.36328810453414917,-0.02252734825015068,0.3022325038909912,-0.08214865624904633,-141.21914672851562
598682,-1.0071665048599243,0.36325472593307495,-0.022581646218895912,0.28815698623657227,-0.06568777561187744,-141.3094940185547
598722,-1.00725519657135,0.3633985221385956,-0.022531310096383095,0.3054955005645752,-0.0602557510137558,-141.20538330078125
598762,-1.0073893070220947,0.36329832673072815,-0.022287093102931976,0.3051551580429077,-0.0627196878194809,-141.27854919433594
598802,-1.0073139667510986,0.3634561002254486,-0.022715212777256966,0.2943395972251892,-0.05951404944062233,-141.1774139404297
598842,-1.0072309970855713,0.36352744698524475,-0.02292006090283394,0.28383868932724,-0.04609093815088272,-141.24810791015625
598882,-1.0070981979370117,0.3637281358242035,-0.023298116400837898,0.28302887082099915,-0.03800526261329651,-141.32130432128906
598922,-1.0070573091506958,0.36367377638816833,-0.02323552779853344,0.2793146073818207,-0.03680945187807083,-141.22093200683594
598962,-1.0071507692337036,0.3636544942855835,-0.0231961440294981,0.2893304228782654,-0.04178587347269058,-141.296875
599002,-1.0071161985397339,0.36356478929519653,-0.02298912964761257,0.2823747396469116,-0.03856092318892479,-141.1953887939453
599042,-1.0070682764053345,0.3637152314186096,-0.023250795900821686,0.28845667839050293,-0.036273591220378876,-141.27203369140625
599082,-1.0070693492889404,0.36376962065696716,-0.023301033303141594,0.29164552688598633,-0.035276222974061966,-141.348876953125
599122,-1.0071126222610474,0.3636152744293213,-0.023128552362322807,0.2846491038799286,-0.040690839290618896,-141.24166870117188
599162,-1.0071715116500854,0.36358925700187683,-0.023118387907743454,0.28840571641921997,-0.03875528648495674,-141.31747436523438
599202,-1.0070977210998535,0.3638220727443695,-0.023630496114492416,0.2929106056690216,-0.03348397836089134,-141.21539306640625
599242,-1.0070405006408691,0.36401525139808655,-0.023845965042710304,0.2983330190181732,-0.020928435027599335,-141.28689575195312
599282,-1.006944179534912,0.36401569843292236,-0.02388838119804859,0.29068633913993835,-0.013741090893745422,-141.3616485595703
599322,-1.0070438385009766,0.3638572692871094,-0.02355358935892582,0.3013797104358673,-0.02124336175620556,-141.25526428222656
599362,-1.0070818662643433,0.3637886643409729,-0.023465558886528015,0.3019530475139618,-0.028641102835536003,-141.3307647705078
599402,-1.0070961713790894,0.3638116419315338,-0.023492587730288506,0.3065645396709442,-0.02342808060348034,-141.22415161132812
599442,-1.0070765018463135,0.3638569116592407,-0.023433946073055267,0.3099011778831482,-0.020412569865584373,-141.2981719970703
599484,-1.007048487663269,0.3637858033180237,-0.023323779925704002,0.3026963174343109,-0.022884894162416458,-141.36947631835938
599522,-1.0070909261703491,0.36370834708213806,-0.023285700008273125,0.29926052689552307,-0.029195962473750114,-141.2532196044922
599562,-1.007118582725525,0.36365145444869995,-0.02326384000480175,0.3031654953956604,-0.03202385455369949,-141.3278045654297
599602,-1.0072790384292603,0.363638311624527,-0.02324741706252098,0.3142385184764862,-0.03484771028161049,-141.22128295898438
599642,-1.00714111328125,0.3638397455215454,-0.02345084212720394,0.3116665184497833,-0.016313958913087845,-141.29283142089844
599683,-1.0070592164993286,0.36392319202423096,-0.02363104559481144,0.3062182068824768,-0.011022580787539482,-141.3744354248047
599722,-1.0070823431015015,0.3638218343257904,-0.023700499907135963,0.3024415075778961,-0.016512669622898102,-141.26263427734375
599762,-1.007007360458374,0.3639467656612396,-0.024050911888480186,0.3017862141132355,-0.013561934232711792,-141.33935546875
599802,-1.0069522857666016,0.3643166422843933,-0.02451748214662075,0.318393737077713,-0.003922606818377972,-141.23284912109375
599842,-1.0068631172180176,0.36444613337516785,-0.024675438180565834,0.31277668476104736,0.004288800992071629,-141.3062286376953
599884,-1.0068422555923462,0.3644085228443146,-0.024726049974560738,0.3050973415374756,0.0015510589582845569,-141.37925720214844
599922,-1.0069584846496582,0.3640911877155304,-0.024223972111940384,0.2993345558643341,-0.012853330001235008,-141.2687225341797
599962,-1.006996750831604,0.3641687333583832,-0.024435391649603844,0.30669960379600525,-0.007093410473316908,-141.3390655517578
600002,-1.0070291757583618,0.3641977608203888,-0.024187425151467323,0.31510329246520996,0.0021609398536384106,-141.2325897216797
600042,-1.0070180892944336,0.3641965389251709,-0.024140601977705956,0.3081147074699402,0.006721037440001965,-141.30294799804688
600083,-1.0069738626480103,0.3642122447490692,-0.024159016087651253,0.3012917935848236,0.007718997076153755,-141.38006591796875
600122,-1.0069780349731445,0.36410239338874817,-0.024289041757583618,0.29022297263145447,-0.0013428040547296405,-141.27780151367188
600162,-1.006961703300476,0.3641197085380554,-0.024382751435041428,0.29207077622413635,-0.0038211150094866753,-141.35220336914062
600202,-1.0069382190704346,0.36424386501312256,-0.024514270946383476,0.2992572784423828,-0.0034858668223023415,-141.24122619628906
600242,-1.006747841835022,0.36444440484046936,-0.024904444813728333,0.29187536239624023,0.006191226653754711,-141.31365966796875
600284,-1.0068697929382324,0.364322304725647,-0.024574579671025276,0.2981206178665161,-0.008157431147992611,-141.2076873779297
600322,-1.006791591644287,0.36446189880371094,-0.02497107908129692,0.29539698362350464,-0.006073959171772003,-141.2830810546875
600362,-1.0068316459655762,0.36449286341667175,-0.02492210827767849,0.3009709417819977,-0.0058149429969489574,-141.2505340576172
600402,-1.0069202184677124,0.36440509557724,-0.02480221539735794,0.29872429370880127,-0.007349178194999695,-141.1376190185547
600442,-1.0069044828414917,0.36439380049705505,-0.024690773338079453,0.29544389247894287,0.006716202944517136,-141.20700073242188
600482,-1.0069067478179932,0.3644026815891266,-0.024743175134062767,0.2918163239955902,0.0058755092322826385,-141.2693328857422
600522,-1.0069262981414795,0.36424288153648376,-0.024450277909636497,0.2899845242500305,0.0066253566183149815,-141.1497039794922
600562,-1.0069465637207031,0.36416906118392944,-0.024420810863375664,0.2887735664844513,-0.0007594113703817129,-141.20880126953125
600602,-1.0068556070327759,0.36440810561180115,-0.024787500500679016,0.29481273889541626,0.014153571799397469,-141.2008819580078
600642,-1.0069061517715454,0.3644183874130249,-0.024681124836206436,0.30250945687294006,0.013157053850591183,-141.15911865234375
600682,-1.0069117546081543,0.36434122920036316,-0.024624502286314964,0.2972884476184845,0.006845597177743912,-141.2289276123047
600722,-1.006941556930542,0.36423277854919434,-0.024530738592147827,0.2923615276813507,0.004944069776684046,-141.11265563964844
600762,-1.0068860054016113,0.36428338289260864,-0.024639125913381577,0.2923203110694885,0.00783950462937355,-141.1775360107422
600802,-1.006845235824585,0.36440572142601013,-0.02481149509549141,0.30097076296806335,0.004172691144049168,-141.1759490966797
600842,-1.0068848133087158,0.3644235134124756,-0.024779193103313446,0.3071271777153015,0.002508186735212803,-141.13128662109375
600882,-1.0069228410720825,0.36433687806129456,-0.024644333869218826,0.3057674169540405,-0.003525601467117667,-141.20077514648438
600922,-1.0069135427474976,0.3642065227031708,-0.024586990475654602,0.29420262575149536,-0.006944118533283472,-141.09896850585938
600962,-1.0068105459213257,0.3642510771751404,-0.024641742929816246,0.2918733060359955,0.007496493402868509,-141.1740264892578
601002,-1.0068187713623047,0.36440300941467285,-0.024738859385252,0.30621644854545593,0.009415092878043652,-141.24330139160156
601042,-1.0069622993469238,0.36425909399986267,-0.02438761480152607,0.31080037355422974,0.001321613322943449,-141.13356018066406
601085,-1.0068660974502563,0.364382803440094,-0.02478412166237831,0.3043006658554077,0.0005857782089151442,-141.21011352539062
601122,-1.0069369077682495,0.36420661211013794,-0.02440498396754265,0.3065710663795471,0.0017753110732883215,-141.10243225097656
601162,-1.0068434476852417,0.3642786145210266,-0.024605797603726387,0.304396390914917,0.0022931285202503204,-141.1797637939453
601202,-1.006799340248108,0.36446794867515564,-0.025016648694872856,0.31081095337867737,-0.0003281678073108196,-141.2482452392578
601242,-1.006853699684143,0.36445873975753784,-0.024904778227210045,0.3167344331741333,-0.006427029147744179,-141.13137817382812
601285,-1.0068126916885376,0.3643493056297302,-0.0249062217772007,0.29847487807273865,-0.005539011210203171,-141.19749450683594
601322,-1.0068618059158325,0.3642607033252716,-0.024676360189914703,0.3020942211151123,-0.005824832245707512,-141.07965087890625
601362,-1.0069348812103271,0.36432763934135437,-0.024834757670760155,0.3129208981990814,-0.01095846202224493,-141.14170837402344
601402,-1.0068583488464355,0.3645472228527069,-0.02508884109556675,0.3149871826171875,-0.0002916347875725478,-141.20579528808594
601442,-1.006872534751892,0.36442846059799194,-0.02470378577709198,0.31136253476142883,0.0004981654928997159,-141.0896453857422
601482,-1.0068963766098022,0.3642762303352356,-0.024470005184412003,0.3033624291419983,-0.0024415599182248116,-141.15284729003906
601522,-1.0069434642791748,0.36422425508499146,-0.0245097354054451,0.3071315586566925,-0.014304506592452526,-141.02931213378906
601562,-1.0068116188049316,0.3642174303531647,-0.024737756699323654,0.2946760654449463,-0.011841031722724438,-141.10025024414062
601602,-1.0067895650863647,0.36429232358932495,-0.024605870246887207,0.305754691362381,-0.004665297456085682,-141.1585235595703
601642,-1.0069520473480225,0.36427411437034607,-0.024401534348726273,0.3229272663593292,-0.01933191530406475,-141.04522705078125
601682,-1.0069115161895752,0.3642512857913971,-0.024341007694602013,0.3109920620918274,-0.012303351424634457,-141.11009216308594
601722,-1.0069369077682495,0.3640446662902832,-0.024063680320978165,0.29906558990478516,-0.017897557467222214,-140.99342346191406
601762,-1.0069743394851685,0.36399325728416443,-0.02393626980483532,0.30004045367240906,-0.018107006326317787,-141.05242919921875
601802,-1.006993293762207,0.36401674151420593,-0.02374938316643238,0.30188459157943726,-0.010843480005860329,-141.0392303466797
601842,-1.0070542097091675,0.3640110194683075,-0.023760929703712463,0.3045573830604553,-0.01798996888101101,-140.99053955078125
601882,-1.0071287155151367,0.3639563322067261,-0.023706194013357162,0.3056851923465729,-0.025599179789423943,-141.05625915527344
601922,-1.007077693939209,0.36389797925949097,-0.023672301322221756,0.2953077256679535,-0.015992112457752228,-140.92860412597656
601962,-1.0070677995681763,0.3638215959072113,-0.02357429452240467,0.29398366808891296,-0.012409709393978119,-140.98794555664062
602003,-1.0071096420288086,0.3636872470378876,-0.023248592391610146,0.29598382115364075,-0.006090254057198763,-141.04803466796875
602042,-1.007206678390503,0.3636418879032135,-0.023058995604515076,0.31042107939720154,-0.007362205535173416,-140.92788696289062
602082,-1.0072541236877441,0.3635685443878174,-0.022867927327752113,0.31444022059440613,-0.007765473797917366,-140.990478515625
602122,-1.007248878479004,0.3634205758571625,-0.022761942818760872,0.3067634403705597,-0.004646433982998133,-140.88426208496094
602162,-1.0071780681610107,0.3634379506111145,-0.022744309157133102,0.30370089411735535,0.0021607736125588417,-140.95542907714844
602203,-1.0072072744369507,0.3632708787918091,-0.022394737228751183,0.3010004162788391,0.003731310833245516,-141.02064514160156
602242,-1.0072797536849976,0.3634127080440521,-0.022517969831824303,0.3204381465911865,0.0012744797859340906,-140.90020751953125
602282,-1.007343053817749,0.36326417326927185,-0.022297348827123642,0.31569546461105347,-0.002229686826467514,-140.9647216796875
602322,-1.0072712898254395,0.3631356358528137,-0.022272931411862373,0.29818102717399597,0.0013981065712869167,-140.8517608642578
602362,-1.0072331428527832,0.36333081126213074,-0.022495418787002563,0.31591588258743286,0.005763242486864328,-140.92298889160156
602403,-1.0072622299194336,0.3633411228656769,-0.022424807772040367,0.31922730803489685,0.004174679052084684,-140.9911346435547
602442,-1.0073556900024414,0.36328941583633423,-0.022136135026812553,0.32722008228302,0.003893944201990962,-140.8655548095703
602482,-1.0073667764663696,0.36320242285728455,-0.022007815539836884,0.31787291169166565,0.0026044684927910566,-140.92678833007812
602522,-1.0073621273040771,0.3632577359676361,-0.022126754745841026,0.3172836899757385,0.0017545005539432168,-140.8182373046875
602562,-1.0073494911193848,0.36323273181915283,-0.02201659604907036,0.3135279715061188,0.004302590154111385,-140.88949584960938
602603,-1.0073356628417969,0.36322879791259766,-0.022104011848568916,0.30771008133888245,0.003970415331423283,-140.8813934326172
602642,-1.0073165893554688,0.3632306754589081,-0.022168515250086784,0.301431268453598,0.006554803345352411,-140.83395385742188
602682,-1.0073353052139282,0.3631744086742401,-0.022050337865948677,0.30102184414863586,0.008463561534881592,-140.8986053466797
