Timestamp,stateEstimate.x,stateEstimate.y,stateEstimate.z,stateEstimate.roll,stateEstimate.pitch,stateEstimate.yaw
627562,0.2393549531698227,0.3867361545562744,0.010884642601013184,0.1160987988114357,0.12184426933526993,-178.21102905273438
627602,0.23931461572647095,0.38678404688835144,0.010886427946388721,0.12178456038236618,0.12202285975217819,-178.17929077148438
627642,0.23951460421085358,0.3868716061115265,0.010723010636866093,0.11867174506187439,0.12812338769435883,-178.25204467773438
627682,0.2388642132282257,0.38654032349586487,0.01137509848922491,0.11744130402803421,0.1149398684501648,-178.14279174804688
627722,0.2390175461769104,0.38661766052246094,0.011235917918384075,0.11880066245794296,0.120868019759655,-178.2242889404297
627762,0.23909442126750946,0.3866354525089264,0.011125286109745502,0.11513572931289673,0.1240258663892746,-178.30618286132812
627802,0.23953573405742645,0.3867920935153961,0.010739412158727646,0.11628572642803192,0.13195103406906128,-178.1878662109375
627842,0.23923516273498535,0.3866191804409027,0.010844211094081402,0.11635053157806396,0.11956248432397842,-178.25213623046875
627882,0.23906013369560242,0.38654235005378723,0.011092431843280792,0.123489148914814,0.12428098171949387,-178.13014221191406
627922,0.23895056545734406,0.38648298382759094,0.011192452162504196,0.12602011859416962,0.12541881203651428,-178.19808959960938
627962,0.2394215613603592,0.38678842782974243,0.01081664115190506,0.13396571576595306,0.13530084490776062,-178.2789306640625
628002,0.23905006051063538,0.3865540325641632,0.011247633956372738,0.1293816715478897,0.1300191730260849,-178.14443969726562
628042,0.23913414776325226,0.3866700530052185,0.0111563540995121,0.1368393450975418,0.1309402883052826,-178.22964477539062
628082,0.23922543227672577,0.3866616189479828,0.011090683750808239,0.13083918392658234,0.13324785232543945,-178.10794067382812
628122,0.23936963081359863,0.38670897483825684,0.0108985286206007,0.12885132431983948,0.1310298591852188,-178.18165588378906
628162,0.23916547000408173,0.3866458535194397,0.011034122668206692,0.12945859134197235,0.1313028335571289,-178.24761962890625
628202,0.23948821425437927,0.3868003189563751,0.010790339671075344,0.13311998546123505,0.1379833221435547,-178.12741088867188
628245,0.23915545642375946,0.3866026997566223,0.011069042608141899,0.12975728511810303,0.1239398866891861,-177.98512268066406
628282,0.23903687298297882,0.3865717649459839,0.011175647377967834,0.13513202965259552,0.12108831852674484,-178.0443878173828
628322,0.23894815146923065,0.3864556849002838,0.01127239502966404,0.12796145677566528,0.12321819365024567,-178.0884246826172
628362,0.23851223289966583,0.38621020317077637,0.011834593489766121,0.12935146689414978,0.12044286727905273,-177.95631408691406
628402,0.23818065226078033,0.3860867917537689,0.012193769216537476,0.1326102614402771,0.11280875653028488,-178.0115203857422
628442,0.23808437585830688,0.3860277235507965,0.012247386388480663,0.13004539906978607,0.11079347878694534,-178.08392333984375
628482,0.23818929493427277,0.3861137926578522,0.012224172241985798,0.13497360050678253,0.11842737346887589,-177.96197509765625
628522,0.23829594254493713,0.3861504793167114,0.012209196574985981,0.13420818746089935,0.12299848347902298,-178.0383758544922
628562,0.23796269297599792,0.38598892092704773,0.012428882531821728,0.13541854918003082,0.11245930939912796,-177.94097900390625
628602,0.23804281651973724,0.38601788878440857,0.012374267913401127,0.13229672610759735,0.12106414884328842,-178.04302978515625
628642,0.23827224969863892,0.3861924707889557,0.012109898030757904,0.14000414311885834,0.12298886477947235,-178.14227294921875
628682,0.2382304072380066,0.3861028254032135,0.012194528244435787,0.13101904094219208,0.12753503024578094,-178.07102966308594
628722,0.23792602121829987,0.385891854763031,0.012347671203315258,0.12498051673173904,0.11570482701063156,-178.163818359375
628762,0.23832741379737854,0.3859735429286957,0.012028364464640617,0.11766834557056427,0.13222487270832062,-178.26768493652344
628802,0.23838451504707336,0.38617101311683655,0.011919920332729816,0.13241618871688843,0.12633539736270905,-178.19625854492188
628842,0.2388705462217331,0.3864811658859253,0.011420912109315395,0.1377464383840561,0.13120727241039276,-178.30313110351562
628882,0.2387690544128418,0.38639897108078003,0.01151448767632246,0.13355553150177002,0.12817174196243286,-178.2096710205078
628922,0.23913753032684326,0.3866615891456604,0.01113173272460699,0.13920283317565918,0.1297340989112854,-178.30894470214844
628962,0.23896609246730804,0.3865010440349579,0.011295086704194546,0.1285315304994583,0.13145017623901367,-178.39918518066406
629002,0.23891238868236542,0.38647696375846863,0.011224441230297089,0.1268804967403412,0.13027602434158325,-178.31234741210938
629042,0.23926278948783875,0.3866654932498932,0.01086245197802782,0.13014651834964752,0.13526450097560883,-178.3983917236328
629082,0.23913554847240448,0.38657715916633606,0.011047718115150928,0.1289406269788742,0.13179735839366913,-178.2925262451172
629122,0.2391676902770996,0.38661378622055054,0.011038057506084442,0.13052234053611755,0.12609900534152985,-178.37728881835938
629163,0.23912978172302246,0.3865986466407776,0.011068806052207947,0.1298079788684845,0.1206739991903305,-178.28433227539062
629202,0.23919299244880676,0.3866407573223114,0.010955513454973698,0.1291540265083313,0.12061905115842819,-178.37484741210938
629242,0.23945561051368713,0.38676872849464417,0.01065056212246418,0.1275395154953003,0.12141156941652298,-178.45614624023438
629282,0.23958373069763184,0.38683560490608215,0.010447141714394093,0.12872794270515442,0.12248673290014267,-178.35952758789062
629322,0.2398257702589035,0.38697871565818787,0.010182378813624382,0.1314353346824646,0.12775513529777527,-178.4473876953125
629362,0.2403438836336136,0.3872244358062744,0.009688370861113071,0.1380448192358017,0.12959957122802734,-178.53729248046875
629402,0.24038814008235931,0.3872056305408478,0.00964016281068325,0.13668811321258545,0.12422451376914978,-178.433837890625
629442,0.2405216246843338,0.3873080611228943,0.009417037479579449,0.1451513022184372,0.11035387963056564,-178.51385498046875
629482,0.24111349880695343,0.3876701295375824,0.00891042035073042,0.16047988831996918,0.1267242580652237,-178.43223571777344
629522,0.24112612009048462,0.38770315051078796,0.008824354037642479,0.15147271752357483,0.12450507283210754,-178.51905822753906
629562,0.24111266434192657,0.3876960277557373,0.008702979423105717,0.1438707709312439,0.12350010871887207,-178.5990753173828
629602,0.24133563041687012,0.38785573840141296,0.008499737828969955,0.14457707107067108,0.13009603321552277,-178.4906463623047
629642,0.24188362061977386,0.38813647627830505,0.007961814291775227,0.14428843557834625,0.1422034651041031,-178.5775604248047
629682,0.2421388328075409,0.38821011781692505,0.007523925509303808,0.13891662657260895,0.14008449018001556,-178.48138427734375
629722,0.2422218918800354,0.3882628083229065,0.007425916846841574,0.13665707409381866,0.1362573653459549,-178.56121826171875
629764,0.24238474667072296,0.38834279775619507,0.007313048467040062,0.13529857993125916,0.14305686950683594,-178.45547485351562
629802,0.24259264767169952,0.3884827196598053,0.007080174516886473,0.13813863694667816,0.13913089036941528,-178.53347778320312
629842,0.2429160624742508,0.38867610692977905,0.006706987041980028,0.13426457345485687,0.13773231208324432,-178.61619567871094
629882,0.2428327053785324,0.38868603110313416,0.006694377399981022,0.13321535289287567,0.13477765023708344,-178.5072784423828
629922,0.24309194087982178,0.3887921869754791,0.006468696519732475,0.12752683460712433,0.13885876536369324,-178.58790588378906
629963,0.24324096739292145,0.38880813121795654,0.006167820189148188,0.11862866580486298,0.13919812440872192,-178.66114807128906
630002,0.24326647818088531,0.3888113498687744,0.006174254231154919,0.12096886336803436,0.13488467037677765,-178.54998779296875
630042,0.2433577924966812,0.3888401389122009,0.006033820565789938,0.12150972336530685,0.13428930938243866,-178.6255340576172
630082,0.24296660721302032,0.38865405321121216,0.006549515761435032,0.12780918180942535,0.133034348487854,-178.52188110351562
630122,0.2432508021593094,0.3888183832168579,0.006233636289834976,0.12878826260566711,0.13359598815441132,-178.6085662841797
630163,0.243297278881073,0.3888247311115265,0.006191500462591648,0.12527255713939667,0.13290026783943176,-178.6876220703125
630202,0.24324902892112732,0.38882604241371155,0.006348242051899433,0.1285807341337204,0.1287393867969513,-178.58425903320312
630242,0.24322651326656342,0.3888256251811981,0.006259842310100794,0.12783336639404297,0.12314117699861526,-178.6592559814453
630282,0.2430926263332367,0.3887375593185425,0.006347126327455044,0.12512312829494476,0.12198828160762787,-178.54327392578125
630322,0.24328143894672394,0.3885882794857025,0.00589376175776124,0.17798759043216705,0.20774652063846588,-179.18365478515625
630364,0.2421376258134842,0.387228786945343,0.005437898449599743,0.13354894518852234,0.2077690213918686,179.63470458984375
630402,0.2430465817451477,0.3893410265445709,0.005304994061589241,0.25931763648986816,0.2616037428379059,-178.6251220703125
630442,0.24295619130134583,0.39408642053604126,0.0052994005382061005,0.23798201978206635,0.24250230193138123,-179.586669921875
630482,0.24197259545326233,0.39564162492752075,0.005835114978253841,0.24177302420139313,0.1893891990184784,178.79696655273438
630522,0.24191094934940338,0.3958565890789032,0.005330399144440889,0.14143584668636322,0.06646094471216202,178.65939331054688
630564,0.24245314300060272,0.3961288332939148,0.004621097352355719,0.13146592676639557,0.07068342715501785,178.5780029296875
630602,0.24248605966567993,0.3961016535758972,0.0045443130657076836,0.12115558236837387,0.07628360390663147,178.68475341796875
630642,0.24320422112941742,0.396573543548584,0.0037110289558768272,0.1291135549545288,0.08060044050216675,178.61032104492188
630682,0.24366436898708344,0.39679861068725586,0.003276482690125704,0.12348393350839615,0.08820658177137375,178.7017059326172
630722,0.24376899003982544,0.396780401468277,0.00256184465251863,0.12605826556682587,0.09259600192308426,178.02085876464844
630764,0.24470344185829163,0.3973594605922699,0.0017149436753243208,0.1401929259300232,0.10142999142408371,178.47398376464844
630802,0.2455528825521469,0.397945374250412,0.0018911627121269703,0.12004081159830093,0.07170931249856949,179.6225128173828
630842,0.24617999792099,0.3984664976596832,0.0022225440479815006,0.06229003518819809,-0.4237865209579468,179.74749755859375
630882,0.24550843238830566,0.39923369884490967,0.004988022148609161,0.0658407136797905,-2.9009149074554443,177.6396942138672
630922,0.24850937724113464,0.4018339216709137,0.007715840358287096,0.16073821485042572,-7.178410530090332,172.6282196044922
630964,0.252402663230896,0.4039250612258911,0.01159848552197218,1.8733519315719604,-10.407281875610352,170.63446044921875
631002,0.25520068407058716,0.40422067046165466,0.0201280415058136,1.5949840545654297,-8.968894958496094,170.77870178222656
631042,0.2567930221557617,0.4011994004249573,0.030555902048945427,1.8254321813583374,-8.711820602416992,170.79452514648438
631082,0.2575608789920807,0.3967425525188446,0.04405596852302551,1.6303837299346924,-8.84345531463623,171.18905639648438
631122,0.257133811712265,0.39195939898490906,0.06104966998100281,1.4913989305496216,-8.734893798828125,171.45030212402344
631164,0.2565557360649109,0.3868703246116638,0.08050118386745453,1.266657829284668,-8.655169486999512,171.51551818847656
631202,0.25623196363449097,0.3819887042045593,0.10224419087171555,0.9532238245010376,-8.719067573547363,171.4051971435547
631242,0.25510624051094055,0.37823259830474854,0.12571308016777039,0.6575725674629211,-8.807376861572266,171.5711669921875
631282,0.2525324523448944,0.3747154474258423,0.1552192121744156,0.3867984116077423,-8.315923690795898,171.59507751464844
631322,0.2492624819278717,0.3714851438999176,0.18666359782218933,-0.09449002891778946,-7.657970905303955,171.82432556152344
631364,0.24772661924362183,0.3688654899597168,0.21754851937294006,0.023426363244652748,-7.447169303894043,171.5491485595703
631402,0.24571876227855682,0.36622804403305054,0.24938571453094482,0.45512819290161133,-6.911388874053955,171.1767120361328
631442,0.24372851848602295,0.36350777745246887,0.2800624966621399,0.2741506099700928,-6.795928001403809,171.78236389160156
631482,0.24208007752895355,0.36109569668769836,0.3130364418029785,0.23270754516124725,-6.79374361038208,171.8097381591797
631522,0.24100461602210999,0.3595781624317169,0.3478102684020996,0.03424319997429848,-6.524226665496826,170.73033142089844
631562,0.2404763400554657,0.35878801345825195,0.3809949457645416,-0.030331237241625786,-5.948072910308838,169.8505401611328
631602,0.23944050073623657,0.35757219791412354,0.4141697585582733,-0.5329108834266663,-5.769203186035156,170.63743591308594
631642,0.23918122053146362,0.3571556806564331,0.44404080510139465,-0.990426778793335,-5.616088390350342,170.96156311035156
631683,0.2392132580280304,0.3574157953262329,0.47824305295944214,-1.3037681579589844,-4.890408515930176,170.3289031982422
631722,0.23878681659698486,0.35760498046875,0.5116877555847168,-1.5472403764724731,-4.4732513427734375,169.74864196777344
631762,0.2394953817129135,0.3578152060508728,0.5437673926353455,-1.8781001567840576,-3.764460325241089,169.23190307617188
631802,0.2406235933303833,0.35772088170051575,0.5742596387863159,-2.1650004386901855,-4.098491191864014,169.40304565429688
631842,0.24322302639484406,0.35768187046051025,0.6026622653007507,-2.501311779022217,-4.136753559112549,169.2825164794922
631883,0.24478837847709656,0.3562162220478058,0.6351668238639832,-2.7616872787475586,-4.394719123840332,169.49319458007812
631922,0.24671633541584015,0.35432276129722595,0.6655399799346924,-2.605250835418701,-4.7486982345581055,170.2030792236328
631962,0.24930121004581451,0.3527185320854187,0.6951206922531128,-2.261655807495117,-4.594471454620361,170.3266143798828
632002,0.2516867518424988,0.351094514131546,0.7250348925590515,-2.4997687339782715,-3.6412978172302246,170.65292358398438
632042,0.25524675846099854,0.35046014189720154,0.7493774890899658,-3.0770483016967773,-3.237234354019165,171.07315063476562
632083,0.25809961557388306,0.3496853709220886,0.7692181468009949,-3.108874797821045,-2.824861764907837,171.17027282714844
632122,0.26357340812683105,0.3492276668548584,0.7981966137886047,-3.1173980236053467,-2.3391427993774414,170.80099487304688
632162,0.2681638300418854,0.34929877519607544,0.8196452260017395,-3.010986804962158,-2.769571542739868,170.80714416503906
632202,0.27182039618492126,0.34957584738731384,0.8412699699401855,-2.6316893100738525,-2.6328063011169434,170.91064453125
632242,0.27686819434165955,0.3507772982120514,0.8597932457923889,-1.7617930173873901,-2.397202253341675,170.13162231445312
632284,0.28136423230171204,0.35186874866485596,0.8795987367630005,-1.5400824546813965,-2.2010762691497803,170.10235595703125
632322,0.28328168392181396,0.3517336845397949,0.8963090777397156,-1.034460425376892,-3.315178871154785,171.1342010498047
632362,0.28509920835494995,0.3523649573326111,0.9117881059646606,-0.19161772727966309,-2.990809917449951,170.98165893554688
632402,0.28718656301498413,0.3531729578971863,0.9266840219497681,-0.17455103993415833,-2.173370838165283,171.34957885742188
632442,0.2870478332042694,0.3529020845890045,0.9356905817985535,0.33255869150161743,-2.3199918270111084,171.49496459960938
632484,0.2880259156227112,0.3534035086631775,0.9476583003997803,-0.12490662187337875,-2.0612738132476807,172.0624542236328
632522,0.289655476808548,0.35438022017478943,0.9580970406532288,-0.2591840922832489,-1.7354685068130493,171.74600219726562
632562,0.2908191382884979,0.3554556667804718,0.967953622341156,-0.5165270566940308,-1.2779924869537354,171.06997680664062
632602,0.2918020486831665,0.35607242584228516,0.9774972200393677,-0.31152522563934326,-0.818270206451416,170.7589874267578
632642,0.2909291982650757,0.3552211821079254,0.9818366765975952,-0.38759738206863403,-0.5613305568695068,170.8063507080078
632684,0.29035523533821106,0.35340312123298645,0.9860351085662842,-0.5766417384147644,-0.2922431230545044,170.84361267089844
632722,0.2896423637866974,0.3517623841762543,0.9871243238449097,-0.7053787708282471,-0.3420804738998413,171.21653747558594
632762,0.28971290588378906,0.35030272603034973,0.9870158433914185,-0.3530923128128052,-0.5816558003425598,171.39373779296875
632802,0.2912396788597107,0.35028934478759766,0.9871880412101746,-0.5802466869354248,-0.7840775847434998,171.5093994140625
632842,0.2913110554218292,0.350288450717926,0.98795086145401,-0.6503543853759766,-0.6715784668922424,171.56552124023438
632884,0.29154783487319946,0.35057568550109863,0.9883298873901367,-0.36957475543022156,-0.9383667707443237,171.65280151367188
632922,0.2920383810997009,0.35162416100502014,0.9892065525054932,-0.4858103096485138,-1.058519721031189,171.7406463623047
632962,0.29260537028312683,0.3529197573661804,0.9903493523597717,-0.5535698533058167,-1.044006109237671,171.42706298828125
633002,0.2935633659362793,0.35448530316352844,0.9910455346107483,-0.5534611344337463,-1.0360896587371826,171.27027893066406
633042,0.29364311695098877,0.35511264204978943,0.9913082122802734,-0.5292003154754639,-1.1495133638381958,171.49526977539062
633082,0.29419705271720886,0.3561503291130066,0.9914068579673767,-0.46024203300476074,-1.130340337753296,171.31382751464844
633122,0.29373422265052795,0.35645997524261475,0.991958737373352,-0.36563101410865784,-1.326697826385498,171.65045166015625
633162,0.2937675714492798,0.3570269048213959,0.9925575852394104,-0.3651025891304016,-1.2373082637786865,171.6933135986328
633202,0.2938169836997986,0.35748612880706787,0.9936239123344421,-0.22916054725646973,-0.9106793999671936,171.4592742919922
633242,0.293563574552536,0.3573702871799469,0.9943587779998779,-0.2704263925552368,-0.6845574975013733,171.45370483398438
633282,0.2936033606529236,0.35698023438453674,0.9950898885726929,-0.28992122411727905,-0.336386114358902,171.20867919921875
633322,0.2932637631893158,0.35587936639785767,0.9952756762504578,-0.35118383169174194,-0.2762764096260071,171.19886779785156
633362,0.2932043671607971,0.3542354106903076,0.9949646592140198,-0.43391966819763184,-0.4260563254356384,171.12152099609375
633402,0.2930777966976166,0.3518531024456024,0.9944841861724854,-0.8636689186096191,-0.7873310446739197,171.0240020751953
633442,0.29265186190605164,0.34793898463249207,0.9937785267829895,-1.5381265878677368,-1.6544787883758545,170.72418212890625
633482,0.2927952706813812,0.342572957277298,0.9916867613792419,-1.9613456726074219,-2.892390489578247,169.61721801757812
633522,0.29385805130004883,0.336186021566391,0.9892691373825073,-2.1867666244506836,-3.676861047744751,168.8289794921875
633562,0.2943015396595001,0.32804349064826965,0.9877749681472778,-2.7344915866851807,-3.6844804286956787,168.67041015625
633602,0.29608267545700073,0.31960293650627136,0.9858359694480896,-2.3159661293029785,-3.3411386013031006,168.63453674316406
633642,0.29766154289245605,0.3096224069595337,0.9849088191986084,-2.813106060028076,-2.8775503635406494,168.73922729492188
633682,0.29775869846343994,0.29785892367362976,0.984766960144043,-3.0159637928009033,-2.34458327293396,168.63430786132812
633722,0.2998877465724945,0.2870028018951416,0.9835119247436523,-2.9797208309173584,-2.0180749893188477,168.17832946777344
633762,0.3018065392971039,0.2757154703140259,0.9825031757354736,-3.135449171066284,-1.8006857633590698,167.3692626953125
633802,0.3036203682422638,0.2644462585449219,0.9814086556434631,-3.0156493186950684,-1.729156255722046,167.26617431640625
633842,0.30422455072402954,0.25167611241340637,0.9813734889030457,-3.0177080631256104,-1.4716087579727173,167.48097229003906
633882,0.3046671450138092,0.23825202882289886,0.9819685220718384,-3.218729257583618,-1.4391642808914185,167.32542419433594
633922,0.3053431212902069,0.22524546086788177,0.9825291633605957,-3.205329179763794,-1.2265011072158813,167.16519165039062
633962,0.3058222830295563,0.21178855001926422,0.9827550649642944,-3.065546989440918,-1.2158585786819458,167.14378356933594
634002,0.3078249990940094,0.19594427943229675,0.9823944568634033,-2.9664249420166016,-1.2733978033065796,167.2413330078125
634042,0.3096070885658264,0.18719488382339478,0.9819207191467285,-2.5212783813476562,-1.2817893028259277,167.44227600097656
634082,0.30983203649520874,0.17400594055652618,0.9824819564819336,-2.552412509918213,-1.3192743062973022,167.99795532226562
634122,0.3111811876296997,0.16246028244495392,0.9829044342041016,-2.4741086959838867,-1.3658652305603027,168.75355529785156
634162,0.31175142526626587,0.15059037506580353,0.9836735129356384,-1.9703726768493652,-1.202640175819397,169.16314697265625
634202,0.31226229667663574,0.13919638097286224,0.9843489527702332,-1.8593565225601196,-1.3542637825012207,170.1555938720703
634242,0.31257763504981995,0.12842093408107758,0.9850592017173767,-1.5898529291152954,-1.5043035745620728,171.01211547851562
634282,0.3123294711112976,0.11720510572195053,0.9862909317016602,-1.2789512872695923,-1.5546772480010986,171.72251892089844
634322,0.3117366433143616,0.10710685700178146,0.9872967004776001,-0.9510213136672974,-1.548733115196228,172.39064025878906
634362,0.3106039762496948,0.09708099812269211,0.9878745079040527,-0.6680066585540771,-1.4405618906021118,172.77951049804688
634402,0.30954647064208984,0.086707204580307,0.9886792302131653,-0.5400406718254089,-1.3197084665298462,173.4428253173828
634442,0.3086915910243988,0.0766521543264389,0.9895949363708496,-0.1872692108154297,-1.1577184200286865,173.71176147460938
634482,0.30720868706703186,0.06503883004188538,0.9907835125923157,0.14511945843696594,-0.8664271831512451,173.83013916015625
634522,0.30329880118370056,0.050665076822042465,0.9929567575454712,0.28731998801231384,-0.8203808069229126,174.55947875976562
634562,0.30370840430259705,0.03991905599832535,0.9932808876037598,0.47305846214294434,-0.6699050664901733,174.93405151367188
634602,0.3013755977153778,0.026790689677000046,0.9946267604827881,0.5359809994697571,-0.55687415599823,175.16371154785156
634642,0.2986573576927185,0.01304371003061533,0.995285153388977,0.4516978859901428,-0.6446886658668518,175.8241424560547
634682,0.2959150969982147,-0.0011072815395891666,0.995406985282898,0.4194192886352539,-0.7314884066581726,176.1287841796875
634722,0.2937183380126953,-0.015396707691252232,0.9945744872093201,0.3617737889289856,-0.6734359860420227,176.15972900390625
634762,0.2938966751098633,-0.028750453144311905,0.9919597506523132,0.5918996334075928,-0.7191101312637329,175.7010040283203
634803,0.29346778988838196,-0.04374752938747406,0.9895535707473755,0.9304572939872742,-0.6184764504432678,175.62164306640625
634842,0.29043716192245483,-0.06079169735312462,0.9890127778053284,0.89402174949646,-0.6459418535232544,175.48910522460938
634882,0.2891037166118622,-0.07760998606681824,0.9885860085487366,1.3169240951538086,-0.3722144365310669,174.8758087158203
634922,0.2884490191936493,-0.09476908296346664,0.9883928894996643,1.377025842666626,0.1542864739894867,174.20664978027344
634962,0.28926515579223633,-0.11207418888807297,0.9864482283592224,1.557862639427185,0.14273658394813538,174.0667266845703
635003,0.2879355847835541,-0.13110624253749847,0.9862323999404907,1.0994155406951904,0.4381330907344818,173.88380432128906
635042,0.2852083146572113,-0.15107461810112,0.9860155582427979,0.8651071190834045,0.60940021276474,173.1544952392578
635082,0.2840568721294403,-0.17046213150024414,0.983230710029602,0.866767168045044,0.3721790015697479,172.76829528808594
635122,0.2860037684440613,-0.18862417340278625,0.9787004590034485,0.6475372910499573,-0.3351724445819855,173.0448760986328
635162,0.2891523838043213,-0.20460815727710724,0.9746412634849548,0.8688468933105469,-0.8237007260322571,172.65162658691406
635203,0.289220929145813,-0.22000619769096375,0.9727880358695984,0.9555891156196594,-1.1839752197265625,172.30494689941406
635242,0.28918883204460144,-0.2347385287284851,0.9707452654838562,1.191765546798706,-1.6185365915298462,171.95712280273438
635282,0.2891976833343506,-0.24771061539649963,0.9699324369430542,1.3800122737884521,-1.596384048461914,171.4825439453125
635322,0.28946492075920105,-0.2598263919353485,0.9699316024780273,1.3558300733566284,-1.4694167375564575,171.39764404296875
635362,0.2893226444721222,-0.27127188444137573,0.9706724286079407,1.3896058797836304,-1.1195945739746094,171.03610229492188
635403,0.28913289308547974,-0.2835724651813507,0.9712503552436829,1.0669984817504883,-0.9851799011230469,171.57386779785156
635442,0.2876264750957489,-0.29615360498428345,0.9729482531547546,0.7091481685638428,-0.7975797653198242,171.93563842773438
635482,0.2871125340461731,-0.30803415179252625,0.9742891788482666,0.4720627963542938,-0.5579544901847839,172.17295837402344
635522,0.2867206037044525,-0.31969448924064636,0.9756844639778137,0.3180025517940521,-0.2717873752117157,172.6723175048828
635562,0.28609979152679443,-0.33065906167030334,0.9770480990409851,0.26402848958969116,-0.05308261141180992,172.84649658203125
635604,0.2850915491580963,-0.34268999099731445,0.9789022207260132,0.19063197076320648,0.2513538897037506,173.08242797851562
635642,0.28351032733917236,-0.3543235659599304,0.9812746644020081,0.11723968386650085,0.3794865012168884,173.81549072265625
635682,0.282089501619339,-0.3659819960594177,0.9840044975280762,0.13359972834587097,0.6089288592338562,173.88290405273438
635722,0.2809557616710663,-0.3768072724342346,0.9862558245658875,0.36872345209121704,0.6981629133224487,173.87867736816406
635762,0.2810169756412506,-0.38538676500320435,0.9874169826507568,0.6616668701171875,0.7489925026893616,173.65711975097656
635803,0.2788781523704529,-0.39588913321495056,0.9901154637336731,0.8058343529701233,0.8456242680549622,173.58135986328125
635842,0.2757152318954468,-0.40573376417160034,0.9930663704872131,1.0357500314712524,0.7527255415916443,173.5955810546875
635882,0.27431589365005493,-0.41525396704673767,0.9950025677680969,2.0778145790100098,0.7369185090065002,172.9143524169922
635922,0.27195680141448975,-0.42533984780311584,0.9980855584144592,2.773737907409668,0.8385729193687439,172.99560546875
635962,0.2702253460884094,-0.43358495831489563,1.0010098218917847,3.024566411972046,0.799656867980957,173.6713409423828
636003,0.2674368619918823,-0.4435636103153229,1.005339503288269,3.40865159034729,1.0532654523849487,173.87110900878906
636042,0.26343974471092224,-0.45349550247192383,1.010144829750061,3.895599126815796,1.218044400215149,174.09034729003906
636082,0.2605533003807068,-0.4625552296638489,1.0148327350616455,3.86358380317688,1.4869706630706787,174.2879180908203
636122,0.2561149001121521,-0.4729931354522705,1.019669771194458,4.641876220703125,1.776951789855957,174.39088439941406
636162,0.2540198266506195,-0.4809217154979706,1.0225909948349,5.5599894523620605,1.7614071369171143,174.26849365234375
636203,0.2519366145133972,-0.48939982056617737,1.0262020826339722,6.05582332611084,1.9583433866500854,174.0642547607422
636242,0.24849748611450195,-0.4993424713611603,1.0298031568527222,6.512964725494385,1.998524785041809,174.19635009765625
636282,0.2453671246767044,-0.5073161721229553,1.033429741859436,6.661523818969727,2.208467721939087,174.2387237548828
636322,0.24102936685085297,-0.5174036622047424,1.0364679098129272,7.104795455932617,2.1409826278686523,174.7526092529297
636362,0.23919366300106049,-0.5236954689025879,1.039231777191162,6.496853828430176,2.3148910999298096,175.02711486816406
636404,0.23773585259914398,-0.5310338139533997,1.0417815446853638,5.986346244812012,2.751906156539917,175.48562622070312
636442,0.23497648537158966,-0.5405764579772949,1.043285846710205,6.653250694274902,2.555845022201538,175.71629333496094
636482,0.2355465590953827,-0.5474041104316711,1.0441316366195679,6.532104015350342,2.9019596576690674,175.46286010742188
636522,0.23555290699005127,-0.5567138195037842,1.0452804565429688,6.105098724365234,3.2301697731018066,175.81744384765625
636562,0.23760223388671875,-0.5630854368209839,1.0445631742477417,6.4625959396362305,3.169438600540161,176.02684020996094
636604,0.239922434091568,-0.5696746706962585,1.044193983078003,6.631689548492432,3.3785765171051025,175.73594665527344
636642,0.2427978217601776,-0.5782873034477234,1.0435620546340942,5.758223533630371,3.278852939605713,176.81939697265625
636682,0.24564045667648315,-0.5849111676216125,1.0426571369171143,5.087579727172852,3.0715928077697754,177.04100036621094
636722,0.2495572566986084,-0.5922139883041382,1.041388988494873,4.400291442871094,2.9022274017333984,176.87290954589844
636762,0.2519674301147461,-0.5983893871307373,1.040252923965454,4.105132102966309,2.3430256843566895,176.8539581298828
636805,0.2544790208339691,-0.6044137477874756,1.0396897792816162,3.4092822074890137,2.373417615890503,176.45372009277344
636842,0.25726091861724854,-0.6093813180923462,1.0388104915618896,2.8407304286956787,2.2652206420898438,176.57595825195312
636882,0.2592068612575531,-0.6130928993225098,1.0383625030517578,2.638216018676758,2.4633119106292725,176.66314697265625
636922,0.26044368743896484,-0.6153642535209656,1.0379457473754883,2.60756778717041,2.460355520248413,176.9727783203125
636962,0.261572003364563,-0.616484522819519,1.0374287366867065,2.527160406112671,2.443000555038452,176.86016845703125
637002,0.2622486650943756,-0.6167823672294617,1.0368459224700928,2.4496524333953857,2.4107236862182617,176.8769989013672
637042,0.263288676738739,-0.6167315244674683,1.035714030265808,2.357119083404541,2.25898814201355,176.99392700195312
637082,0.26474809646606445,-0.6164935827255249,1.0341863632202148,2.3108179569244385,2.1417958736419678,176.84043884277344
637122,0.2660692632198334,-0.6159788966178894,1.0327085256576538,2.1129977703094482,1.9943069219589233,176.77703857421875
637162,0.2663230895996094,-0.6149166822433472,1.0312520265579224,1.9279650449752808,1.7456074953079224,176.8612518310547
637202,0.26649272441864014,-0.6132843494415283,1.0296714305877686,1.794664978981018,1.4725000858306885,176.50320434570312
637242,0.26586514711380005,-0.6115307807922363,1.0282834768295288,1.7496272325515747,1.142530918121338,176.44154357910156
637282,0.26459023356437683,-0.6100156307220459,1.0272213220596313,1.6449778079986572,0.9903948903083801,176.25306701660156
637322,0.2627868354320526,-0.6086876392364502,1.0258331298828125,1.5996845960617065,0.7897171378135681,176.11643981933594
637362,0.26065942645072937,-0.6082179546356201,1.025560975074768,1.5532724857330322,0.8083986639976501,176.10220336914062
637402,0.2565856873989105,-0.6076915264129639,1.025185227394104,1.5698267221450806,0.6949527859687805,175.89352416992188
637442,0.25185540318489075,-0.6071840524673462,1.0248537063598633,1.6191794872283936,0.5583046078681946,175.789794921875
637482,0.2461252361536026,-0.6065880060195923,1.0245918035507202,1.8958040475845337,0.44222649931907654,175.3845977783203
637522,0.24022448062896729,-0.6060066223144531,1.0245697498321533,1.8508700132369995,0.5283088088035583,175.326904296875
637562,0.23326513171195984,-0.6049399375915527,1.0243079662322998,1.9454575777053833,0.486316442489624,175.2636260986328
637602,0.2250315099954605,-0.6034597754478455,1.023795485496521,1.9438649415969849,0.3818923830986023,174.9538116455078
637642,0.2150932401418686,-0.6017285585403442,1.023316502571106,2.0287656784057617,0.0205343347042799,174.95761108398438
637682,0.2053167223930359,-0.5993941426277161,1.0225435495376587,2.076287031173706,-0.09322532266378403,174.54539489746094
637722,0.19597424566745758,-0.5968269109725952,1.0212435722351074,2.1180741786956787,-0.31921955943107605,174.30105590820312
637762,0.18654029071331024,-0.5936439037322998,1.01930832862854,2.347196340560913,-0.4584440290927887,174.00926208496094
637802,0.17534956336021423,-0.5900382399559021,1.0179388523101807,2.384202480316162,-0.5332827568054199,173.73040771484375
637842,0.1618775874376297,-0.5864997506141663,1.0175176858901978,2.4832708835601807,-0.6806871891021729,173.68174743652344
637882,0.1478467732667923,-0.5827118158340454,1.0167226791381836,2.3270208835601807,-1.1170406341552734,173.53988647460938
637922,0.1319865584373474,-0.5782579779624939,1.014461636543274,2.4309868812561035,-1.6390764713287354,173.20848083496094
637962,0.1228446364402771,-0.5758987069129944,1.013503074645996,2.6059365272521973,-1.8006808757781982,172.98130798339844
638002,0.10546229779720306,-0.571794331073761,1.0140266418457031,2.534823417663574,-1.9928439855575562,172.70816040039062
638042,0.08822206407785416,-0.5686850547790527,1.0145647525787354,2.9364869594573975,-2.1225316524505615,172.58665466308594
638082,0.0727623999118805,-0.5651965737342834,1.0144484043121338,3.0293209552764893,-1.9009199142456055,172.23487854003906
638122,0.04914703220129013,-0.5616715550422668,1.0171442031860352,3.23175311088562,-1.5220820903778076,172.327880859375
638162,0.03354182839393616,-0.5604435205459595,1.0201878547668457,2.7899091243743896,-1.0778359174728394,172.79920959472656
638202,0.014102301560342312,-0.5563718676567078,1.0220630168914795,2.4058759212493896,-0.9257863163948059,172.920166015625
638242,-0.003626758698374033,-0.5538040399551392,1.022800326347351,2.6941311359405518,-1.0301131010055542,172.60711669921875
638282,-0.021919498220086098,-0.5499818921089172,1.0246562957763672,2.764746904373169,-1.052807331085205,172.41546630859375
638323,-0.040818747133016586,-0.5476135611534119,1.0286219120025635,2.383025646209717,-0.7676213979721069,173.0597381591797
638362,-0.060716044157743454,-0.5461648106575012,1.0330779552459717,2.261608123779297,-0.6508418321609497,173.3877716064453
638402,-0.0776444524526596,-0.542307436466217,1.0356653928756714,1.8808096647262573,-0.5996527075767517,173.7059326171875
638442,-0.09368181973695755,-0.5416128039360046,1.0380330085754395,1.6609104871749878,-0.5543292164802551,174.32223510742188
638482,-0.11076616495847702,-0.5386673808097839,1.0410534143447876,1.5104131698608398,-0.58515864610672,174.61639404296875
638523,-0.12641340494155884,-0.5363576412200928,1.043916940689087,1.4007298946380615,-0.4285491108894348,174.6226348876953
638562,-0.14180724322795868,-0.5359116792678833,1.0460299253463745,1.495133399963379,-0.280230313539505,174.83438110351562
638602,-0.15554143488407135,-0.5327492356300354,1.0467642545700073,1.3509818315505981,-0.1143224835395813,175.0319061279297
638642,-0.16818703711032867,-0.5330262780189514,1.0466805696487427,1.27655827999115,-0.22247202694416046,175.43618774414062
638682,-0.18181335926055908,-0.530597448348999,1.0467660427093506,1.4285545349121094,-0.5157107710838318,175.41685485839844
638723,-0.19399085640907288,-0.5293158292770386,1.0467125177383423,1.414393424987793,-0.5772782564163208,175.55799865722656
638762,-0.20698249340057373,-0.5304691791534424,1.0465072393417358,1.3025912046432495,-0.6065642237663269,176.04696655273438
638802,-0.21991753578186035,-0.5290085077285767,1.045891523361206,1.3335652351379395,-0.6928308010101318,176.2506103515625
638842,-0.2312176525592804,-0.531184196472168,1.0447232723236084,1.4766384363174438,-0.7716562747955322,176.43572998046875
638882,-0.24352885782718658,-0.5309955477714539,1.0443389415740967,1.4166014194488525,-0.7065483927726746,176.63931274414062
638923,-0.25920984148979187,-0.5325853824615479,1.0436943769454956,1.336517095565796,-0.6322119235992432,176.8090057373047
638962,-0.2674783766269684,-0.5348641276359558,1.0425585508346558,1.3650795221328735,-0.5724437832832336,176.9591064453125
639002,-0.28274425864219666,-0.5348840355873108,1.04240083694458,1.3950051069259644,-0.4686669111251831,176.94485473632812
639042,-0.29701322317123413,-0.5387828946113586,1.041252851486206,1.1599807739257812,-0.35144492983818054,177.31246948242188
639082,-0.31267935037612915,-0.5393074750900269,1.0401899814605713,1.0744558572769165,-0.2806519567966461,177.20118713378906
639123,-0.32720473408699036,-0.5391875505447388,1.0384316444396973,1.0963006019592285,-0.19526982307434082,176.85643005371094
639162,-0.3460657298564911,-0.5419792532920837,1.038674235343933,1.002284049987793,-0.0798339918255806,176.82215881347656
639202,-0.36490464210510254,-0.5404333472251892,1.038358449935913,0.6667799353599548,-0.21249930560588837,176.58905029296875
639242,-0.38085615634918213,-0.542238712310791,1.036464810371399,0.8189603090286255,-0.2446228712797165,175.9683380126953
639282,-0.3979228436946869,-0.5412808656692505,1.0356751680374146,0.6968531012535095,-0.21210327744483948,175.42828369140625
639323,-0.41406959295272827,-0.5407771468162537,1.0355770587921143,0.41129806637763977,-0.030789483338594437,175.2705841064453
639362,-0.43120718002319336,-0.5435366034507751,1.035640001296997,0.43240007758140564,-0.12833628058433533,174.93194580078125
639402,-0.44903460144996643,-0.5433447957038879,1.0360840559005737,0.3839893341064453,-0.26151156425476074,174.5325927734375
639442,-0.4656457304954529,-0.5474411845207214,1.0366511344909668,0.27816301584243774,-0.22050841152668,174.6009979248047
639482,-0.48174455761909485,-0.548773467540741,1.0371654033660889,0.229289710521698,-0.16940151154994965,174.38839721679688
639523,-0.49525678157806396,-0.5497385859489441,1.0366616249084473,0.2527690529823303,0.030826782807707787,174.11053466796875
639562,-0.5097253918647766,-0.5539944171905518,1.036233901977539,0.17351263761520386,0.1462724506855011,174.12728881835938
639602,-0.524211049079895,-0.5549262166023254,1.0354676246643066,0.12155555188655853,0.13581953942775726,173.93817138671875
639642,-0.5374161005020142,-0.5590648055076599,1.0345799922943115,0.19306349754333496,0.15354961156845093,173.84002685546875
639682,-0.5502079725265503,-0.5602430701255798,1.033895492553711,0.10356280952692032,0.30621930956840515,173.52232360839844
639724,-0.5615399479866028,-0.5612692832946777,1.03287935256958,0.10787376761436462,0.42649513483047485,173.36854553222656
639762,-0.5736675262451172,-0.5657988786697388,1.0317211151123047,0.16797949373722076,0.4499605596065521,173.3260040283203
639802,-0.5856683850288391,-0.5673536658287048,1.0302703380584717,0.20296329259872437,0.2922353148460388,173.26681518554688
639842,-0.5966886281967163,-0.5720264315605164,1.028700590133667,0.20412088930606842,0.23327216506004333,173.3622283935547
639882,-0.6075624823570251,-0.5735370516777039,1.0271620750427246,0.13476701080799103,0.2612248957157135,173.2267608642578
639924,-0.6171049475669861,-0.5745233297348022,1.025201678276062,0.07830583304166794,0.2884969413280487,173.16616821289062
639962,-0.6278812289237976,-0.5782659649848938,1.0238139629364014,-0.08360657840967178,0.30575335025787354,173.19509887695312
640002,-0.6391908526420593,-0.578517496585846,1.0222601890563965,-0.25651925802230835,0.13437817990779877,173.13638305664062
640042,-0.6497186422348022,-0.5820935368537903,1.0204695463180542,-0.3473069667816162,0.037471141666173935,173.18324279785156
640082,-0.6601268649101257,-0.5829832553863525,1.018287181854248,-0.4738675653934479,-0.0754360556602478,173.21351623535156
640124,-0.6692587733268738,-0.5835466980934143,1.0156383514404297,-0.5835244059562683,-0.05798903480172157,173.2933349609375
640162,-0.6792730093002319,-0.5874086022377014,1.0130484104156494,-0.6031652092933655,-0.1436782032251358,173.64080810546875
640202,-0.6900768280029297,-0.5875259637832642,1.0115987062454224,-0.8539566993713379,-0.10355266183614731,173.88906860351562
640242,-0.7002608776092529,-0.59077388048172,1.0106898546218872,-0.9633764624595642,0.04164053872227669,174.2710418701172
640282,-0.7106606960296631,-0.5911597609519958,1.010653018951416,-1.0237761735916138,0.2000385969877243,174.6065673828125
640324,-0.720149576663971,-0.591566801071167,1.0112420320510864,-1.0029339790344238,0.41490626335144043,174.95501708984375
640362,-0.7304178476333618,-0.5953084826469421,1.01280677318573,-1.2793428897857666,0.8009422421455383,175.7017364501953
640402,-0.7412785291671753,-0.5956097841262817,1.0153075456619263,-1.6175880432128906,1.1645067930221558,176.5747833251953
640442,-0.7505637407302856,-0.5992475748062134,1.017454743385315,-1.894083023071289,1.4005093574523926,177.5555877685547
640482,-0.7588585615158081,-0.5997554063796997,1.0190902948379517,-2.049006938934326,1.7305052280426025,178.1193389892578
640524,-0.765527606010437,-0.6000320315361023,1.0203946828842163,-2.1813788414001465,2.1273367404937744,178.5373992919922
640562,-0.7719483375549316,-0.6023753881454468,1.0215286016464233,-2.0764317512512207,2.3389737606048584,178.8909454345703
640602,-0.7773563861846924,-0.6009488105773926,1.022284984588623,-2.205399990081787,2.616076707839966,179.00379943847656
640642,-0.7818092107772827,-0.6020827889442444,1.0229042768478394,-2.154773473739624,2.9062888622283936,179.16815185546875
640682,-0.7850239872932434,-0.6002811789512634,1.0225995779037476,-2.205090284347534,3.159217596054077,179.55068969726562
640724,-0.7868884205818176,-0.5989804863929749,1.0222206115722656,-2.305119037628174,3.3989450931549072,179.74122619628906
640762,-0.7881868481636047,-0.5986407399177551,1.02222740650177,-2.5073702335357666,3.688274621963501,-179.94981384277344
640802,-0.7886687517166138,-0.59466952085495,1.022108793258667,-2.5981860160827637,3.903022050857544,-179.90782165527344
640842,-0.7887264490127563,-0.5930777192115784,1.022175908088684,-2.414093255996704,3.9105563163757324,-179.90365600585938
640882,-0.7879455089569092,-0.5883310437202454,1.02232027053833,-1.961654543876648,3.9419896602630615,179.7539825439453
640924,-0.7867853045463562,-0.5867416262626648,1.0231378078460693,-1.7851914167404175,4.030196189880371,179.63743591308594
640962,-0.7859947085380554,-0.5862941741943359,1.0248867273330688,-1.6624466180801392,3.9444563388824463,179.8863067626953
641002,-0.785102903842926,-0.5835530757904053,1.0265814065933228,-1.4432388544082642,3.9064760208129883,179.92222595214844
641042,-0.7848315238952637,-0.5840820670127869,1.0290569067001343,-1.2875226736068726,4.027548313140869,-179.5196075439453
641082,-0.7846267223358154,-0.5814642310142517,1.0314000844955444,-1.3782988786697388,4.237504005432129,-178.79647827148438
641124,-0.7846251130104065,-0.5803676843643188,1.0333915948867798,-1.3101186752319336,4.3232808113098145,-178.0355682373047
641162,-0.7850005626678467,-0.5794437527656555,1.0345362424850464,-1.1632930040359497,4.166996955871582,-176.7917938232422
641202,-0.7855404615402222,-0.5741440653800964,1.034822702407837,-0.8682167530059814,3.8652901649475098,-175.66209411621094
641242,-0.7863686680793762,-0.5708072781562805,1.035086989402771,-0.7797480225563049,3.73752760887146,-174.5948028564453
641282,-0.7872068881988525,-0.561657726764679,1.0354584455490112,-0.9577974677085876,3.7825734615325928,-174.22340393066406
641325,-0.7880946397781372,-0.5536917448043823,1.035515546798706,-0.7192227244377136,3.946805477142334,-174.778076171875
641362,-0.7906528115272522,-0.5443270802497864,1.0362250804901123,-0.42784589529037476,3.8976848125457764,-175.09796142578125
641402,-0.7937100529670715,-0.5294574499130249,1.0366277694702148,-0.1319151520729065,3.707002639770508,-175.12933349609375
641442,-0.7975375652313232,-0.5171369910240173,1.0382424592971802,0.05002222955226898,3.659655809402466,-175.17686462402344
641482,-0.8012434840202332,-0.4992179274559021,1.040078043937683,0.25292596220970154,3.809915542602539,-175.6808319091797
641524,-0.8047581315040588,-0.48564890027046204,1.042191982269287,0.2908583879470825,4.0009026527404785,-176.0369415283203
641562,-0.8095250725746155,-0.4703075587749481,1.0455162525177002,0.19115577638149261,4.259562969207764,-175.6277313232422
641602,-0.8138923048973083,-0.45018431544303894,1.0483026504516602,0.0034714078065007925,4.411148548126221,-174.9948272705078
641642,-0.8178941607475281,-0.4334016442298889,1.0514907836914062,-0.02449418231844902,4.904951572418213,-174.4730224609375
641682,-0.8212670683860779,-0.4113242030143738,1.0536258220672607,0.10892884433269501,5.294215202331543,-174.55026245117188
641722,-0.8239114880561829,-0.395325243473053,1.054614543914795,0.20072384178638458,5.54282808303833,-174.92584228515625
641762,-0.8280278444290161,-0.37780314683914185,1.0562447309494019,0.3400392532348633,5.409526348114014,-174.98960876464844
641802,-0.8318154811859131,-0.35657578706741333,1.0570287704467773,0.2710028886795044,5.317255973815918,-174.84933471679688
641842,-0.8356651663780212,-0.3401258587837219,1.058410882949829,0.023123254999518394,5.213128566741943,-174.207275390625
641882,-0.8384716510772705,-0.3190094530582428,1.0587129592895508,-0.24266278743743896,5.006433963775635,-173.74354553222656
641922,-0.8400757908821106,-0.3031497895717621,1.0586581230163574,-0.48909974098205566,4.862467288970947,-173.7421112060547
641962,-0.8410331010818481,-0.2844463884830475,1.0580426454544067,-0.5746797323226929,4.9932966232299805,-173.8612060546875
642002,-0.8407464623451233,-0.26184940338134766,1.055284857749939,-0.3100152909755707,4.972692489624023,-173.93824768066406
642042,-0.8400170803070068,-0.24082225561141968,1.0521208047866821,-0.3069245517253876,4.878322601318359,-174.02838134765625
642082,-0.8374985456466675,-0.22327347099781036,1.046107530593872,-0.8389603495597839,4.873040676116943,-173.6324920654297
642122,-0.8359155654907227,-0.206617072224617,1.0420558452606201,-1.196232557296753,4.7190375328063965,-173.64080810546875
642162,-0.8355827927589417,-0.18915529549121857,1.0406020879745483,-1.163746953010559,4.584257125854492,-173.81471252441406
642202,-0.8359808921813965,-0.1720213145017624,1.0406287908554077,-1.1917393207550049,4.408611297607422,-173.9497528076172
642243,-0.8358275890350342,-0.15551652014255524,1.039949655532837,-1.3847624063491821,4.104880332946777,-173.72364807128906
642282,-0.8363527655601501,-0.13927145302295685,1.0399928092956543,-1.518456220626831,3.5198075771331787,-173.11593627929688
642322,-0.8358923196792603,-0.12327983230352402,1.038981318473816,-1.7686853408813477,3.290266513824463,-173.1727294921875
642362,-0.8365370631217957,-0.10637988150119781,1.040311574935913,-1.8281341791152954,3.211052417755127,-173.4956817626953
642402,-0.8372912406921387,-0.08904454112052917,1.0420717000961304,-1.7306506633758545,3.1865882873535156,-174.2925262451172
642443,-0.8379198908805847,-0.07251407206058502,1.043157696723938,-1.8807164430618286,3.2649025917053223,-174.8361053466797
642482,-0.838771641254425,-0.05652637779712677,1.044218897819519,-1.9840675592422485,3.2025301456451416,-175.18222045898438
642522,-0.8390878438949585,-0.041447050869464874,1.0438629388809204,-2.2625062465667725,3.1921844482421875,-175.6383819580078
642562,-0.8397724628448486,-0.02608846127986908,1.044397234916687,-2.311762809753418,3.0392704010009766,-176.04824829101562
642602,-0.8406514525413513,-0.01095729973167181,1.0447629690170288,-2.3714075088500977,2.750528335571289,-176.56265258789062
642642,-0.8412873148918152,0.003232903778553009,1.0443798303604126,-2.277522087097168,2.4982640743255615,-177.07269287109375
642682,-0.841925323009491,0.017239537090063095,1.0439175367355347,-2.269731283187866,2.3514411449432373,-177.36349487304688
642722,-0.8421583771705627,0.029610658064484596,1.0426043272018433,-2.457338333129883,2.018686294555664,-177.54290771484375
642762,-0.8429057002067566,0.04214736819267273,1.042176604270935,-2.306074380874634,1.70350980758667,-177.7024383544922
642802,-0.843974769115448,0.05433052405714989,1.0424855947494507,-2.268073558807373,1.470043659210205,-177.90977478027344
642842,-0.8448553681373596,0.0655447244644165,1.0430124998092651,-2.250312328338623,1.2873849868774414,-178.1611328125
642882,-0.8454726338386536,0.07668690383434296,1.043428897857666,-2.2983293533325195,1.1894022226333618,-178.06793212890625
642922,-0.8458192944526672,0.08743341267108917,1.0433121919631958,-2.1816046237945557,0.8795142769813538,-178.17723083496094
642962,-0.8464871048927307,0.09866619855165482,1.0442866086959839,-2.4796695709228516,0.6495217084884644,-177.68077087402344
643002,-0.8473536372184753,0.11018123477697372,1.0460387468338013,-2.8122732639312744,0.47322940826416016,-177.08468627929688
643043,-0.8477386236190796,0.12213340401649475,1.0472036600112915,-2.818850517272949,0.2033827155828476,-177.02471923828125
643082,-0.8477619886398315,0.1346285194158554,1.048439860343933,-2.779414653778076,0.1968638300895691,-177.11769104003906
643122,-0.8478277325630188,0.14654681086540222,1.0493128299713135,-2.982774496078491,0.2899535596370697,-177.1088409423828
643162,-0.8478536009788513,0.1592082381248474,1.050337553024292,-2.7998061180114746,0.26362884044647217,-177.08203125
643202,-0.8479562401771545,0.17203779518604279,1.0525662899017334,-2.7459099292755127,0.46663832664489746,-177.37588500976562
643243,-0.8479644060134888,0.18428537249565125,1.0547627210617065,-2.9562313556671143,0.5551577210426331,-177.42892456054688
643282,-0.8478587865829468,0.19624190032482147,1.056556224822998,-3.056992769241333,0.45537883043289185,-177.0832061767578
643322,-0.8475496172904968,0.2073129415512085,1.0583186149597168,-3.174409866333008,0.6521384119987488,-177.377197265625
643362,-0.8465406894683838,0.21908918023109436,1.0599310398101807,-3.2536582946777344,0.811152994632721,-177.77349853515625
643402,-0.8457117676734924,0.2301841825246811,1.061762809753418,-3.182284355163574,0.7878002524375916,-178.40628051757812
643443,-0.8444974422454834,0.24067895114421844,1.0626360177993774,-3.158787488937378,0.6067425012588501,-178.89608764648438
643482,-0.8431412577629089,0.2509256601333618,1.063156008720398,-3.207951545715332,0.5856437087059021,-178.91070556640625
643522,-0.8418757319450378,0.2600862383842468,1.0632661581039429,-3.3411595821380615,0.39355728030204773,-179.09300231933594
643562,-0.8402799367904663,0.2698253393173218,1.0629653930664062,-3.250711441040039,0.36405572295188904,-179.2020721435547
643602,-0.8391846418380737,0.27865660190582275,1.0631414651870728,-2.9778106212615967,0.2820504903793335,-179.46348571777344
643644,-0.8381513953208923,0.2871924936771393,1.0629435777664185,-2.863691568374634,0.33223435282707214,-179.2421112060547
643682,-0.8377317190170288,0.29469481110572815,1.0637603998184204,-2.9731674194335938,0.3584001362323761,-179.100830078125
643722,-0.8371504545211792,0.3013140857219696,1.064223051071167,-3.070875406265259,0.49128085374832153,-179.178955078125
643762,-0.8366909027099609,0.3073163330554962,1.0652046203613281,-2.9493215084075928,0.6128776669502258,-179.30035400390625
643802,-0.8376453518867493,0.3112231194972992,1.067125916481018,-3.2009940147399902,0.9115428924560547,-178.8549346923828
643844,-0.8390755653381348,0.3136441707611084,1.0685850381851196,-3.048762321472168,0.9096196889877319,-178.5326385498047
643882,-0.840151846408844,0.3156784176826477,1.0705006122589111,-3.2052435874938965,1.1619789600372314,-178.29843139648438
643922,-0.840695858001709,0.31715813279151917,1.0719338655471802,-3.4079620838165283,1.3933391571044922,-178.0757598876953
643962,-0.8403570652008057,0.3191329836845398,1.0726964473724365,-3.2345495223999023,1.4510873556137085,-178.1232147216797
644002,-0.8400166630744934,0.3206331729888916,1.0734095573425293,-2.9085488319396973,1.5283523797988892,-178.73304748535156
644044,-0.8403165340423584,0.32118189334869385,1.0740113258361816,-2.831228256225586,1.412412166595459,-178.6212158203125
644082,-0.8408128619194031,0.32131147384643555,1.074931263923645,-2.9382026195526123,1.4589563608169556,-178.07077026367188
644122,-0.8411083817481995,0.321377158164978,1.0758731365203857,-2.9547576904296875,1.5276297330856323,-178.20791625976562
644162,-0.8410342335700989,0.3215579688549042,1.076167345046997,-2.9642910957336426,1.5045547485351562,-178.29000854492188
644202,-0.8414669036865234,0.32096758484840393,1.0763212442398071,-2.923393726348877,1.470880389213562,-178.3671112060547
644242,-0.8420085906982422,0.3199794888496399,1.0760047435760498,-2.919098138809204,1.4235721826553345,-178.2565155029297
644282,-0.8424379229545593,0.31901416182518005,1.075150728225708,-2.955325126647949,1.3699089288711548,-177.8530731201172
644322,-0.84283447265625,0.31749722361564636,1.0746452808380127,-2.821183443069458,1.1880534887313843,-177.8465118408203
644362,-0.8431480526924133,0.31604549288749695,1.0741480588912964,-2.770573139190674,1.1457946300506592,-177.86712646484375
644402,-0.8434517979621887,0.3148222863674164,1.0736820697784424,-2.785510540008545,1.125609040260315,-177.60272216796875
644442,-0.8440024256706238,0.31347060203552246,1.0736695528030396,-2.8219199180603027,1.1020313501358032,-177.43055725097656
644482,-0.8436412811279297,0.3130921423435211,1.0731966495513916,-2.94645094871521,1.11421799659729,-177.20074462890625
644522,-0.8427263498306274,0.3127547800540924,1.0727177858352661,-3.0070371627807617,1.1560018062591553,-177.240478515625
644562,-0.8408470153808594,0.3127371668815613,1.07160222530365,-2.9573006629943848,1.0988285541534424,-177.55270385742188
644602,-0.8385487794876099,0.3128785192966461,1.0703201293945312,-2.6610727310180664,1.0838419198989868,-177.79078674316406
644642,-0.836186945438385,0.3123343586921692,1.0693349838256836,-2.7599992752075195,1.0485093593597412,-177.79779052734375
644682,-0.8333505988121033,0.3115088641643524,1.0685375928878784,-2.9435088634490967,0.9720329642295837,-177.41873168945312
644722,-0.8297294974327087,0.31108543276786804,1.0677118301391602,-3.0765180587768555,0.9203898310661316,-177.38661193847656
644762,-0.825846254825592,0.31129249930381775,1.0668851137161255,-3.0718307495117188,0.9266123175621033,-177.43063354492188
644802,-0.8186764717102051,0.3117721974849701,1.06571364402771,-3.0158417224884033,0.9325472116470337,-177.8350830078125
644842,-0.812623918056488,0.31217676401138306,1.0650750398635864,-2.954711437225342,1.0224947929382324,-178.29400634765625
644882,-0.8059718608856201,0.31321579217910767,1.0641348361968994,-3.208277463912964,1.0148019790649414,-178.18527221679688
644922,-0.7987754940986633,0.31425032019615173,1.0634660720825195,-3.1651504039764404,1.0962389707565308,-178.56134033203125
644962,-0.7923707365989685,0.3148646056652069,1.0633888244628906,-3.195103883743286,1.206830382347107,-178.6220245361328
645002,-0.7816241383552551,0.31650808453559875,1.0635803937911987,-3.0110628604888916,1.1825141906738281,-179.2003936767578
645042,-0.7725629806518555,0.31722843647003174,1.0650451183319092,-3.2789459228515625,1.1327850818634033,-179.6762237548828
645082,-0.7628934383392334,0.3176807165145874,1.0673331022262573,-3.790780782699585,1.1363158226013184,-179.59848022460938
645122,-0.752333402633667,0.31871891021728516,1.0684815645217896,-3.843465805053711,1.059088945388794,179.98187255859375
645163,-0.7399759292602539,0.31895363330841064,1.0706108808517456,-3.99412202835083,1.3332018852233887,179.57199096679688
645202,-0.7266891598701477,0.319909006357193,1.070993423461914,-3.883922815322876,1.3516114950180054,178.984619140625
645242,-0.7125429511070251,0.32022765278816223,1.070823073387146,-3.7669527530670166,1.4461915493011475,178.32301330566406
645282,-0.6978952288627625,0.320267915725708,1.070373773574829,-3.480334520339966,1.3390953540802002,178.28004455566406
645322,-0.6824787259101868,0.3208426535129547,1.0697518587112427,-3.3919172286987305,1.4669442176818848,177.65167236328125
645363,-0.6668007969856262,0.31946682929992676,1.0709227323532104,-3.20359468460083,1.5998533964157104,177.4866943359375
645402,-0.6507265567779541,0.31998127698898315,1.071092963218689,-2.8684351444244385,1.7781795263290405,177.24073791503906
645442,-0.6352116465568542,0.32037052512168884,1.0723521709442139,-2.5412707328796387,2.0467214584350586,176.2551727294922
645482,-0.6201276183128357,0.32072877883911133,1.0736998319625854,-2.6345529556274414,2.380100727081299,176.25460815429688
645522,-0.6062813401222229,0.3208186626434326,1.074863076210022,-2.302778959274292,2.330533504486084,176.1160430908203
645563,-0.591621994972229,0.3205936551094055,1.0770515203475952,-2.694340944290161,2.388213872909546,176.60316467285156
645602,-0.5756063461303711,0.3194980025291443,1.0799789428710938,-3.0228214263916016,2.495875835418701,176.50071716308594
645642,-0.5590541958808899,0.31855839490890503,1.0825661420822144,-2.782810926437378,2.4818453788757324,175.725830078125
645682,-0.5426278114318848,0.3173011839389801,1.0860390663146973,-3.2517995834350586,2.903670072555542,175.4417266845703
645722,-0.5270898342132568,0.31606781482696533,1.0878312587738037,-3.180619478225708,2.680233955383301,175.2899932861328
645763,-0.5148017406463623,0.31464552879333496,1.0902915000915527,-3.1892402172088623,2.7685327529907227,175.32334899902344
645802,-0.494652658700943,0.31339213252067566,1.093815565109253,-3.1894562244415283,3.1024248600006104,174.890380859375
645842,-0.47801387310028076,0.3114357590675354,1.0965917110443115,-3.044954299926758,2.893113851547241,174.50904846191406
645882,-0.46055829524993896,0.3104577362537384,1.0988883972167969,-2.9708406925201416,3.048173427581787,173.9272918701172
645922,-0.4453115463256836,0.3097219169139862,1.1007436513900757,-2.6734864711761475,3.215696096420288,173.15350341796875
645964,-0.4342905282974243,0.30822980403900146,1.1027635335922241,-2.7950456142425537,3.4116790294647217,173.0630645751953
646002,-0.41721630096435547,0.30563974380493164,1.1040661334991455,-2.571251153945923,3.391789674758911,172.9633331298828
646042,-0.4060695469379425,0.30431798100471497,1.1043663024902344,-2.4414970874786377,3.2533621788024902,172.8749237060547
646082,-0.39255672693252563,0.3025723099708557,1.1053932905197144,-2.3975658416748047,3.21884822845459,172.734130859375
646122,-0.3791535198688507,0.3009665012359619,1.106448769569397,-2.4031178951263428,3.1737220287323,172.84420776367188
646164,-0.3650396168231964,0.2981528043746948,1.1093475818634033,-2.7272424697875977,3.430832862854004,173.20387268066406
646202,-0.35002419352531433,0.297355979681015,1.110390305519104,-2.839303731918335,3.4582817554473877,173.27159118652344
646242,-0.33493804931640625,0.2960360050201416,1.1125621795654297,-3.048924684524536,3.5892624855041504,173.2913818359375
646282,-0.3200915455818176,0.2956030070781708,1.1140788793563843,-3.383857488632202,3.8868844509124756,173.71083068847656
646322,-0.30433300137519836,0.29536139965057373,1.114997386932373,-3.4139320850372314,3.939063310623169,173.9014434814453
646364,-0.28784313797950745,0.29563987255096436,1.1157889366149902,-3.7180299758911133,4.284531593322754,174.24838256835938
646402,-0.2707163691520691,0.29616063833236694,1.115366816520691,-3.5876855850219727,4.4788384437561035,174.37939453125
646442,-0.2520166337490082,0.2959468364715576,1.1151127815246582,-3.7714312076568604,4.7111735343933105,174.44113159179688
646482,-0.2326527237892151,0.2962512671947479,1.1131805181503296,-3.6151816844940186,4.682446479797363,174.66893005371094
646522,-0.21188101172447205,0.29714280366897583,1.1099324226379395,-3.2185428142547607,4.692004680633545,174.69053649902344
646562,-0.19101527333259583,0.2971721589565277,1.1074424982070923,-2.9606761932373047,4.528172969818115,174.8827362060547
646602,-0.16931882500648499,0.29796603322029114,1.1046587228775024,-3.3075170516967773,4.479569435119629,175.60484313964844
646642,-0.14893732964992523,0.29941749572753906,1.1013070344924927,-3.318390130996704,4.210963726043701,175.73513793945312
646682,-0.1284199208021164,0.30122140049934387,1.0971726179122925,-2.9830503463745117,3.9747347831726074,175.5017547607422
646722,-0.10887801647186279,0.3034469485282898,1.0925424098968506,-2.3454039096832275,3.603645086288452,174.9082489013672
646764,-0.09031689167022705,0.30405959486961365,1.089972734451294,-2.6241562366485596,3.43449068069458,175.02822875976562
646802,-0.07305965572595596,0.30400651693344116,1.0876513719558716,-2.8789310455322266,3.1102089881896973,175.47235107421875
646842,-0.05662734806537628,0.3033807575702667,1.0860494375228882,-3.0385921001434326,3.013127088546753,175.26675415039062
646882,-0.045383650809526443,0.3024532198905945,1.0850069522857666,-3.0816898345947266,2.764892816543579,175.573486328125
646922,-0.02789091132581234,0.3007658123970032,1.0844395160675049,-3.37632417678833,2.542729139328003,175.48297119140625
